[{"name": "Bogale", "lat": 16.29415, "lon": 95.39742}, {"name": "Hinthada", "lat": 17.64944, "lon": 95.45705}, {"name": "Kyaiklat", "lat": 16.44502, "lon": 95.72373}, {"name": "Maubin", "lat": 16.73148, "lon": 95.65441}, {"name": "Mawlamyinegyunn", "lat": 16.3772, "lon": 95.26488}, {"name": "Myanaung", "lat": 18.28651, "lon": 95.32014}, {"name": "Nyaungdon", "lat": 17.04459, "lon": 95.63957}, {"name": "Pathein", "lat": 16.77919, "lon": 94.73212}, {"name": "Pyapon", "lat": 16.28543, "lon": 95.67882}, {"name": "Wakema", "lat": 16.60333, "lon": 95.18278}, {"name": "Bago", "lat": 17.33521, "lon": 96.48135}, {"name": "Letpandan", "lat": 17.78664, "lon": 95.75076}, {"name": "Nyaunglebin", "lat": 17.95363, "lon": 96.72247}, {"name": "Paungde", "lat": 18.49167, "lon": 95.50591}, {"name": "Pyay", "lat": 18.82464, "lon": 95.22216}, {"name": "Pyu", "lat": 18.4813, "lon": 96.43742}, {"name": "Taungoo", "lat": 18.94291, "lon": 96.43408}, {"name": "Thanatpin", "lat": 17.29136, "lon": 96.57523}, {"name": "Tharyarwady", "lat": 17.65399, "lon": 95.78813}, {"name": "Falam", "lat": 22.91335, "lon": 93.67779}, {"name": "Hakha", "lat": 22.64452, "lon": 93.61076}, {"name": "Bhamo", "lat": 24.25256, "lon": 97.23357}, {"name": "Myitkyina", "lat": 25.38327, "lon": 97.39637}, {"name": "Loikaw", "lat": 19.67798, "lon": 97.20975}, {"name": "Dellok", "lat": 16.04072, "lon": 97.91773}, {"name": "Hpa-An", "lat": 16.88953, "lon": 97.63482}, {"name": "Klonhtoug", "lat": 15.95411, "lon": 98.4325}, {"name": "Kyain Seikgyi Township", "lat": 15.82288, "lon": 98.25257}, {"name": "Mikenaungea", "lat": 15.95846, "lon": 98.42721}, {"name": "Myawadi", "lat": 16.68911, "lon": 98.50893}, {"name": "Pulei", "lat": 16.06243, "lon": 97.8828}, {"name": "Tagondaing", "lat": 16.0675, "lon": 97.90694}, {"name": "Tamoowoug", "lat": 16.03447, "lon": 97.91458}, {"name": "Chauk", "lat": 20.89921, "lon": 94.81784}, {"name": "Magway", "lat": 20.14956, "lon": 94.93246}, {"name": "Minbu", "lat": 20.18059, "lon": 94.87595}, {"name": "Myaydo", "lat": 19.36838, "lon": 95.21512}, {"name": "Pakokku", "lat": 21.33489, "lon": 95.08438}, {"name": "Taungdwingyi", "lat": 20.0065, "lon": 95.54531}, {"name": "Thayetmyo", "lat": 19.32076, "lon": 95.18272}, {"name": "Yenangyaung", "lat": 20.46504, "lon": 94.8712}, {"name": "Kyaukse", "lat": 21.6056, "lon": 96.13508}, {"name": "Mandalay", "lat": 21.97473, "lon": 96.08359}, {"name": "Meiktila", "lat": 20.87776, "lon": 95.85844}, {"name": "Mogok", "lat": 22.91766, "lon": 96.50982}, {"name": "Myingyan", "lat": 21.46002, "lon": 95.3884}, {"name": "Nyaungshwe", "lat": 20.66084, "lon": 96.93405}, {"name": "Pyin Oo Lwin", "lat": 22.03501, "lon": 96.45683}, {"name": "Yamethin", "lat": 20.43189, "lon": 96.13875}, {"name": "Kyaikkami", "lat": 16.07686, "lon": 97.56388}, {"name": "Kyaikto", "lat": 17.30858, "lon": 97.01124}, {"name": "Martaban", "lat": 16.52834, "lon": 97.6157}, {"name": "Mawlamyine", "lat": 16.49051, "lon": 97.62825}, {"name": "Mudon", "lat": 16.25624, "lon": 97.7246}, {"name": "Thaton", "lat": 16.91867, "lon": 97.37001}, {"name": "Nay Pyi Taw", "lat": 19.745, "lon": 96.12972}, {"name": "Pyinmana", "lat": 19.7381, "lon": 96.20742}, {"name": "Sittwe", "lat": 20.14624, "lon": 92.89835}, {"name": "Mawlaik", "lat": 23.64254, "lon": 94.40478}, {"name": "Monywa", "lat": 22.10856, "lon": 95.13583}, {"name": "Sagaing", "lat": 21.8787, "lon": 95.97965}, {"name": "Shwebo", "lat": 22.56925, "lon": 95.69818}, {"name": "Lashio", "lat": 22.9359, "lon": 97.7498}, {"name": "Tachilek", "lat": 20.4475, "lon": 99.88083}, {"name": "Taunggyi", "lat": 20.78919, "lon": 97.03776}, {"name": "Dawei", "lat": 14.0823, "lon": 98.19151}, {"name": "Kawthoung", "lat": 9.98238, "lon": 98.55034}, {"name": "Myeik", "lat": 12.43954, "lon": 98.60028}, {"name": "Kanbe", "lat": 16.70728, "lon": 96.00168}, {"name": "Kayan", "lat": 16.90802, "lon": 96.56037}, {"name": "Syriam", "lat": 16.76887, "lon": 96.24503}, {"name": "Thongwa", "lat": 16.75998, "lon": 96.52498}, {"name": "Twante", "lat": 16.71047, "lon": 95.92866}, {"name": "Yangon", "lat": 16.80528, "lon": 96.15611}]