[{"name": "Bamboo Flat", "lat": 11.7, "lon": 92.71667, "country": "India", "toast": "Cheers"}, {"name": "Nicobar", "lat": 7.03002, "lon": 93.79028, "country": "India", "toast": "Cheers"}, {"name": "Port Blair", "lat": 11.66613, "lon": 92.74635, "country": "India", "toast": "Cheers"}, {"name": "South Andaman", "lat": 10.75776, "lon": 92.52136, "country": "India", "toast": "Cheers"}, {"name": "Addanki", "lat": 15.81061, "lon": 79.97338, "country": "India", "toast": "Cheers"}, {"name": "Adoni", "lat": 15.62788, "lon": 77.27495, "country": "India", "toast": "Cheers"}, {"name": "Akasahebpet", "lat": 17.50455, "lon": 82.56597, "country": "India", "toast": "Cheers"}, {"name": "Akividu", "lat": 16.58225, "lon": 81.38112, "country": "India", "toast": "Cheers"}, {"name": "Akkarampalle", "lat": 13.65, "lon": 79.42, "country": "India", "toast": "Cheers"}, {"name": "Amalapuram", "lat": 16.57868, "lon": 82.00609, "country": "India", "toast": "Cheers"}, {"name": "Amudalavalasa", "lat": 18.41025, "lon": 83.90295, "country": "India", "toast": "Cheers"}, {"name": "Anakapalle", "lat": 17.69134, "lon": 83.00395, "country": "India", "toast": "Cheers"}, {"name": "Anantapur", "lat": 14.55, "lon": 77.41667, "country": "India", "toast": "Cheers"}, {"name": "Atmakur", "lat": 15.88109, "lon": 78.58704, "country": "India", "toast": "Cheers"}, {"name": "Attili", "lat": 16.7, "lon": 81.6, "country": "India", "toast": "Cheers"}, {"name": "Avanigadda", "lat": 16.02148, "lon": 80.91808, "country": "India", "toast": "Cheers"}, {"name": "Badvel", "lat": 14.7451, "lon": 79.06288, "country": "India", "toast": "Cheers"}, {"name": "Banganapalle", "lat": 15.31771, "lon": 78.22669, "country": "India", "toast": "Cheers"}, {"name": "Bapatla", "lat": 15.90422, "lon": 80.46743, "country": "India", "toast": "Cheers"}, {"name": "Betamcherla", "lat": 15.45144, "lon": 78.14797, "country": "India", "toast": "Cheers"}, {"name": "Bhattiprolu", "lat": 16.1026, "lon": 80.78074, "country": "India", "toast": "Cheers"}, {"name": "Bhimavaram", "lat": 16.54078, "lon": 81.52322, "country": "India", "toast": "Cheers"}, {"name": "Bhimunipatnam", "lat": 17.89017, "lon": 83.45203, "country": "India", "toast": "Cheers"}, {"name": "Bobbili", "lat": 18.57366, "lon": 83.35925, "country": "India", "toast": "Cheers"}, {"name": "Challapalle", "lat": 16.11756, "lon": 80.93139, "country": "India", "toast": "Cheers"}, {"name": "Chemmumiahpet", "lat": 15.89794, "lon": 79.32129, "country": "India", "toast": "Cheers"}, {"name": "Chilakalurupet", "lat": 16.08987, "lon": 80.16705, "country": "India", "toast": "Cheers"}, {"name": "Chinnachowk", "lat": 14.47516, "lon": 78.8354, "country": "India", "toast": "Cheers"}, {"name": "Chipurupalle", "lat": 18.31142, "lon": 83.56846, "country": "India", "toast": "Cheers"}, {"name": "Chirala", "lat": 15.82385, "lon": 80.35219, "country": "India", "toast": "Cheers"}, {"name": "Chittoor", "lat": 13.41667, "lon": 79.0, "country": "India", "toast": "Cheers"}, {"name": "Chodavaram", "lat": 17.82884, "lon": 82.93526, "country": "India", "toast": "Cheers"}, {"name": "Cuddapah", "lat": 14.41667, "lon": 78.75, "country": "India", "toast": "Cheers"}, {"name": "Cumbum", "lat": 15.58171, "lon": 79.11059, "country": "India", "toast": "Cheers"}, {"name": "Darsi", "lat": 15.76978, "lon": 79.67939, "country": "India", "toast": "Cheers"}, {"name": "Dharmavaram", "lat": 14.41435, "lon": 77.72035, "country": "India", "toast": "Cheers"}, {"name": "Dhone", "lat": 15.3952, "lon": 77.8715, "country": "India", "toast": "Cheers"}, {"name": "Diguvametta", "lat": 15.39507, "lon": 78.8293, "country": "India", "toast": "Cheers"}, {"name": "East Godavari", "lat": 17.83333, "lon": 81.83333, "country": "India", "toast": "Cheers"}, {"name": "Elamanchili", "lat": 17.54907, "lon": 82.85749, "country": "India", "toast": "Cheers"}, {"name": "Ellore", "lat": 16.71311, "lon": 81.10437, "country": "India", "toast": "Cheers"}, {"name": "Emmiganur", "lat": 15.77203, "lon": 77.48345, "country": "India", "toast": "Cheers"}, {"name": "Erraguntla", "lat": 14.63853, "lon": 78.53974, "country": "India", "toast": "Cheers"}, {"name": "Etikoppaka", "lat": 17.5, "lon": 82.73333, "country": "India", "toast": "Cheers"}, {"name": "Gajuwaka", "lat": 17.7, "lon": 83.21667, "country": "India", "toast": "Cheers"}, {"name": "Ganguvada", "lat": 18.66667, "lon": 84.11667, "country": "India", "toast": "Cheers"}, {"name": "Gannavaram", "lat": 16.54092, "lon": 80.80213, "country": "India", "toast": "Cheers"}, {"name": "Giddalur", "lat": 15.37439, "lon": 78.92609, "country": "India", "toast": "Cheers"}, {"name": "Gokavaram", "lat": 17.25823, "lon": 81.84985, "country": "India", "toast": "Cheers"}, {"name": "Gorantla", "lat": 13.98411, "lon": 77.77224, "country": "India", "toast": "Cheers"}, {"name": "GovindapuramChilakaluripetGuntur", "lat": 16.15477, "lon": 80.10279, "country": "India", "toast": "Cheers"}, {"name": "Gudivada", "lat": 16.43547, "lon": 80.99555, "country": "India", "toast": "Cheers"}, {"name": "Gudlavalleru", "lat": 16.35, "lon": 81.05, "country": "India", "toast": "Cheers"}, {"name": "Gudur", "lat": 14.15093, "lon": 79.8521, "country": "India", "toast": "Cheers"}, {"name": "Guntakal Junction", "lat": 15.17112, "lon": 77.36244, "country": "India", "toast": "Cheers"}, {"name": "Guntur", "lat": 16.29974, "lon": 80.45729, "country": "India", "toast": "Cheers"}, {"name": "Hindupur", "lat": 13.82807, "lon": 77.49143, "country": "India", "toast": "Cheers"}, {"name": "Ichchapuram", "lat": 19.11393, "lon": 84.68721, "country": "India", "toast": "Cheers"}, {"name": "Jaggayyapeta", "lat": 16.8938, "lon": 80.09807, "country": "India", "toast": "Cheers"}, {"name": "Jammalamadugu", "lat": 14.84677, "lon": 78.38314, "country": "India", "toast": "Cheers"}, {"name": "Kadiri", "lat": 14.11168, "lon": 78.15982, "country": "India", "toast": "Cheers"}, {"name": "Kaikalur", "lat": 16.55154, "lon": 81.214, "country": "India", "toast": "Cheers"}, {"name": "Kakinada", "lat": 16.96036, "lon": 82.23809, "country": "India", "toast": "Cheers"}, {"name": "Kalyandurg", "lat": 14.54519, "lon": 77.10552, "country": "India", "toast": "Cheers"}, {"name": "Kamalapuram", "lat": 14.5983, "lon": 78.66948, "country": "India", "toast": "Cheers"}, {"name": "Kandukur", "lat": 15.21542, "lon": 79.9039, "country": "India", "toast": "Cheers"}, {"name": "Kanigiri", "lat": 15.40555, "lon": 79.50694, "country": "India", "toast": "Cheers"}, {"name": "Kankipadu", "lat": 16.4353, "lon": 80.76715, "country": "India", "toast": "Cheers"}, {"name": "Kanuru", "lat": 16.28584, "lon": 81.25464, "country": "India", "toast": "Cheers"}, {"name": "Kavali", "lat": 14.9163, "lon": 79.99449, "country": "India", "toast": "Cheers"}, {"name": "Kolanukonda", "lat": 16.45392, "lon": 80.61046, "country": "India", "toast": "Cheers"}, {"name": "Kondapalle", "lat": 16.61989, "lon": 80.54244, "country": "India", "toast": "Cheers"}, {"name": "Korukollu", "lat": 16.5, "lon": 81.25, "country": "India", "toast": "Cheers"}, {"name": "Kosigi", "lat": 15.8551, "lon": 77.24463, "country": "India", "toast": "Cheers"}, {"name": "Kovvur", "lat": 17.0162, "lon": 81.72934, "country": "India", "toast": "Cheers"}, {"name": "Krishna", "lat": 16.66667, "lon": 81.0, "country": "India", "toast": "Cheers"}, {"name": "Kuppam", "lat": 12.74931, "lon": 78.34189, "country": "India", "toast": "Cheers"}, {"name": "Kurnool", "lat": 15.58333, "lon": 78.33333, "country": "India", "toast": "Cheers"}, {"name": "Macherla", "lat": 16.47635, "lon": 79.43533, "country": "India", "toast": "Cheers"}, {"name": "Machilipatnam", "lat": 16.18747, "lon": 81.13888, "country": "India", "toast": "Cheers"}, {"name": "Madanapalle", "lat": 13.5503, "lon": 78.50288, "country": "India", "toast": "Cheers"}, {"name": "Madugula", "lat": 17.91589, "lon": 82.81578, "country": "India", "toast": "Cheers"}, {"name": "Mandapeta", "lat": 16.86254, "lon": 81.92921, "country": "India", "toast": "Cheers"}, {"name": "Mandasa", "lat": 18.8683, "lon": 84.46296, "country": "India", "toast": "Cheers"}, {"name": "Mangalagiri", "lat": 16.43083, "lon": 80.56815, "country": "India", "toast": "Cheers"}, {"name": "Markapur", "lat": 15.73534, "lon": 79.26848, "country": "India", "toast": "Cheers"}, {"name": "Nagari", "lat": 13.32139, "lon": 79.58557, "country": "India", "toast": "Cheers"}, {"name": "Nagireddipalli", "lat": 14.27005, "lon": 79.10131, "country": "India", "toast": "Cheers"}, {"name": "Nandigama", "lat": 16.7717, "lon": 80.28596, "country": "India", "toast": "Cheers"}, {"name": "Nandikotkur", "lat": 15.85668, "lon": 78.26569, "country": "India", "toast": "Cheers"}, {"name": "Nandyal", "lat": 15.47799, "lon": 78.4836, "country": "India", "toast": "Cheers"}, {"name": "Narasannapeta", "lat": 18.41428, "lon": 84.04463, "country": "India", "toast": "Cheers"}, {"name": "Narasapur", "lat": 16.43425, "lon": 81.69845, "country": "India", "toast": "Cheers"}, {"name": "Narasaraopet", "lat": 16.23488, "lon": 80.04927, "country": "India", "toast": "Cheers"}, {"name": "Narasingapuram", "lat": 13.60759, "lon": 79.31652, "country": "India", "toast": "Cheers"}, {"name": "Narayanavanam", "lat": 13.42565, "lon": 79.58881, "country": "India", "toast": "Cheers"}, {"name": "Narsipatnam", "lat": 17.66709, "lon": 82.61245, "country": "India", "toast": "Cheers"}, {"name": "Nayudupet", "lat": 13.90742, "lon": 79.89465, "country": "India", "toast": "Cheers"}, {"name": "Nellore", "lat": 14.08333, "lon": 79.58333, "country": "India", "toast": "Cheers"}, {"name": "Nidadavole", "lat": 16.90572, "lon": 81.67222, "country": "India", "toast": "Cheers"}, {"name": "Nuzvid", "lat": 16.78854, "lon": 80.84593, "country": "India", "toast": "Cheers"}, {"name": "Ongole", "lat": 15.50357, "lon": 80.04454, "country": "India", "toast": "Cheers"}, {"name": "Pakala", "lat": 13.44903, "lon": 79.11493, "country": "India", "toast": "Cheers"}, {"name": "Palakollu", "lat": 16.5167, "lon": 81.73, "country": "India", "toast": "Cheers"}, {"name": "Palasa", "lat": 18.77257, "lon": 84.41012, "country": "India", "toast": "Cheers"}, {"name": "Palkonda", "lat": 18.60374, "lon": 83.75568, "country": "India", "toast": "Cheers"}, {"name": "Pallevada", "lat": 16.5779, "lon": 81.29463, "country": "India", "toast": "Cheers"}, {"name": "Palmaner", "lat": 13.2, "lon": 78.74725, "country": "India", "toast": "Cheers"}, {"name": "Parlakimidi", "lat": 18.78113, "lon": 84.08836, "country": "India", "toast": "Cheers"}, {"name": "Parvatipuram", "lat": 18.78392, "lon": 83.42569, "country": "India", "toast": "Cheers"}, {"name": "Pavuluru", "lat": 15.85292, "lon": 80.16468, "country": "India", "toast": "Cheers"}, {"name": "Pedana", "lat": 16.25582, "lon": 81.14378, "country": "India", "toast": "Cheers"}, {"name": "pedda nakkalapalem", "lat": 15.8668, "lon": 80.16202, "country": "India", "toast": "Cheers"}, {"name": "Peddapuram", "lat": 17.07701, "lon": 82.13836, "country": "India", "toast": "Cheers"}, {"name": "Penugonda", "lat": 16.65363, "lon": 81.7455, "country": "India", "toast": "Cheers"}, {"name": "Penukonda", "lat": 14.08286, "lon": 77.59473, "country": "India", "toast": "Cheers"}, {"name": "Phirangipuram", "lat": 16.29078, "lon": 80.26233, "country": "India", "toast": "Cheers"}, {"name": "Pippara", "lat": 16.71667, "lon": 81.55, "country": "India", "toast": "Cheers"}, {"name": "Pithapuram", "lat": 17.1168, "lon": 82.25284, "country": "India", "toast": "Cheers"}, {"name": "Polavaram", "lat": 17.24754, "lon": 81.64372, "country": "India", "toast": "Cheers"}, {"name": "Ponnur", "lat": 16.07114, "lon": 80.54944, "country": "India", "toast": "Cheers"}, {"name": "Ponnuru", "lat": 16.06547, "lon": 80.55203, "country": "India", "toast": "Cheers"}, {"name": "Prakasam", "lat": 15.5, "lon": 79.5, "country": "India", "toast": "Cheers"}, {"name": "Proddatur", "lat": 14.7502, "lon": 78.54813, "country": "India", "toast": "Cheers"}, {"name": "Pulivendla", "lat": 14.42139, "lon": 78.22502, "country": "India", "toast": "Cheers"}, {"name": "Punganuru", "lat": 13.36672, "lon": 78.57186, "country": "India", "toast": "Cheers"}, {"name": "Puttaparthi", "lat": 14.1652, "lon": 77.8117, "country": "India", "toast": "Cheers"}, {"name": "Puttur", "lat": 13.44189, "lon": 79.55314, "country": "India", "toast": "Cheers"}, {"name": "Rajahmundry", "lat": 17.00517, "lon": 81.77784, "country": "India", "toast": "Cheers"}, {"name": "Ramachandrapuram", "lat": 16.83636, "lon": 82.02871, "country": "India", "toast": "Cheers"}, {"name": "Ramanayyapeta", "lat": 16.94516, "lon": 82.2385, "country": "India", "toast": "Cheers"}, {"name": "Ramapuram", "lat": 15.28749, "lon": 77.86722, "country": "India", "toast": "Cheers"}, {"name": "Rampachodavaram", "lat": 17.44088, "lon": 81.77558, "country": "India", "toast": "Cheers"}, {"name": "Rayachoti", "lat": 14.05723, "lon": 78.75056, "country": "India", "toast": "Cheers"}, {"name": "Rayadrug", "lat": 14.69971, "lon": 76.85241, "country": "India", "toast": "Cheers"}, {"name": "Razam", "lat": 18.44909, "lon": 83.65957, "country": "India", "toast": "Cheers"}, {"name": "Razampeta", "lat": 14.19544, "lon": 79.15896, "country": "India", "toast": "Cheers"}, {"name": "Razole", "lat": 16.47608, "lon": 81.83912, "country": "India", "toast": "Cheers"}, {"name": "Renigunta", "lat": 13.65143, "lon": 79.51256, "country": "India", "toast": "Cheers"}, {"name": "Repalle", "lat": 16.0184, "lon": 80.82958, "country": "India", "toast": "Cheers"}, {"name": "Salur", "lat": 18.51716, "lon": 83.20548, "country": "India", "toast": "Cheers"}, {"name": "Samalkot", "lat": 17.05675, "lon": 82.17639, "country": "India", "toast": "Cheers"}, {"name": "Sattenapalle", "lat": 16.39381, "lon": 80.15221, "country": "India", "toast": "Cheers"}, {"name": "Singarayakonda", "lat": 15.23046, "lon": 80.02794, "country": "India", "toast": "Cheers"}, {"name": "Sompeta", "lat": 18.94419, "lon": 84.58449, "country": "India", "toast": "Cheers"}, {"name": "Srikakulam", "lat": 18.2989, "lon": 83.89751, "country": "India", "toast": "Cheers"}, {"name": "Srisailain", "lat": 16.07217, "lon": 78.86816, "country": "India", "toast": "Cheers"}, {"name": "Suluru", "lat": 13.7, "lon": 80.01667, "country": "India", "toast": "Cheers"}, {"name": "Tadepalle", "lat": 16.48333, "lon": 80.6, "country": "India", "toast": "Cheers"}, {"name": "Tadepallegudem", "lat": 16.81467, "lon": 81.52717, "country": "India", "toast": "Cheers"}, {"name": "Tadpatri", "lat": 14.90832, "lon": 78.01031, "country": "India", "toast": "Cheers"}, {"name": "Tanuku", "lat": 16.75438, "lon": 81.68143, "country": "India", "toast": "Cheers"}, {"name": "Tekkali", "lat": 18.6057, "lon": 84.23546, "country": "India", "toast": "Cheers"}, {"name": "Tirumala", "lat": 13.68333, "lon": 79.35, "country": "India", "toast": "Cheers"}, {"name": "Tirupati", "lat": 13.63551, "lon": 79.41989, "country": "India", "toast": "Cheers"}, {"name": "Tuni", "lat": 17.35905, "lon": 82.54607, "country": "India", "toast": "Cheers"}, {"name": "Uravakonda", "lat": 14.94348, "lon": 77.25494, "country": "India", "toast": "Cheers"}, {"name": "vadlamuru", "lat": 17.09545, "lon": 82.16565, "country": "India", "toast": "Cheers"}, {"name": "Vadlapudi", "lat": 14.31119, "lon": 79.8043, "country": "India", "toast": "Cheers"}, {"name": "Venkatagiri", "lat": 13.96005, "lon": 79.58032, "country": "India", "toast": "Cheers"}, {"name": "Vepagunta", "lat": 17.77844, "lon": 83.21577, "country": "India", "toast": "Cheers"}, {"name": "Vetapalem", "lat": 15.78502, "lon": 80.30663, "country": "India", "toast": "Cheers"}, {"name": "Vijayawada", "lat": 16.50745, "lon": 80.6466, "country": "India", "toast": "Cheers"}, {"name": "Vinukonda", "lat": 16.0531, "lon": 79.73964, "country": "India", "toast": "Cheers"}, {"name": "Visakhapatnam", "lat": 17.68009, "lon": 83.20161, "country": "India", "toast": "Cheers"}, {"name": "Vizianagaram", "lat": 18.11692, "lon": 83.41148, "country": "India", "toast": "Cheers"}, {"name": "Vizianagaram District", "lat": 18.41102, "lon": 83.37677, "country": "India", "toast": "Cheers"}, {"name": "Vuyyuru", "lat": 16.36307, "lon": 80.84406, "country": "India", "toast": "Cheers"}, {"name": "West Godavari", "lat": 17.0, "lon": 81.16667, "country": "India", "toast": "Cheers"}, {"name": "Yanam", "lat": 16.73308, "lon": 82.21364, "country": "India", "toast": "Cheers"}, {"name": "Yanamalakuduru", "lat": 16.48531, "lon": 80.66746, "country": "India", "toast": "Cheers"}, {"name": "Yarada", "lat": 17.65872, "lon": 83.27419, "country": "India", "toast": "Cheers"}, {"name": "Along", "lat": 28.16951, "lon": 94.8006, "country": "India", "toast": "Cheers"}, {"name": "Anjaw", "lat": 28.06549, "lon": 96.82878, "country": "India", "toast": "Cheers"}, {"name": "Basar", "lat": 27.99008, "lon": 94.69451, "country": "India", "toast": "Cheers"}, {"name": "Bomdila", "lat": 27.26475, "lon": 92.42472, "country": "India", "toast": "Cheers"}, {"name": "Changlang", "lat": 27.36265, "lon": 96.34518, "country": "India", "toast": "Cheers"}, {"name": "Dibang Valley", "lat": 28.7, "lon": 95.7, "country": "India", "toast": "Cheers"}, {"name": "East Kameng", "lat": 27.3, "lon": 93.05, "country": "India", "toast": "Cheers"}, {"name": "East Siang", "lat": 28.12379, "lon": 95.16339, "country": "India", "toast": "Cheers"}, {"name": "Hayuliang", "lat": 28.07301, "lon": 96.54305, "country": "India", "toast": "Cheers"}, {"name": "Itanagar", "lat": 27.08694, "lon": 93.60987, "country": "India", "toast": "Cheers"}, {"name": "Khonsa", "lat": 27.01667, "lon": 95.56667, "country": "India", "toast": "Cheers"}, {"name": "Kurung Kumey", "lat": 27.99983, "lon": 93.3924, "country": "India", "toast": "Cheers"}, {"name": "Lohit", "lat": 27.84012, "lon": 96.19521, "country": "India", "toast": "Cheers"}, {"name": "Lower Dibang Valley", "lat": 28.37258, "lon": 95.8804, "country": "India", "toast": "Cheers"}, {"name": "Lower Subansiri", "lat": 27.62554, "lon": 93.93908, "country": "India", "toast": "Cheers"}, {"name": "Margherita", "lat": 27.28482, "lon": 95.66796, "country": "India", "toast": "Cheers"}, {"name": "Naharlagun", "lat": 27.10467, "lon": 93.69518, "country": "India", "toast": "Cheers"}, {"name": "Pasighat", "lat": 28.06631, "lon": 95.32678, "country": "India", "toast": "Cheers"}, {"name": "Tawang", "lat": 27.57417, "lon": 91.92437, "country": "India", "toast": "Cheers"}, {"name": "Tezu", "lat": 27.91256, "lon": 96.12882, "country": "India", "toast": "Cheers"}, {"name": "Tirap", "lat": 27.01917, "lon": 95.51788, "country": "India", "toast": "Cheers"}, {"name": "Upper Siang", "lat": 28.83355, "lon": 94.91806, "country": "India", "toast": "Cheers"}, {"name": "Upper Subansiri", "lat": 28.3, "lon": 94.0, "country": "India", "toast": "Cheers"}, {"name": "West Kameng", "lat": 27.4, "lon": 92.35, "country": "India", "toast": "Cheers"}, {"name": "West Siang", "lat": 28.4, "lon": 94.55, "country": "India", "toast": "Cheers"}, {"name": "Ziro", "lat": 27.59497, "lon": 93.83854, "country": "India", "toast": "Cheers"}, {"name": "Abhayapuri", "lat": 26.32255, "lon": 90.68526, "country": "India", "toast": "Cheers"}, {"name": "Amguri", "lat": 26.81482, "lon": 94.52614, "country": "India", "toast": "Cheers"}, {"name": "Badarpur", "lat": 24.86852, "lon": 92.59606, "country": "India", "toast": "Cheers"}, {"name": "Baksa", "lat": 26.69804, "lon": 91.15142, "country": "India", "toast": "Cheers"}, {"name": "Barpathar", "lat": 26.28709, "lon": 93.88844, "country": "India", "toast": "Cheers"}, {"name": "Barpeta", "lat": 26.47104, "lon": 91.0308, "country": "India", "toast": "Cheers"}, {"name": "Barpeta Road", "lat": 26.50284, "lon": 90.96937, "country": "India", "toast": "Cheers"}, {"name": "Basugaon", "lat": 26.46742, "lon": 90.41951, "country": "India", "toast": "Cheers"}, {"name": "Bihpuriagaon", "lat": 27.01718, "lon": 93.91673, "country": "India", "toast": "Cheers"}, {"name": "Bijni", "lat": 26.49588, "lon": 90.70298, "country": "India", "toast": "Cheers"}, {"name": "Bilasipara", "lat": 26.23285, "lon": 90.2341, "country": "India", "toast": "Cheers"}, {"name": "Bokajan", "lat": 26.02131, "lon": 93.77945, "country": "India", "toast": "Cheers"}, {"name": "Bokakhat", "lat": 26.64018, "lon": 93.60052, "country": "India", "toast": "Cheers"}, {"name": "Bongaigaon", "lat": 26.4603, "lon": 90.6464, "country": "India", "toast": "Cheers"}, {"name": "Cachar", "lat": 24.78213, "lon": 92.85771, "country": "India", "toast": "Cheers"}, {"name": "Chabua", "lat": 27.48253, "lon": 95.17451, "country": "India", "toast": "Cheers"}, {"name": "Chapar", "lat": 26.27266, "lon": 90.44556, "country": "India", "toast": "Cheers"}, {"name": "Chirang", "lat": 26.52527, "lon": 90.49066, "country": "India", "toast": "Cheers"}, {"name": "Darrang", "lat": 26.51195, "lon": 92.16843, "country": "India", "toast": "Cheers"}, {"name": "Dergaon", "lat": 26.7, "lon": 93.96667, "country": "India", "toast": "Cheers"}, {"name": "Dhekiajuli", "lat": 26.70367, "lon": 92.47808, "country": "India", "toast": "Cheers"}, {"name": "Dhemaji", "lat": 27.6091, "lon": 94.7942, "country": "India", "toast": "Cheers"}, {"name": "Dhing", "lat": 26.46793, "lon": 92.47336, "country": "India", "toast": "Cheers"}, {"name": "Dhubri", "lat": 26.06749, "lon": 90.02238, "country": "India", "toast": "Cheers"}, {"name": "Dibrugarh", "lat": 27.5, "lon": 95.0, "country": "India", "toast": "Cheers"}, {"name": "Digboi", "lat": 27.39321, "lon": 95.61839, "country": "India", "toast": "Cheers"}, {"name": "Dima Hasao", "lat": 25.5, "lon": 93.0, "country": "India", "toast": "Cheers"}, {"name": "Diphu", "lat": 25.84341, "lon": 93.43116, "country": "India", "toast": "Cheers"}, {"name": "Dispur", "lat": 26.13564, "lon": 91.80069, "country": "India", "toast": "Cheers"}, {"name": "Duliagaon", "lat": 27.37227, "lon": 95.30754, "country": "India", "toast": "Cheers"}, {"name": "Dum Duma", "lat": 27.56884, "lon": 95.55664, "country": "India", "toast": "Cheers"}, {"name": "Gauripur", "lat": 26.08334, "lon": 89.96118, "country": "India", "toast": "Cheers"}, {"name": "Goalpara", "lat": 26.12791, "lon": 90.60974, "country": "India", "toast": "Cheers"}, {"name": "Gohpur", "lat": 26.88184, "lon": 93.6156, "country": "India", "toast": "Cheers"}, {"name": "Golaghat", "lat": 26.4092, "lon": 93.91193, "country": "India", "toast": "Cheers"}, {"name": "Golakganj", "lat": 26.10216, "lon": 89.82275, "country": "India", "toast": "Cheers"}, {"name": "Goshaingaon", "lat": 26.43946, "lon": 89.96307, "country": "India", "toast": "Cheers"}, {"name": "Guwahati", "lat": 26.1844, "lon": 91.7458, "country": "India", "toast": "Cheers"}, {"name": "Haflong", "lat": 25.16478, "lon": 93.01744, "country": "India", "toast": "Cheers"}, {"name": "Hailakandi", "lat": 24.5017, "lon": 92.60069, "country": "India", "toast": "Cheers"}, {"name": "Hajo", "lat": 26.2452, "lon": 91.52525, "country": "India", "toast": "Cheers"}, {"name": "Hojai", "lat": 26.00281, "lon": 92.85605, "country": "India", "toast": "Cheers"}, {"name": "Howli", "lat": 26.42237, "lon": 90.98004, "country": "India", "toast": "Cheers"}, {"name": "Jogighopa", "lat": 26.22646, "lon": 90.57247, "country": "India", "toast": "Cheers"}, {"name": "Jorhat", "lat": 26.8, "lon": 94.26, "country": "India", "toast": "Cheers"}, {"name": "Kamrup", "lat": 26.22322, "lon": 91.65344, "country": "India", "toast": "Cheers"}, {"name": "Kamrup Metropolitan", "lat": 26.05375, "lon": 92.00763, "country": "India", "toast": "Cheers"}, {"name": "Karbi Anglong", "lat": 26.0, "lon": 93.5, "country": "India", "toast": "Cheers"}, {"name": "Karimganj", "lat": 24.6, "lon": 92.4, "country": "India", "toast": "Cheers"}, {"name": "Kharupatia", "lat": 26.51839, "lon": 92.14722, "country": "India", "toast": "Cheers"}, {"name": "Kokrajhar", "lat": 26.6, "lon": 90.2, "country": "India", "toast": "Cheers"}, {"name": "Lakhimpur", "lat": 27.35, "lon": 94.25, "country": "India", "toast": "Cheers"}, {"name": "Lakhipur", "lat": 24.79281, "lon": 93.0091, "country": "India", "toast": "Cheers"}, {"name": "Lala", "lat": 24.55418, "lon": 92.61592, "country": "India", "toast": "Cheers"}, {"name": "Lumding Railway Colony", "lat": 25.74903, "lon": 93.16998, "country": "India", "toast": "Cheers"}, {"name": "Mahur", "lat": 25.18305, "lon": 93.11342, "country": "India", "toast": "Cheers"}, {"name": "Maibong", "lat": 25.30125, "lon": 93.13811, "country": "India", "toast": "Cheers"}, {"name": "Makum", "lat": 27.48652, "lon": 95.43646, "country": "India", "toast": "Cheers"}, {"name": "Mangaldai", "lat": 26.44212, "lon": 92.03047, "country": "India", "toast": "Cheers"}, {"name": "Mariani", "lat": 26.65725, "lon": 94.31529, "country": "India", "toast": "Cheers"}, {"name": "Moranha", "lat": 27.18735, "lon": 94.91557, "country": "India", "toast": "Cheers"}, {"name": "Morigaon", "lat": 26.25213, "lon": 92.34238, "country": "India", "toast": "Cheers"}, {"name": "Nagaon", "lat": 26.35037, "lon": 92.69225, "country": "India", "toast": "Cheers"}, {"name": "Nahorkatiya", "lat": 27.28912, "lon": 95.3418, "country": "India", "toast": "Cheers"}, {"name": "Nalbari", "lat": 26.5, "lon": 91.4, "country": "India", "toast": "Cheers"}, {"name": "Namrup", "lat": 27.19395, "lon": 95.31929, "country": "India", "toast": "Cheers"}, {"name": "Nazira", "lat": 26.91649, "lon": 94.73611, "country": "India", "toast": "Cheers"}, {"name": "North Guwahati", "lat": 26.19749, "lon": 91.7202, "country": "India", "toast": "Cheers"}, {"name": "North Lakhimpur", "lat": 27.23517, "lon": 94.10357, "country": "India", "toast": "Cheers"}, {"name": "Numaligarh", "lat": 26.62249, "lon": 93.72225, "country": "India", "toast": "Cheers"}, {"name": "Palasbari", "lat": 26.12388, "lon": 91.53974, "country": "India", "toast": "Cheers"}, {"name": "Raha", "lat": 26.23333, "lon": 92.51667, "country": "India", "toast": "Cheers"}, {"name": "Rangapara", "lat": 26.83772, "lon": 92.66876, "country": "India", "toast": "Cheers"}, {"name": "Rangia", "lat": 26.44931, "lon": 91.61356, "country": "India", "toast": "Cheers"}, {"name": "Sapatgram", "lat": 26.33732, "lon": 90.1236, "country": "India", "toast": "Cheers"}, {"name": "Sarupathar", "lat": 26.206, "lon": 96.81, "country": "India", "toast": "Cheers"}, {"name": "Sibsagar", "lat": 26.98427, "lon": 94.63784, "country": "India", "toast": "Cheers"}, {"name": "Silapathar", "lat": 27.59441, "lon": 94.72402, "country": "India", "toast": "Cheers"}, {"name": "Silchar", "lat": 24.82733, "lon": 92.79787, "country": "India", "toast": "Cheers"}, {"name": "Soalkuchi", "lat": 26.16806, "lon": 91.57111, "country": "India", "toast": "Cheers"}, {"name": "Sonari", "lat": 27.02462, "lon": 95.01629, "country": "India", "toast": "Cheers"}, {"name": "Sonitpur", "lat": 26.76748, "lon": 92.96425, "country": "India", "toast": "Cheers"}, {"name": "Sorbhog", "lat": 26.48612, "lon": 90.8859, "country": "India", "toast": "Cheers"}, {"name": "Tezpur", "lat": 26.63333, "lon": 92.8, "country": "India", "toast": "Cheers"}, {"name": "Tinsukia", "lat": 27.6, "lon": 95.6, "country": "India", "toast": "Cheers"}, {"name": "Titabar", "lat": 26.6014, "lon": 94.20386, "country": "India", "toast": "Cheers"}, {"name": "Udalguri", "lat": 26.75367, "lon": 92.10215, "country": "India", "toast": "Cheers"}, {"name": "Amarpur", "lat": 25.03967, "lon": 86.90247, "country": "India", "toast": "Cheers"}, {"name": "Araria", "lat": 26.2, "lon": 87.4, "country": "India", "toast": "Cheers"}, {"name": "Arrah", "lat": 25.55629, "lon": 84.66335, "country": "India", "toast": "Cheers"}, {"name": "Arwal", "lat": 25.16158, "lon": 84.6904, "country": "India", "toast": "Cheers"}, {"name": "Asarganj", "lat": 25.15046, "lon": 86.68639, "country": "India", "toast": "Cheers"}, {"name": "Aurangabad", "lat": 24.75204, "lon": 84.3742, "country": "India", "toast": "Cheers"}, {"name": "Bagaha", "lat": 27.09918, "lon": 84.09003, "country": "India", "toast": "Cheers"}, {"name": "Bahadurganj", "lat": 26.26172, "lon": 87.82443, "country": "India", "toast": "Cheers"}, {"name": "Bairagnia", "lat": 26.74063, "lon": 85.27323, "country": "India", "toast": "Cheers"}, {"name": "Baisi", "lat": 25.86302, "lon": 87.74487, "country": "India", "toast": "Cheers"}, {"name": "Bakhtiyarpur", "lat": 25.46179, "lon": 85.53179, "country": "India", "toast": "Cheers"}, {"name": "Bangaon", "lat": 25.86728, "lon": 86.51152, "country": "India", "toast": "Cheers"}, {"name": "Banka", "lat": 24.89214, "lon": 86.98425, "country": "India", "toast": "Cheers"}, {"name": "Banmankhi", "lat": 25.88857, "lon": 87.19421, "country": "India", "toast": "Cheers"}, {"name": "Bar Bigha", "lat": 25.21855, "lon": 85.7332, "country": "India", "toast": "Cheers"}, {"name": "Barauli", "lat": 26.38109, "lon": 84.58648, "country": "India", "toast": "Cheers"}, {"name": "Barh", "lat": 25.48339, "lon": 85.70928, "country": "India", "toast": "Cheers"}, {"name": "Barhiya", "lat": 25.28814, "lon": 86.02055, "country": "India", "toast": "Cheers"}, {"name": "Bariarpur", "lat": 25.28791, "lon": 86.57643, "country": "India", "toast": "Cheers"}, {"name": "Baruni", "lat": 25.47509, "lon": 85.96813, "country": "India", "toast": "Cheers"}, {"name": "Begusarai", "lat": 25.41853, "lon": 86.13389, "country": "India", "toast": "Cheers"}, {"name": "Belsand", "lat": 26.44365, "lon": 85.40076, "country": "India", "toast": "Cheers"}, {"name": "Bettiah", "lat": 26.80229, "lon": 84.50311, "country": "India", "toast": "Cheers"}, {"name": "Bhabhua", "lat": 25.04049, "lon": 83.60749, "country": "India", "toast": "Cheers"}, {"name": "Bhagalpur", "lat": 25.29023, "lon": 87.06665, "country": "India", "toast": "Cheers"}, {"name": "Bhagirathpur", "lat": 26.2695, "lon": 86.06346, "country": "India", "toast": "Cheers"}, {"name": "Bhawanipur", "lat": 26.45352, "lon": 87.02744, "country": "India", "toast": "Cheers"}, {"name": "Bhojpur", "lat": 25.30886, "lon": 84.44504, "country": "India", "toast": "Cheers"}, {"name": "Bihar Sharif", "lat": 25.20084, "lon": 85.52389, "country": "India", "toast": "Cheers"}, {"name": "Bihariganj", "lat": 25.73415, "lon": 86.98837, "country": "India", "toast": "Cheers"}, {"name": "Bikramganj", "lat": 25.21073, "lon": 84.25508, "country": "India", "toast": "Cheers"}, {"name": "Birpur", "lat": 26.50823, "lon": 87.01194, "country": "India", "toast": "Cheers"}, {"name": "Bodh Gaya", "lat": 24.69808, "lon": 84.9869, "country": "India", "toast": "Cheers"}, {"name": "Buxar", "lat": 25.5, "lon": 84.1, "country": "India", "toast": "Cheers"}, {"name": "Chakia", "lat": 26.41598, "lon": 85.04665, "country": "India", "toast": "Cheers"}, {"name": "Chapra", "lat": 25.78031, "lon": 84.74709, "country": "India", "toast": "Cheers"}, {"name": "Chhatapur", "lat": 26.21965, "lon": 87.00479, "country": "India", "toast": "Cheers"}, {"name": "Colgong", "lat": 25.26328, "lon": 87.23264, "country": "India", "toast": "Cheers"}, {"name": "Dalsingh Sarai", "lat": 25.66795, "lon": 85.83636, "country": "India", "toast": "Cheers"}, {"name": "Darbhanga", "lat": 26.0, "lon": 86.0, "country": "India", "toast": "Cheers"}, {"name": "Daudnagar", "lat": 25.03473, "lon": 84.40095, "country": "India", "toast": "Cheers"}, {"name": "Dehri", "lat": 24.90247, "lon": 84.18217, "country": "India", "toast": "Cheers"}, {"name": "Dhaka", "lat": 26.67479, "lon": 85.16698, "country": "India", "toast": "Cheers"}, {"name": "Dighwara", "lat": 25.74434, "lon": 85.01003, "country": "India", "toast": "Cheers"}, {"name": "Dinapore", "lat": 25.63705, "lon": 85.04794, "country": "India", "toast": "Cheers"}, {"name": "Dumra", "lat": 26.56708, "lon": 85.5204, "country": "India", "toast": "Cheers"}, {"name": "Dumraon", "lat": 25.55265, "lon": 84.15149, "country": "India", "toast": "Cheers"}, {"name": "Fatwa", "lat": 25.50958, "lon": 85.30504, "country": "India", "toast": "Cheers"}, {"name": "Forbesganj", "lat": 26.30253, "lon": 87.26556, "country": "India", "toast": "Cheers"}, {"name": "Gaya", "lat": 24.79686, "lon": 85.00385, "country": "India", "toast": "Cheers"}, {"name": "Ghoga", "lat": 25.21738, "lon": 87.1571, "country": "India", "toast": "Cheers"}, {"name": "Gopalganj", "lat": 26.5, "lon": 84.33333, "country": "India", "toast": "Cheers"}, {"name": "Hajipur", "lat": 25.68544, "lon": 85.20981, "country": "India", "toast": "Cheers"}, {"name": "Hilsa", "lat": 25.31642, "lon": 85.28234, "country": "India", "toast": "Cheers"}, {"name": "Hisua", "lat": 24.8336, "lon": 85.41729, "country": "India", "toast": "Cheers"}, {"name": "Islampur", "lat": 25.14075, "lon": 85.20587, "country": "India", "toast": "Cheers"}, {"name": "Jagdispur", "lat": 25.46811, "lon": 84.41939, "country": "India", "toast": "Cheers"}, {"name": "Jahanabad", "lat": 25.21368, "lon": 84.9871, "country": "India", "toast": "Cheers"}, {"name": "Jamalpur", "lat": 25.31258, "lon": 86.48888, "country": "India", "toast": "Cheers"}, {"name": "Jamui", "lat": 24.92082, "lon": 86.17538, "country": "India", "toast": "Cheers"}, {"name": "Jaynagar", "lat": 26.59048, "lon": 86.13791, "country": "India", "toast": "Cheers"}, {"name": "Jehanabad", "lat": 25.20701, "lon": 84.99573, "country": "India", "toast": "Cheers"}, {"name": "Jha-Jha", "lat": 24.77107, "lon": 86.37888, "country": "India", "toast": "Cheers"}, {"name": "Jhanjharpur", "lat": 26.26467, "lon": 86.27993, "country": "India", "toast": "Cheers"}, {"name": "Jogbani", "lat": 26.39905, "lon": 87.26525, "country": "India", "toast": "Cheers"}, {"name": "Kaimur", "lat": 25.05077, "lon": 83.58261, "country": "India", "toast": "Cheers"}, {"name": "Kasba", "lat": 25.85643, "lon": 87.53836, "country": "India", "toast": "Cheers"}, {"name": "Katihar", "lat": 25.5, "lon": 87.6, "country": "India", "toast": "Cheers"}, {"name": "Khagaria", "lat": 25.5022, "lon": 86.46708, "country": "India", "toast": "Cheers"}, {"name": "Khagaul", "lat": 25.57898, "lon": 85.04564, "country": "India", "toast": "Cheers"}, {"name": "Kharagpur", "lat": 25.12446, "lon": 86.55578, "country": "India", "toast": "Cheers"}, {"name": "Khusropur", "lat": 25.48174, "lon": 85.38492, "country": "India", "toast": "Cheers"}, {"name": "Kishanganj", "lat": 26.3, "lon": 88.0, "country": "India", "toast": "Cheers"}, {"name": "Koath", "lat": 25.32643, "lon": 84.25983, "country": "India", "toast": "Cheers"}, {"name": "Koelwar", "lat": 25.58055, "lon": 84.79751, "country": "India", "toast": "Cheers"}, {"name": "Lakhisarai", "lat": 25.2, "lon": 86.2, "country": "India", "toast": "Cheers"}, {"name": "Lalganj", "lat": 25.86894, "lon": 85.17394, "country": "India", "toast": "Cheers"}, {"name": "Luckeesarai", "lat": 25.1765, "lon": 86.0947, "country": "India", "toast": "Cheers"}, {"name": "Madhepura", "lat": 25.8, "lon": 87.0, "country": "India", "toast": "Cheers"}, {"name": "Madhubani", "lat": 26.35367, "lon": 86.07169, "country": "India", "toast": "Cheers"}, {"name": "Maharajgani", "lat": 26.11017, "lon": 84.50365, "country": "India", "toast": "Cheers"}, {"name": "Mairwa", "lat": 26.23218, "lon": 84.16349, "country": "India", "toast": "Cheers"}, {"name": "Maner", "lat": 25.64602, "lon": 84.87291, "country": "India", "toast": "Cheers"}, {"name": "Manihari", "lat": 25.33891, "lon": 87.61998, "country": "India", "toast": "Cheers"}, {"name": "Marhaura", "lat": 25.97349, "lon": 84.86796, "country": "India", "toast": "Cheers"}, {"name": "Masaurhi Buzurg", "lat": 25.35417, "lon": 85.03195, "country": "India", "toast": "Cheers"}, {"name": "Mohiuddi nagar", "lat": 25.57374, "lon": 85.66944, "country": "India", "toast": "Cheers"}, {"name": "Mokameh", "lat": 25.39662, "lon": 85.9219, "country": "India", "toast": "Cheers"}, {"name": "Monghyr", "lat": 25.37459, "lon": 86.47455, "country": "India", "toast": "Cheers"}, {"name": "Mothihari", "lat": 26.64862, "lon": 84.91656, "country": "India", "toast": "Cheers"}, {"name": "Munger", "lat": 25.36099, "lon": 86.46515, "country": "India", "toast": "Cheers"}, {"name": "Murliganj", "lat": 25.8969, "lon": 86.99577, "country": "India", "toast": "Cheers"}, {"name": "Muzaffarpur", "lat": 26.16667, "lon": 85.41667, "country": "India", "toast": "Cheers"}, {"name": "Nabinagar", "lat": 24.60681, "lon": 84.12624, "country": "India", "toast": "Cheers"}, {"name": "Nalanda", "lat": 25.25, "lon": 85.58333, "country": "India", "toast": "Cheers"}, {"name": "Nasriganj", "lat": 25.0514, "lon": 84.32839, "country": "India", "toast": "Cheers"}, {"name": "Naugachhia", "lat": 25.38807, "lon": 87.09906, "country": "India", "toast": "Cheers"}, {"name": "Nawada", "lat": 24.75, "lon": 85.5, "country": "India", "toast": "Cheers"}, {"name": "Nirmali", "lat": 26.31397, "lon": 86.58537, "country": "India", "toast": "Cheers"}, {"name": "Pashchim Champaran", "lat": 27.0, "lon": 84.5, "country": "India", "toast": "Cheers"}, {"name": "Patna", "lat": 25.41667, "lon": 85.16667, "country": "India", "toast": "Cheers"}, {"name": "Piro", "lat": 25.33218, "lon": 84.40454, "country": "India", "toast": "Cheers"}, {"name": "Pupri", "lat": 26.47079, "lon": 85.70311, "country": "India", "toast": "Cheers"}, {"name": "Purba Champaran", "lat": 26.58333, "lon": 84.83333, "country": "India", "toast": "Cheers"}, {"name": "Purnia", "lat": 25.81614, "lon": 87.40708, "country": "India", "toast": "Cheers"}, {"name": "Rafiganj", "lat": 24.81757, "lon": 84.63445, "country": "India", "toast": "Cheers"}, {"name": "Raghunathpur", "lat": 25.64492, "lon": 87.91762, "country": "India", "toast": "Cheers"}, {"name": "Rajgir", "lat": 25.02828, "lon": 85.42079, "country": "India", "toast": "Cheers"}, {"name": "Ramnagar", "lat": 27.16371, "lon": 84.32342, "country": "India", "toast": "Cheers"}, {"name": "Raxaul", "lat": 26.97982, "lon": 84.85065, "country": "India", "toast": "Cheers"}, {"name": "Revelganj", "lat": 25.78976, "lon": 84.63596, "country": "India", "toast": "Cheers"}, {"name": "Rohtas", "lat": 24.97941, "lon": 84.02774, "country": "India", "toast": "Cheers"}, {"name": "Rusera", "lat": 25.75355, "lon": 86.02597, "country": "India", "toast": "Cheers"}, {"name": "Sagauli", "lat": 26.7639, "lon": 84.74341, "country": "India", "toast": "Cheers"}, {"name": "Saharsa", "lat": 25.87498, "lon": 86.59611, "country": "India", "toast": "Cheers"}, {"name": "Samastipur", "lat": 25.75, "lon": 85.91667, "country": "India", "toast": "Cheers"}, {"name": "Saran", "lat": 25.91667, "lon": 84.75, "country": "India", "toast": "Cheers"}, {"name": "Shahbazpur", "lat": 26.30511, "lon": 87.28865, "country": "India", "toast": "Cheers"}, {"name": "Shahpur", "lat": 25.60293, "lon": 84.40412, "country": "India", "toast": "Cheers"}, {"name": "Sheikhpura", "lat": 25.13073, "lon": 85.78176, "country": "India", "toast": "Cheers"}, {"name": "Sheohar", "lat": 26.5, "lon": 85.3, "country": "India", "toast": "Cheers"}, {"name": "Sherghati", "lat": 24.5595, "lon": 84.79162, "country": "India", "toast": "Cheers"}, {"name": "Silao", "lat": 25.08358, "lon": 85.42804, "country": "India", "toast": "Cheers"}, {"name": "Sitamarhi", "lat": 26.66667, "lon": 85.5, "country": "India", "toast": "Cheers"}, {"name": "Siwan", "lat": 26.22096, "lon": 84.35609, "country": "India", "toast": "Cheers"}, {"name": "Supaul", "lat": 26.25, "lon": 86.8, "country": "India", "toast": "Cheers"}, {"name": "Teghra", "lat": 25.49043, "lon": 85.94001, "country": "India", "toast": "Cheers"}, {"name": "Tekari", "lat": 24.94253, "lon": 84.84265, "country": "India", "toast": "Cheers"}, {"name": "Thakurganj", "lat": 26.42742, "lon": 88.13112, "country": "India", "toast": "Cheers"}, {"name": "Vaishali", "lat": 25.75, "lon": 85.41667, "country": "India", "toast": "Cheers"}, {"name": "Waris Aliganj", "lat": 25.0172, "lon": 85.64047, "country": "India", "toast": "Cheers"}, {"name": "Chandigarh", "lat": 30.73629, "lon": 76.7884, "country": "India", "toast": "Cheers"}, {"name": "Akaltara", "lat": 22.02463, "lon": 82.42641, "country": "India", "toast": "Cheers"}, {"name": "Ambagarh Chauki", "lat": 20.77644, "lon": 80.74608, "country": "India", "toast": "Cheers"}, {"name": "Ambikapur", "lat": 23.11892, "lon": 83.19537, "country": "India", "toast": "Cheers"}, {"name": "Arang", "lat": 21.19639, "lon": 81.96912, "country": "India", "toast": "Cheers"}, {"name": "Baikunthpur", "lat": 23.26206, "lon": 82.56051, "country": "India", "toast": "Cheers"}, {"name": "Balod", "lat": 20.73081, "lon": 81.20578, "country": "India", "toast": "Cheers"}, {"name": "Baloda", "lat": 22.1389, "lon": 82.48171, "country": "India", "toast": "Cheers"}, {"name": "Baloda Bazar", "lat": 21.65678, "lon": 82.16062, "country": "India", "toast": "Cheers"}, {"name": "Basna", "lat": 21.27885, "lon": 82.8267, "country": "India", "toast": "Cheers"}, {"name": "Bastar", "lat": 19.26794, "lon": 81.73828, "country": "India", "toast": "Cheers"}, {"name": "Bemetara", "lat": 21.71556, "lon": 81.53423, "country": "India", "toast": "Cheers"}, {"name": "Bhanpuri", "lat": 21.0919, "lon": 80.93218, "country": "India", "toast": "Cheers"}, {"name": "Bhatapara", "lat": 21.735, "lon": 81.94711, "country": "India", "toast": "Cheers"}, {"name": "Bhatgaon", "lat": 21.15, "lon": 81.7, "country": "India", "toast": "Cheers"}, {"name": "Bhilai", "lat": 21.20919, "lon": 81.4285, "country": "India", "toast": "Cheers"}, {"name": "Bijapur", "lat": 18.84322, "lon": 80.7761, "country": "India", "toast": "Cheers"}, {"name": "Bilaspur", "lat": 22.38333, "lon": 82.13333, "country": "India", "toast": "Cheers"}, {"name": "Champa", "lat": 22.03532, "lon": 82.64234, "country": "India", "toast": "Cheers"}, {"name": "Chhuikhadan", "lat": 21.52316, "lon": 80.99788, "country": "India", "toast": "Cheers"}, {"name": "Dantewada", "lat": 18.899848, "lon": 81.3386752, "country": "India", "toast": "Cheers"}, {"name": "Deori", "lat": 21.45, "lon": 82.61667, "country": "India", "toast": "Cheers"}, {"name": "Dhamtari", "lat": 20.70718, "lon": 81.54874, "country": "India", "toast": "Cheers"}, {"name": "Dongargaon", "lat": 20.97172, "lon": 80.85077, "country": "India", "toast": "Cheers"}, {"name": "Dongargarh", "lat": 21.18893, "lon": 80.75459, "country": "India", "toast": "Cheers"}, {"name": "Durg", "lat": 21.15, "lon": 81.4, "country": "India", "toast": "Cheers"}, {"name": "Gandai", "lat": 21.66667, "lon": 81.10013, "country": "India", "toast": "Cheers"}, {"name": "Gariaband", "lat": 20.63323, "lon": 82.06221, "country": "India", "toast": "Cheers"}, {"name": "Gaurela", "lat": 22.75449, "lon": 81.90107, "country": "India", "toast": "Cheers"}, {"name": "Gharghoda", "lat": 22.17427, "lon": 83.3517, "country": "India", "toast": "Cheers"}, {"name": "Gidam", "lat": 18.97431, "lon": 81.39894, "country": "India", "toast": "Cheers"}, {"name": "Jagdalpur", "lat": 19.08136, "lon": 82.02131, "country": "India", "toast": "Cheers"}, {"name": "Janjgir", "lat": 22.00922, "lon": 82.5778, "country": "India", "toast": "Cheers"}, {"name": "Janjgir-Champa", "lat": 21.9, "lon": 82.7, "country": "India", "toast": "Cheers"}, {"name": "Jashpur", "lat": 22.78495, "lon": 83.84573, "country": "India", "toast": "Cheers"}, {"name": "Jashpurnagar", "lat": 22.88783, "lon": 84.13864, "country": "India", "toast": "Cheers"}, {"name": "Junagarh", "lat": 19.85993, "lon": 82.93385, "country": "India", "toast": "Cheers"}, {"name": "Kabeerdham", "lat": 22.1, "lon": 81.2, "country": "India", "toast": "Cheers"}, {"name": "Kanker", "lat": 20.27193, "lon": 81.49177, "country": "India", "toast": "Cheers"}, {"name": "Katghora", "lat": 22.50247, "lon": 82.54279, "country": "India", "toast": "Cheers"}, {"name": "Kawardha", "lat": 22.00853, "lon": 81.23148, "country": "India", "toast": "Cheers"}, {"name": "Khairagarh", "lat": 21.41859, "lon": 80.97942, "country": "India", "toast": "Cheers"}, {"name": "Khamharia", "lat": 20.976, "lon": 82.25116, "country": "India", "toast": "Cheers"}, {"name": "Kharod", "lat": 21.7442, "lon": 82.5788, "country": "India", "toast": "Cheers"}, {"name": "Kharsia", "lat": 21.98953, "lon": 83.10476, "country": "India", "toast": "Cheers"}, {"name": "Kirandul", "lat": 18.63649, "lon": 81.25827, "country": "India", "toast": "Cheers"}, {"name": "Kondagaon", "lat": 19.59083, "lon": 81.664, "country": "India", "toast": "Cheers"}, {"name": "Korba", "lat": 22.5, "lon": 82.6, "country": "India", "toast": "Cheers"}, {"name": "Koria", "lat": 23.48326, "lon": 82.15037, "country": "India", "toast": "Cheers"}, {"name": "Kota", "lat": 22.29507, "lon": 82.02366, "country": "India", "toast": "Cheers"}, {"name": "Kotaparh", "lat": 19.14256, "lon": 82.32536, "country": "India", "toast": "Cheers"}, {"name": "Kumhari", "lat": 21.26667, "lon": 81.51667, "country": "India", "toast": "Cheers"}, {"name": "Kurud", "lat": 20.83073, "lon": 81.72212, "country": "India", "toast": "Cheers"}, {"name": "Lormi", "lat": 22.27434, "lon": 81.70181, "country": "India", "toast": "Cheers"}, {"name": "Mahasamund", "lat": 21.2, "lon": 82.5, "country": "India", "toast": "Cheers"}, {"name": "Mungeli", "lat": 22.06566, "lon": 81.68543, "country": "India", "toast": "Cheers"}, {"name": "Narayanpur", "lat": 19.60426, "lon": 81.08119, "country": "India", "toast": "Cheers"}, {"name": "Narharpur", "lat": 20.44892, "lon": 81.62004, "country": "India", "toast": "Cheers"}, {"name": "Pandaria", "lat": 22.22495, "lon": 81.40994, "country": "India", "toast": "Cheers"}, {"name": "Pandatarai", "lat": 22.18714, "lon": 81.32815, "country": "India", "toast": "Cheers"}, {"name": "Pasan", "lat": 22.84412, "lon": 82.19823, "country": "India", "toast": "Cheers"}, {"name": "Patan", "lat": 21.03333, "lon": 81.53333, "country": "India", "toast": "Cheers"}, {"name": "Pathalgaon", "lat": 22.55656, "lon": 83.46355, "country": "India", "toast": "Cheers"}, {"name": "Pendra", "lat": 22.77548, "lon": 81.95968, "country": "India", "toast": "Cheers"}, {"name": "Pithora", "lat": 21.25021, "lon": 82.51707, "country": "India", "toast": "Cheers"}, {"name": "Raigarh", "lat": 22.08582, "lon": 83.30603, "country": "India", "toast": "Cheers"}, {"name": "Raipur", "lat": 21.25621, "lon": 81.69022, "country": "India", "toast": "Cheers"}, {"name": "Raj Nandgaon", "lat": 21.16667, "lon": 81.0, "country": "India", "toast": "Cheers"}, {"name": "Ramanuj Ganj", "lat": 23.80637, "lon": 83.69981, "country": "India", "toast": "Cheers"}, {"name": "Ratanpur", "lat": 22.2866, "lon": 82.16823, "country": "India", "toast": "Cheers"}, {"name": "Sakti", "lat": 22.02662, "lon": 82.96091, "country": "India", "toast": "Cheers"}, {"name": "Saraipali", "lat": 21.3153, "lon": 83.00629, "country": "India", "toast": "Cheers"}, {"name": "Sarangarh", "lat": 21.58614, "lon": 83.0785, "country": "India", "toast": "Cheers"}, {"name": "Seorinarayan", "lat": 21.72055, "lon": 82.59344, "country": "India", "toast": "Cheers"}, {"name": "Simga", "lat": 21.6281, "lon": 81.70376, "country": "India", "toast": "Cheers"}, {"name": "Surguja", "lat": 22.89624, "lon": 83.09631, "country": "India", "toast": "Cheers"}, {"name": "Takhatpur", "lat": 22.12915, "lon": 81.86959, "country": "India", "toast": "Cheers"}, {"name": "Umarkot", "lat": 19.66529, "lon": 82.20629, "country": "India", "toast": "Cheers"}, {"name": "Uttar Bastar Kanker", "lat": 20.2, "lon": 81.1, "country": "India", "toast": "Cheers"}, {"name": "Amli", "lat": 20.28333, "lon": 73.01667, "country": "India", "toast": "Cheers"}, {"name": "Dadra", "lat": 20.32504, "lon": 72.96618, "country": "India", "toast": "Cheers"}, {"name": "Dadra & Nagar Haveli", "lat": 20.20651, "lon": 73.00811, "country": "India", "toast": "Cheers"}, {"name": "Daman", "lat": 20.41431, "lon": 72.83236, "country": "India", "toast": "Cheers"}, {"name": "Diu", "lat": 20.72081, "lon": 70.93989, "country": "India", "toast": "Cheers"}, {"name": "Silvassa", "lat": 20.27386, "lon": 72.99673, "country": "India", "toast": "Cheers"}, {"name": "Alipur", "lat": 28.79862, "lon": 77.13314, "country": "India", "toast": "Cheers"}, {"name": "Bawana", "lat": 28.7982, "lon": 77.03431, "country": "India", "toast": "Cheers"}, {"name": "Central Delhi", "lat": 28.64857, "lon": 77.21895, "country": "India", "toast": "Cheers"}, {"name": "Delhi", "lat": 28.65195, "lon": 77.23149, "country": "India", "toast": "Cheers"}, {"name": "Deoli", "lat": 28.50254, "lon": 77.23117, "country": "India", "toast": "Cheers"}, {"name": "East Delhi", "lat": 28.66242, "lon": 77.29122, "country": "India", "toast": "Cheers"}, {"name": "Karol Bagh", "lat": 28.65136, "lon": 77.19072, "country": "India", "toast": "Cheers"}, {"name": "Najafgarh", "lat": 28.60922, "lon": 76.97982, "country": "India", "toast": "Cheers"}, {"name": "Nangloi Jat", "lat": 28.67957, "lon": 77.06799, "country": "India", "toast": "Cheers"}, {"name": "Narela", "lat": 28.85267, "lon": 77.09288, "country": "India", "toast": "Cheers"}, {"name": "New Delhi", "lat": 28.63576, "lon": 77.22445, "country": "India", "toast": "Cheers"}, {"name": "North Delhi", "lat": 28.6692, "lon": 77.22273, "country": "India", "toast": "Cheers"}, {"name": "North East Delhi", "lat": 28.6869, "lon": 77.30195, "country": "India", "toast": "Cheers"}, {"name": "North West Delhi", "lat": 28.70113, "lon": 77.10154, "country": "India", "toast": "Cheers"}, {"name": "Pitampura", "lat": 28.68964, "lon": 77.13126, "country": "India", "toast": "Cheers"}, {"name": "Rohini", "lat": 28.74322, "lon": 77.06778, "country": "India", "toast": "Cheers"}, {"name": "South Delhi", "lat": 28.53009, "lon": 77.25174, "country": "India", "toast": "Cheers"}, {"name": "South West Delhi", "lat": 28.5806, "lon": 77.0672, "country": "India", "toast": "Cheers"}, {"name": "West Delhi", "lat": 28.65655, "lon": 77.10068, "country": "India", "toast": "Cheers"}, {"name": "Aldona", "lat": 15.59337, "lon": 73.87482, "country": "India", "toast": "Cheers"}, {"name": "Arambol", "lat": 15.68681, "lon": 73.70449, "country": "India", "toast": "Cheers"}, {"name": "Baga", "lat": 15.56517, "lon": 73.75517, "country": "India", "toast": "Cheers"}, {"name": "Bambolim", "lat": 15.46361, "lon": 73.8531, "country": "India", "toast": "Cheers"}, {"name": "Bandora", "lat": 15.40823, "lon": 73.98129, "country": "India", "toast": "Cheers"}, {"name": "Benaulim", "lat": 15.26435, "lon": 73.92812, "country": "India", "toast": "Cheers"}, {"name": "Calangute", "lat": 15.5439, "lon": 73.7553, "country": "India", "toast": "Cheers"}, {"name": "Candolim", "lat": 15.51807, "lon": 73.76259, "country": "India", "toast": "Cheers"}, {"name": "Carapur", "lat": 15.56588, "lon": 73.98713, "country": "India", "toast": "Cheers"}, {"name": "Cavelossim", "lat": 15.17255, "lon": 73.94194, "country": "India", "toast": "Cheers"}, {"name": "Chicalim", "lat": 15.39835, "lon": 73.84216, "country": "India", "toast": "Cheers"}, {"name": "Chinchinim", "lat": 15.21447, "lon": 73.97555, "country": "India", "toast": "Cheers"}, {"name": "Colovale", "lat": 15.63522, "lon": 73.82426, "country": "India", "toast": "Cheers"}, {"name": "Colva", "lat": 15.27976, "lon": 73.92285, "country": "India", "toast": "Cheers"}, {"name": "Cortalim", "lat": 15.40247, "lon": 73.90881, "country": "India", "toast": "Cheers"}, {"name": "Cuncolim", "lat": 15.1773, "lon": 73.99392, "country": "India", "toast": "Cheers"}, {"name": "Curchorem", "lat": 15.26349, "lon": 74.10875, "country": "India", "toast": "Cheers"}, {"name": "Curti", "lat": 15.41667, "lon": 74.01667, "country": "India", "toast": "Cheers"}, {"name": "Davorlim", "lat": 15.27221, "lon": 73.99242, "country": "India", "toast": "Cheers"}, {"name": "Dicholi", "lat": 15.59319, "lon": 73.94571, "country": "India", "toast": "Cheers"}, {"name": "Goa Velha", "lat": 15.44384, "lon": 73.88572, "country": "India", "toast": "Cheers"}, {"name": "Guirim", "lat": 15.57552, "lon": 73.80722, "country": "India", "toast": "Cheers"}, {"name": "Jua", "lat": 15.5307, "lon": 73.95047, "country": "India", "toast": "Cheers"}, {"name": "Kankon", "lat": 15.02698, "lon": 74.04617, "country": "India", "toast": "Cheers"}, {"name": "Madgaon", "lat": 15.27501, "lon": 73.95786, "country": "India", "toast": "Cheers"}, {"name": "Mapuca", "lat": 15.59154, "lon": 73.80898, "country": "India", "toast": "Cheers"}, {"name": "Morjim", "lat": 15.63097, "lon": 73.73903, "country": "India", "toast": "Cheers"}, {"name": "Mormugao", "lat": 15.38914, "lon": 73.81491, "country": "India", "toast": "Cheers"}, {"name": "Navelim", "lat": 15.53333, "lon": 73.98333, "country": "India", "toast": "Cheers"}, {"name": "North Goa", "lat": 15.53397, "lon": 73.96408, "country": "India", "toast": "Cheers"}, {"name": "Palle", "lat": 15.46667, "lon": 74.08333, "country": "India", "toast": "Cheers"}, {"name": "Panaji", "lat": 15.49574, "lon": 73.82624, "country": "India", "toast": "Cheers"}, {"name": "Pernem", "lat": 15.723, "lon": 73.79511, "country": "India", "toast": "Cheers"}, {"name": "Ponda", "lat": 15.40341, "lon": 74.01519, "country": "India", "toast": "Cheers"}, {"name": "Quepem", "lat": 15.2128, "lon": 74.0772, "country": "India", "toast": "Cheers"}, {"name": "Queula", "lat": 15.39011, "lon": 73.98557, "country": "India", "toast": "Cheers"}, {"name": "Raia", "lat": 15.30499, "lon": 73.97096, "country": "India", "toast": "Cheers"}, {"name": "Saligao", "lat": 15.55359, "lon": 73.79036, "country": "India", "toast": "Cheers"}, {"name": "Sancoale", "lat": 15.37794, "lon": 73.90352, "country": "India", "toast": "Cheers"}, {"name": "Sanguem", "lat": 15.22901, "lon": 74.15149, "country": "India", "toast": "Cheers"}, {"name": "Sanquelim", "lat": 15.56422, "lon": 74.00799, "country": "India", "toast": "Cheers"}, {"name": "Sanvordem", "lat": 15.26269, "lon": 74.11965, "country": "India", "toast": "Cheers"}, {"name": "Serula", "lat": 15.54774, "lon": 73.84329, "country": "India", "toast": "Cheers"}, {"name": "Solim", "lat": 15.61521, "lon": 73.7674, "country": "India", "toast": "Cheers"}, {"name": "South Goa", "lat": 15.20425, "lon": 74.16733, "country": "India", "toast": "Cheers"}, {"name": "Taleigao", "lat": 15.46915, "lon": 73.83285, "country": "India", "toast": "Cheers"}, {"name": "Vagator", "lat": 15.59766, "lon": 73.74496, "country": "India", "toast": "Cheers"}, {"name": "Valpoy", "lat": 15.53239, "lon": 74.13671, "country": "India", "toast": "Cheers"}, {"name": "Varca", "lat": 15.23237, "lon": 73.94311, "country": "India", "toast": "Cheers"}, {"name": "Vasco da Gama", "lat": 15.39585, "lon": 73.81568, "country": "India", "toast": "Cheers"}, {"name": "Abrama", "lat": 20.85865, "lon": 72.90648, "country": "India", "toast": "Cheers"}, {"name": "Adalaj", "lat": 23.16453, "lon": 72.58107, "country": "India", "toast": "Cheers"}, {"name": "Agol", "lat": 23.15, "lon": 72.26666667, "country": "India", "toast": "Cheers"}, {"name": "Ahmedabad", "lat": 23.02579, "lon": 72.58727, "country": "India", "toast": "Cheers"}, {"name": "Ahwa", "lat": 20.75718, "lon": 73.68626, "country": "India", "toast": "Cheers"}, {"name": "Akrund", "lat": 23.28333333, "lon": 73.11666667, "country": "India", "toast": "Cheers"}, {"name": "Amod", "lat": 21.99317, "lon": 72.87047, "country": "India", "toast": "Cheers"}, {"name": "Amreli", "lat": 21.50789, "lon": 71.18323, "country": "India", "toast": "Cheers"}, {"name": "Amroli", "lat": 21.25084, "lon": 72.83878, "country": "India", "toast": "Cheers"}, {"name": "Anand", "lat": 22.4, "lon": 72.75, "country": "India", "toast": "Cheers"}, {"name": "Anjar", "lat": 23.11316, "lon": 70.02671, "country": "India", "toast": "Cheers"}, {"name": "Ankleshwar", "lat": 21.63236, "lon": 72.99001, "country": "India", "toast": "Cheers"}, {"name": "Babra", "lat": 21.84577, "lon": 71.30544, "country": "India", "toast": "Cheers"}, {"name": "Bagasara", "lat": 21.48333333, "lon": 70.95, "country": "India", "toast": "Cheers"}, {"name": "Bagasra", "lat": 21.48719, "lon": 70.95516, "country": "India", "toast": "Cheers"}, {"name": "Bakharla", "lat": 21.731517, "lon": 69.635296, "country": "India", "toast": "Cheers"}, {"name": "Balagam", "lat": 21.36666667, "lon": 70.1, "country": "India", "toast": "Cheers"}, {"name": "Balasinor", "lat": 22.955891, "lon": 73.336499, "country": "India", "toast": "Cheers"}, {"name": "Balisana", "lat": 23.816436, "lon": 72.257536, "country": "India", "toast": "Cheers"}, {"name": "Bamanbore", "lat": 22.41666667, "lon": 71.01666667, "country": "India", "toast": "Cheers"}, {"name": "Banas Kantha", "lat": 24.25, "lon": 72.5, "country": "India", "toast": "Cheers"}, {"name": "Bandia", "lat": 23.39604, "lon": 69.01155, "country": "India", "toast": "Cheers"}, {"name": "Bantva", "lat": 21.48815, "lon": 70.07576, "country": "India", "toast": "Cheers"}, {"name": "Bardoli", "lat": 21.12297, "lon": 73.11151, "country": "India", "toast": "Cheers"}, {"name": "Bavla", "lat": 22.83672406, "lon": 72.36277938, "country": "India", "toast": "Cheers"}, {"name": "Bedi", "lat": 22.50143, "lon": 70.04363, "country": "India", "toast": "Cheers"}, {"name": "Bhachau", "lat": 23.29858, "lon": 70.34279, "country": "India", "toast": "Cheers"}, {"name": "Bhadran", "lat": 22.3593, "lon": 72.9005, "country": "India", "toast": "Cheers"}, {"name": "Bhandu", "lat": 23.7, "lon": 72.36666667, "country": "India", "toast": "Cheers"}, {"name": "Bhanvad", "lat": 21.93053, "lon": 69.78081, "country": "India", "toast": "Cheers"}, {"name": "Bharuch", "lat": 21.69482, "lon": 72.9805, "country": "India", "toast": "Cheers"}, {"name": "Bhatha", "lat": 21.18333333, "lon": 72.76666667, "country": "India", "toast": "Cheers"}, {"name": "Bhavnagar", "lat": 21.76287, "lon": 72.15331, "country": "India", "toast": "Cheers"}, {"name": "Bhayavadar", "lat": 21.85523, "lon": 70.24791, "country": "India", "toast": "Cheers"}, {"name": "Bhildi", "lat": 24.18333333, "lon": 72.03333333, "country": "India", "toast": "Cheers"}, {"name": "Bhojpur Dharampur", "lat": 23.25, "lon": 69.67, "country": "India", "toast": "Cheers"}, {"name": "Bhuj", "lat": 23.25397, "lon": 69.66928, "country": "India", "toast": "Cheers"}, {"name": "Bilimora", "lat": 20.76957, "lon": 72.96134, "country": "India", "toast": "Cheers"}, {"name": "Bilkha", "lat": 21.4415, "lon": 70.60063, "country": "India", "toast": "Cheers"}, {"name": "Borsad", "lat": 22.40788, "lon": 72.89817, "country": "India", "toast": "Cheers"}, {"name": "Botad", "lat": 22.16917, "lon": 71.66671, "country": "India", "toast": "Cheers"}, {"name": "Chaklasi", "lat": 22.6532, "lon": 72.94497, "country": "India", "toast": "Cheers"}, {"name": "Chalala", "lat": 21.41073, "lon": 71.16621, "country": "India", "toast": "Cheers"}, {"name": "Chaloda", "lat": 22.8, "lon": 72.45, "country": "India", "toast": "Cheers"}, {"name": "Champaner", "lat": 22.4859, "lon": 73.5371, "country": "India", "toast": "Cheers"}, {"name": "Chanasma", "lat": 23.71472, "lon": 72.11279, "country": "India", "toast": "Cheers"}, {"name": "Chhala", "lat": 23.30779, "lon": 72.77404, "country": "India", "toast": "Cheers"}, {"name": "Chhota Udepur", "lat": 22.30401, "lon": 74.0158, "country": "India", "toast": "Cheers"}, {"name": "Chikhli", "lat": 20.75751, "lon": 73.06268, "country": "India", "toast": "Cheers"}, {"name": "Chotila", "lat": 22.42347, "lon": 71.19641, "country": "India", "toast": "Cheers"}, {"name": "Chuda", "lat": 22.48333333, "lon": 71.68333333, "country": "India", "toast": "Cheers"}, {"name": "Dabhoda", "lat": 23.16666667, "lon": 72.73333333, "country": "India", "toast": "Cheers"}, {"name": "Dabhoi", "lat": 22.18333, "lon": 73.43333, "country": "India", "toast": "Cheers"}, {"name": "Dahegam", "lat": 23.16903, "lon": 72.82161, "country": "India", "toast": "Cheers"}, {"name": "Dahod", "lat": 22.52, "lon": 74.15, "country": "India", "toast": "Cheers"}, {"name": "Dakor", "lat": 22.75268, "lon": 73.14967, "country": "India", "toast": "Cheers"}, {"name": "Damnagar", "lat": 21.69232, "lon": 71.51747, "country": "India", "toast": "Cheers"}, {"name": "Dandi", "lat": 21.32988, "lon": 72.62484, "country": "India", "toast": "Cheers"}, {"name": "Danta", "lat": 24.18861111, "lon": 72.76583333, "country": "India", "toast": "Cheers"}, {"name": "Dayapar", "lat": 23.63371, "lon": 68.90192, "country": "India", "toast": "Cheers"}, {"name": "Delvada", "lat": 20.77544, "lon": 71.04646, "country": "India", "toast": "Cheers"}, {"name": "Delwada", "lat": 20.7833, "lon": 71.05, "country": "India", "toast": "Cheers"}, {"name": "Detroj", "lat": 23.33333333, "lon": 72.18333333, "country": "India", "toast": "Cheers"}, {"name": "Devbhumi Dwarka", "lat": 22.20253, "lon": 69.65498, "country": "India", "toast": "Cheers"}, {"name": "Devgadh Bariya", "lat": 22.70517, "lon": 73.90882, "country": "India", "toast": "Cheers"}, {"name": "Dhandhuka", "lat": 22.38185, "lon": 71.98664, "country": "India", "toast": "Cheers"}, {"name": "Dhanera", "lat": 24.50967, "lon": 72.02343, "country": "India", "toast": "Cheers"}, {"name": "Dhansura", "lat": 23.35, "lon": 73.2, "country": "India", "toast": "Cheers"}, {"name": "Dharampur", "lat": 20.53693, "lon": 73.17368, "country": "India", "toast": "Cheers"}, {"name": "Dharasana", "lat": 20.68333333, "lon": 72.91666667, "country": "India", "toast": "Cheers"}, {"name": "Dhari", "lat": 21.32855, "lon": 71.02645, "country": "India", "toast": "Cheers"}, {"name": "Dhasa", "lat": 21.8, "lon": 71.51666667, "country": "India", "toast": "Cheers"}, {"name": "Dhola", "lat": 21.88129, "lon": 71.77269, "country": "India", "toast": "Cheers"}, {"name": "Dholera", "lat": 22.248, "lon": 72.195, "country": "India", "toast": "Cheers"}, {"name": "Dholka", "lat": 22.72732, "lon": 72.44128, "country": "India", "toast": "Cheers"}, {"name": "Dhoraji", "lat": 21.73359, "lon": 70.45004, "country": "India", "toast": "Cheers"}, {"name": "Dhrangadhra", "lat": 22.99167, "lon": 71.46793, "country": "India", "toast": "Cheers"}, {"name": "Dhrol", "lat": 22.567, "lon": 70.41769, "country": "India", "toast": "Cheers"}, {"name": "Dhuwaran", "lat": 22.23779, "lon": 72.7591, "country": "India", "toast": "Cheers"}, {"name": "Disa", "lat": 24.25612, "lon": 72.17928, "country": "India", "toast": "Cheers"}, {"name": "Dohad", "lat": 22.9, "lon": 74.0, "country": "India", "toast": "Cheers"}, {"name": "Dumkhal", "lat": 21.7396, "lon": 73.8449, "country": "India", "toast": "Cheers"}, {"name": "Dungarpur", "lat": 21.28777, "lon": 71.7556, "country": "India", "toast": "Cheers"}, {"name": "Dwarka", "lat": 22.23944, "lon": 68.96778, "country": "India", "toast": "Cheers"}, {"name": "Gadhada", "lat": 21.96957, "lon": 71.57828, "country": "India", "toast": "Cheers"}, {"name": "Gandevi", "lat": 20.81214, "lon": 72.99811, "country": "India", "toast": "Cheers"}, {"name": "Gandhidham", "lat": 23.08333, "lon": 70.13333, "country": "India", "toast": "Cheers"}, {"name": "Gandhinagar", "lat": 23.21667, "lon": 72.68333, "country": "India", "toast": "Cheers"}, {"name": "Gariadhar", "lat": 21.53889, "lon": 71.57737, "country": "India", "toast": "Cheers"}, {"name": "Ghodasar", "lat": 24.45, "lon": 71.85, "country": "India", "toast": "Cheers"}, {"name": "Ghogha", "lat": 21.68813, "lon": 72.2763, "country": "India", "toast": "Cheers"}, {"name": "Gir Somnath", "lat": 20.91287, "lon": 70.3671, "country": "India", "toast": "Cheers"}, {"name": "Godhra", "lat": 22.77547, "lon": 73.61488, "country": "India", "toast": "Cheers"}, {"name": "Gondal", "lat": 21.96074, "lon": 70.80255, "country": "India", "toast": "Cheers"}, {"name": "Gorwa", "lat": 22.3301, "lon": 73.1611, "country": "India", "toast": "Cheers"}, {"name": "Halenda", "lat": 22.088185, "lon": 71.05171, "country": "India", "toast": "Cheers"}, {"name": "Halol", "lat": 22.50321, "lon": 73.47242, "country": "India", "toast": "Cheers"}, {"name": "Halvad", "lat": 23.01516, "lon": 71.18029, "country": "India", "toast": "Cheers"}, {"name": "Hansot", "lat": 21.58496, "lon": 72.80764, "country": "India", "toast": "Cheers"}, {"name": "Harij", "lat": 23.69356, "lon": 71.907, "country": "India", "toast": "Cheers"}, {"name": "Harsol", "lat": 23.36, "lon": 73.02, "country": "India", "toast": "Cheers"}, {"name": "Hathuran", "lat": 21.5, "lon": 72.97, "country": "India", "toast": "Cheers"}, {"name": "Himatnagar", "lat": 23.59893, "lon": 72.96602, "country": "India", "toast": "Cheers"}, {"name": "Idar", "lat": 23.83, "lon": 73.0, "country": "India", "toast": "Cheers"}, {"name": "Jakhau", "lat": 23.21861111, "lon": 68.71694444, "country": "India", "toast": "Cheers"}, {"name": "Jalalpore", "lat": 20.9491, "lon": 72.9136, "country": "India", "toast": "Cheers"}, {"name": "Jalalpur", "lat": 20.94896, "lon": 72.89829, "country": "India", "toast": "Cheers"}, {"name": "Jalia", "lat": 21.8, "lon": 70.25, "country": "India", "toast": "Cheers"}, {"name": "Jambuda", "lat": 22.51666667, "lon": 70.21666667, "country": "India", "toast": "Cheers"}, {"name": "Jambusar", "lat": 22.05236, "lon": 72.80074, "country": "India", "toast": "Cheers"}, {"name": "Jamnagar", "lat": 22.47292, "lon": 70.06673, "country": "India", "toast": "Cheers"}, {"name": "Jarod", "lat": 22.433, "lon": 73.333, "country": "India", "toast": "Cheers"}, {"name": "Jasdan", "lat": 22.03709, "lon": 71.20794, "country": "India", "toast": "Cheers"}, {"name": "Jetalpur", "lat": 22.88333333, "lon": 72.6, "country": "India", "toast": "Cheers"}, {"name": "Jetalsar", "lat": 21.70891, "lon": 70.57695, "country": "India", "toast": "Cheers"}, {"name": "Jetpur", "lat": 21.7543725, "lon": 70.6189391, "country": "India", "toast": "Cheers"}, {"name": "Jhalod", "lat": 23.10027778, "lon": 74.15611111, "country": "India", "toast": "Cheers"}, {"name": "Jhulasan", "lat": 23.3286, "lon": 72.47314, "country": "India", "toast": "Cheers"}, {"name": "Jodhpur", "lat": 21.90174, "lon": 70.0327, "country": "India", "toast": "Cheers"}, {"name": "Jodhpur (Ahmedabad)", "lat": 21.88, "lon": 70.03, "country": "India", "toast": "Cheers"}, {"name": "Junagadh", "lat": 21.25, "lon": 70.33333, "country": "India", "toast": "Cheers"}, {"name": "Kachchh", "lat": 23.58333, "lon": 70.0, "country": "India", "toast": "Cheers"}, {"name": "Kachholi", "lat": 20.83333333, "lon": 72.96666667, "country": "India", "toast": "Cheers"}, {"name": "Kadi", "lat": 23.29908, "lon": 72.33362, "country": "India", "toast": "Cheers"}, {"name": "Kadod", "lat": 21.21717, "lon": 73.21972, "country": "India", "toast": "Cheers"}, {"name": "Kalavad", "lat": 22.20789, "lon": 70.38343, "country": "India", "toast": "Cheers"}, {"name": "Kalol", "lat": 22.60777, "lon": 73.46272, "country": "India", "toast": "Cheers"}, {"name": "Kandla", "lat": 23.03333, "lon": 70.21667, "country": "India", "toast": "Cheers"}, {"name": "Kandla port", "lat": 23.03, "lon": 70.22, "country": "India", "toast": "Cheers"}, {"name": "Kanodar", "lat": 24.08932, "lon": 72.39354, "country": "India", "toast": "Cheers"}, {"name": "Kapadvanj", "lat": 23.02302, "lon": 73.07113, "country": "India", "toast": "Cheers"}, {"name": "Karamsad", "lat": 22.54243, "lon": 72.90392, "country": "India", "toast": "Cheers"}, {"name": "Kariana", "lat": 21.88333333, "lon": 71.35, "country": "India", "toast": "Cheers"}, {"name": "Karjan", "lat": 22.05304167, "lon": 73.12351389, "country": "India", "toast": "Cheers"}, {"name": "Kathor", "lat": 21.28854, "lon": 72.9407, "country": "India", "toast": "Cheers"}, {"name": "Katpur", "lat": 21.05869, "lon": 71.79457, "country": "India", "toast": "Cheers"}, {"name": "Kawant", "lat": 22.09282, "lon": 74.05078, "country": "India", "toast": "Cheers"}, {"name": "Kayavarohan", "lat": 22.067, "lon": 73.25, "country": "India", "toast": "Cheers"}, {"name": "Kerwada", "lat": 21.9, "lon": 72.85, "country": "India", "toast": "Cheers"}, {"name": "Keshod", "lat": 21.30328, "lon": 70.24861, "country": "India", "toast": "Cheers"}, {"name": "Khambhalia", "lat": 22.2, "lon": 69.65, "country": "India", "toast": "Cheers"}, {"name": "Khambhat", "lat": 22.31744, "lon": 72.61916, "country": "India", "toast": "Cheers"}, {"name": "Khavda", "lat": 23.85, "lon": 69.72, "country": "India", "toast": "Cheers"}, {"name": "Kheda", "lat": 22.75, "lon": 72.83333, "country": "India", "toast": "Cheers"}, {"name": "Khedbrahma", "lat": 24.0299, "lon": 73.04632, "country": "India", "toast": "Cheers"}, {"name": "Khedoi", "lat": 23.05927778, "lon": 69.91895556, "country": "India", "toast": "Cheers"}, {"name": "Kherali", "lat": 22.68333333, "lon": 71.6, "country": "India", "toast": "Cheers"}, {"name": "Kheralu", "lat": 23.88534, "lon": 72.61869, "country": "India", "toast": "Cheers"}, {"name": "Kodinar", "lat": 20.79393, "lon": 70.70216, "country": "India", "toast": "Cheers"}, {"name": "Kosamba", "lat": 21.46202, "lon": 72.95842, "country": "India", "toast": "Cheers"}, {"name": "Kothara", "lat": 23.133, "lon": 68.932, "country": "India", "toast": "Cheers"}, {"name": "Kotharia", "lat": 22.23, "lon": 70.81, "country": "India", "toast": "Cheers"}, {"name": "Kukarmunda", "lat": 21.51666667, "lon": 74.13333333, "country": "India", "toast": "Cheers"}, {"name": "Kukma", "lat": 23.217822, "lon": 69.777922, "country": "India", "toast": "Cheers"}, {"name": "Kundla", "lat": 21.34222, "lon": 71.30633, "country": "India", "toast": "Cheers"}, {"name": "Kutch", "lat": 23.915, "lon": 70.367, "country": "India", "toast": "Cheers"}, {"name": "Kutiyana", "lat": 21.6241, "lon": 69.98494, "country": "India", "toast": "Cheers"}, {"name": "Ladol", "lat": 23.61666667, "lon": 72.73333333, "country": "India", "toast": "Cheers"}, {"name": "Lakhpat", "lat": 23.82611111, "lon": 68.77694444, "country": "India", "toast": "Cheers"}, {"name": "Lakhtar", "lat": 22.85683, "lon": 71.78844, "country": "India", "toast": "Cheers"}, {"name": "Lalpur", "lat": 22.19073, "lon": 69.96351, "country": "India", "toast": "Cheers"}, {"name": "Langhnaj", "lat": 23.45, "lon": 72.48333333, "country": "India", "toast": "Cheers"}, {"name": "Lathi", "lat": 21.7231, "lon": 71.38843, "country": "India", "toast": "Cheers"}, {"name": "Limbdi", "lat": 22.56507, "lon": 71.81076, "country": "India", "toast": "Cheers"}, {"name": "Limkheda", "lat": 22.81666667, "lon": 73.98333333, "country": "India", "toast": "Cheers"}, {"name": "Lunavada", "lat": 23.12841, "lon": 73.61043, "country": "India", "toast": "Cheers"}, {"name": "Madhavpur Ghed", "lat": 21.29929167, "lon": 70.02513889, "country": "India", "toast": "Cheers"}, {"name": "Madhi", "lat": 22.1, "lon": 69.1, "country": "India", "toast": "Cheers"}, {"name": "Mahemdavad", "lat": 22.82359, "lon": 72.75551, "country": "India", "toast": "Cheers"}, {"name": "Mahesana", "lat": 23.66667, "lon": 72.5, "country": "India", "toast": "Cheers"}, {"name": "Mahisa", "lat": 22.85, "lon": 73.05, "country": "India", "toast": "Cheers"}, {"name": "Mahudha", "lat": 22.82082, "lon": 72.94032, "country": "India", "toast": "Cheers"}, {"name": "Mahuva", "lat": 21.0833, "lon": 71.8, "country": "India", "toast": "Cheers"}, {"name": "Mahuva (Surat)", "lat": 21.02, "lon": 73.15, "country": "India", "toast": "Cheers"}, {"name": "Malpur", "lat": 23.36035, "lon": 73.46595, "country": "India", "toast": "Cheers"}, {"name": "Manavadar", "lat": 21.49813, "lon": 70.13775, "country": "India", "toast": "Cheers"}, {"name": "Mandal", "lat": 23.28865, "lon": 71.91854, "country": "India", "toast": "Cheers"}, {"name": "Mandvi", "lat": 22.83282, "lon": 69.35237, "country": "India", "toast": "Cheers"}, {"name": "Mandvi (Surat)", "lat": 21.25526, "lon": 73.30412, "country": "India", "toast": "Cheers"}, {"name": "Mangrol", "lat": 21.12268, "lon": 70.11484, "country": "India", "toast": "Cheers"}, {"name": "Mangrol (Junagadh)", "lat": 21.12, "lon": 70.12, "country": "India", "toast": "Cheers"}, {"name": "Mansa", "lat": 23.42564, "lon": 72.65739, "country": "India", "toast": "Cheers"}, {"name": "Meghraj", "lat": 23.49805, "lon": 73.51352, "country": "India", "toast": "Cheers"}, {"name": "Mehsana", "lat": 23.6, "lon": 72.4, "country": "India", "toast": "Cheers"}, {"name": "Mendarda", "lat": 21.32112, "lon": 70.44078, "country": "India", "toast": "Cheers"}, {"name": "Mithapur", "lat": 22.41, "lon": 69.0, "country": "India", "toast": "Cheers"}, {"name": "Modasa", "lat": 23.46253, "lon": 73.29857, "country": "India", "toast": "Cheers"}, {"name": "Morbi", "lat": 22.81731, "lon": 70.8377, "country": "India", "toast": "Cheers"}, {"name": "Morva (Hadaf)", "lat": 22.9474014, "lon": 73.834839, "country": "India", "toast": "Cheers"}, {"name": "Morwa", "lat": 22.9184516, "lon": 73.8426033, "country": "India", "toast": "Cheers"}, {"name": "Mundra", "lat": 22.83918, "lon": 69.7219, "country": "India", "toast": "Cheers"}, {"name": "Nadiad", "lat": 22.69385, "lon": 72.86157, "country": "India", "toast": "Cheers"}, {"name": "Nagwa", "lat": 25.69621, "lon": 84.2359, "country": "India", "toast": "Cheers"}, {"name": "Naldhara", "lat": 20.96666667, "lon": 73.16666667, "country": "India", "toast": "Cheers"}, {"name": "Naliya", "lat": 23.26058, "lon": 68.82655, "country": "India", "toast": "Cheers"}, {"name": "Nargol", "lat": 20.233, "lon": 72.75, "country": "India", "toast": "Cheers"}, {"name": "Narmada", "lat": 21.87377, "lon": 73.49527, "country": "India", "toast": "Cheers"}, {"name": "Naroda", "lat": 23.07041, "lon": 72.65702, "country": "India", "toast": "Cheers"}, {"name": "Navsari", "lat": 20.95, "lon": 72.92, "country": "India", "toast": "Cheers"}, {"name": "Nikora", "lat": 21.78586, "lon": 73.13968, "country": "India", "toast": "Cheers"}, {"name": "Nizar", "lat": 21.47727, "lon": 74.19595, "country": "India", "toast": "Cheers"}, {"name": "Odadar", "lat": 21.56666667, "lon": 69.66666667, "country": "India", "toast": "Cheers"}, {"name": "Okha", "lat": 22.46756, "lon": 69.07002, "country": "India", "toast": "Cheers"}, {"name": "Olpad", "lat": 21.33649, "lon": 72.75161, "country": "India", "toast": "Cheers"}, {"name": "Paddhari", "lat": 22.43654, "lon": 70.60162, "country": "India", "toast": "Cheers"}, {"name": "Padra", "lat": 22.2398, "lon": 73.08451, "country": "India", "toast": "Cheers"}, {"name": "Palanpur", "lat": 24.17128, "lon": 72.43827, "country": "India", "toast": "Cheers"}, {"name": "Palanswa", "lat": 23.46666667, "lon": 70.93333333, "country": "India", "toast": "Cheers"}, {"name": "Palitana", "lat": 21.52519, "lon": 71.82309, "country": "India", "toast": "Cheers"}, {"name": "Paliyad", "lat": 22.25757, "lon": 71.56024, "country": "India", "toast": "Cheers"}, {"name": "Palsana", "lat": 21.08, "lon": 72.98, "country": "India", "toast": "Cheers"}, {"name": "Panch Mahals", "lat": 23.0, "lon": 74.0, "country": "India", "toast": "Cheers"}, {"name": "Panchmahal", "lat": 22.6978098, "lon": 73.5980682, "country": "India", "toast": "Cheers"}, {"name": "Pardi", "lat": 20.5087, "lon": 72.94569, "country": "India", "toast": "Cheers"}, {"name": "Parnera", "lat": 20.56101, "lon": 72.94846, "country": "India", "toast": "Cheers"}, {"name": "Patan", "lat": 23.7, "lon": 71.8, "country": "India", "toast": "Cheers"}, {"name": "Pavi Jetpur", "lat": 22.34472, "lon": 73.84093, "country": "India", "toast": "Cheers"}, {"name": "Petlad", "lat": 22.47681, "lon": 72.79995, "country": "India", "toast": "Cheers"}, {"name": "Pipavav", "lat": 20.96666667, "lon": 71.56666667, "country": "India", "toast": "Cheers"}, {"name": "Piplod", "lat": 22.81666667, "lon": 73.9, "country": "India", "toast": "Cheers"}, {"name": "Porbandar", "lat": 21.64219, "lon": 69.60929, "country": "India", "toast": "Cheers"}, {"name": "Prabhas Patan", "lat": 20.88808, "lon": 70.40129, "country": "India", "toast": "Cheers"}, {"name": "Prantij", "lat": 23.43841944, "lon": 72.85718056, "country": "India", "toast": "Cheers"}, {"name": "Radhanpur", "lat": 23.83238, "lon": 71.6047, "country": "India", "toast": "Cheers"}, {"name": "Rajkot", "lat": 22.33333, "lon": 70.83333, "country": "India", "toast": "Cheers"}, {"name": "Rajpipla", "lat": 21.86667, "lon": 73.5, "country": "India", "toast": "Cheers"}, {"name": "Rajula", "lat": 21.03854, "lon": 71.44345, "country": "India", "toast": "Cheers"}, {"name": "Ranavav", "lat": 21.68734, "lon": 69.74485, "country": "India", "toast": "Cheers"}, {"name": "Ranpur", "lat": 22.3667, "lon": 71.75, "country": "India", "toast": "Cheers"}, {"name": "Rapar", "lat": 23.57267, "lon": 70.64718, "country": "India", "toast": "Cheers"}, {"name": "Reha", "lat": 23.151725, "lon": 69.750086, "country": "India", "toast": "Cheers"}, {"name": "Roha", "lat": 23.19646, "lon": 69.27076, "country": "India", "toast": "Cheers"}, {"name": "Sabar Kantha", "lat": 23.62974, "lon": 73.00197, "country": "India", "toast": "Cheers"}, {"name": "Sachin", "lat": 21.08718, "lon": 72.88153, "country": "India", "toast": "Cheers"}, {"name": "Salaya", "lat": 22.31038, "lon": 69.60376, "country": "India", "toast": "Cheers"}, {"name": "Samakhiali", "lat": 23.3034, "lon": 70.50688, "country": "India", "toast": "Cheers"}, {"name": "Sanand", "lat": 22.99227, "lon": 72.38177, "country": "India", "toast": "Cheers"}, {"name": "Sankheda", "lat": 22.17021, "lon": 73.5782, "country": "India", "toast": "Cheers"}, {"name": "Sarbhon", "lat": 21.05, "lon": 73.0833, "country": "India", "toast": "Cheers"}, {"name": "Sardoi", "lat": 23.5667, "lon": 73.2667, "country": "India", "toast": "Cheers"}, {"name": "Sarkhej", "lat": 22.98297, "lon": 72.50196, "country": "India", "toast": "Cheers"}, {"name": "Sathamba", "lat": 23.169125, "lon": 73.32661667, "country": "India", "toast": "Cheers"}, {"name": "Savarkundla", "lat": 21.33726, "lon": 71.3035, "country": "India", "toast": "Cheers"}, {"name": "Savli", "lat": 22.56666667, "lon": 73.21666667, "country": "India", "toast": "Cheers"}, {"name": "Sayla", "lat": 22.54925, "lon": 71.48324, "country": "India", "toast": "Cheers"}, {"name": "Shahpur", "lat": 22.15611, "lon": 70.77068, "country": "India", "toast": "Cheers"}, {"name": "Shivrajpur", "lat": 22.42319, "lon": 73.60865, "country": "India", "toast": "Cheers"}, {"name": "Siddhpur", "lat": 23.9167, "lon": 72.3833, "country": "India", "toast": "Cheers"}, {"name": "Sihor", "lat": 21.71134, "lon": 71.96179, "country": "India", "toast": "Cheers"}, {"name": "Sikka", "lat": 22.43218, "lon": 69.84158, "country": "India", "toast": "Cheers"}, {"name": "Sinor", "lat": 21.91117, "lon": 73.33974, "country": "India", "toast": "Cheers"}, {"name": "Sojitra", "lat": 22.53884, "lon": 72.71984, "country": "India", "toast": "Cheers"}, {"name": "Songadh", "lat": 21.16966, "lon": 73.56357, "country": "India", "toast": "Cheers"}, {"name": "Supedi", "lat": 21.762, "lon": 70.378, "country": "India", "toast": "Cheers"}, {"name": "Surat", "lat": 21.17801, "lon": 72.81189, "country": "India", "toast": "Cheers"}, {"name": "Surendranagar", "lat": 22.72706, "lon": 71.64856, "country": "India", "toast": "Cheers"}, {"name": "Sutrapada", "lat": 20.8928, "lon": 70.465, "country": "India", "toast": "Cheers"}, {"name": "Talaja", "lat": 21.3527, "lon": 72.03524, "country": "India", "toast": "Cheers"}, {"name": "Tankara", "lat": 22.65622, "lon": 70.74945, "country": "India", "toast": "Cheers"}, {"name": "Tapi", "lat": 21.12, "lon": 73.4, "country": "India", "toast": "Cheers"}, {"name": "Than", "lat": 22.57422, "lon": 71.19942, "country": "India", "toast": "Cheers"}, {"name": "Thangadh", "lat": 22.56666667, "lon": 71.18333333, "country": "India", "toast": "Cheers"}, {"name": "Tharad", "lat": 24.39597, "lon": 71.62577, "country": "India", "toast": "Cheers"}, {"name": "Thasra", "lat": 22.79831, "lon": 73.21174, "country": "India", "toast": "Cheers"}, {"name": "The Dangs", "lat": 20.75, "lon": 73.75, "country": "India", "toast": "Cheers"}, {"name": "Umarpada", "lat": 21.45, "lon": 73.5, "country": "India", "toast": "Cheers"}, {"name": "Umrala", "lat": 21.84353, "lon": 71.80305, "country": "India", "toast": "Cheers"}, {"name": "Umreth", "lat": 22.69881, "lon": 73.11561, "country": "India", "toast": "Cheers"}, {"name": "Un", "lat": 23.88745, "lon": 71.76975, "country": "India", "toast": "Cheers"}, {"name": "Una", "lat": 20.82318, "lon": 71.03795, "country": "India", "toast": "Cheers"}, {"name": "Unjha", "lat": 23.80366, "lon": 72.39101, "country": "India", "toast": "Cheers"}, {"name": "Upleta", "lat": 21.74015, "lon": 70.28256, "country": "India", "toast": "Cheers"}, {"name": "Utran", "lat": 21.23333, "lon": 72.86667, "country": "India", "toast": "Cheers"}, {"name": "Vadgam", "lat": 24.08333333, "lon": 72.48333333, "country": "India", "toast": "Cheers"}, {"name": "Vadnagar", "lat": 23.78593, "lon": 72.63893, "country": "India", "toast": "Cheers"}, {"name": "Vadodara", "lat": 22.29941, "lon": 73.20812, "country": "India", "toast": "Cheers"}, {"name": "Vaghodia", "lat": 22.30505, "lon": 73.40016, "country": "India", "toast": "Cheers"}, {"name": "Vaghodia INA", "lat": 22.3, "lon": 73.3833, "country": "India", "toast": "Cheers"}, {"name": "Vallabh Vidyanagar", "lat": 22.53333, "lon": 72.9, "country": "India", "toast": "Cheers"}, {"name": "Vallabhipur", "lat": 21.8878, "lon": 71.8795, "country": "India", "toast": "Cheers"}, {"name": "Valsad", "lat": 20.5, "lon": 73.08333, "country": "India", "toast": "Cheers"}, {"name": "Vanala", "lat": 22.45, "lon": 71.98333333, "country": "India", "toast": "Cheers"}, {"name": "Vansda", "lat": 20.45, "lon": 73.22, "country": "India", "toast": "Cheers"}, {"name": "Vanthli", "lat": 21.4833, "lon": 70.3333, "country": "India", "toast": "Cheers"}, {"name": "Vapi", "lat": 20.37175, "lon": 72.90493, "country": "India", "toast": "Cheers"}, {"name": "Vartej", "lat": 21.73947, "lon": 72.06553, "country": "India", "toast": "Cheers"}, {"name": "Vasa", "lat": 23.8398349, "lon": 71.9301999, "country": "India", "toast": "Cheers"}, {"name": "Vasavad", "lat": 21.82657, "lon": 71.02436, "country": "India", "toast": "Cheers"}, {"name": "Vaso", "lat": 22.6609576, "lon": 72.7553379, "country": "India", "toast": "Cheers"}, {"name": "Vataman", "lat": 22.53, "lon": 72.42, "country": "India", "toast": "Cheers"}, {"name": "Vejalpur", "lat": 22.69021, "lon": 73.56299, "country": "India", "toast": "Cheers"}, {"name": "Veraval", "lat": 20.9077, "lon": 70.36786, "country": "India", "toast": "Cheers"}, {"name": "Vijapur", "lat": 23.5623, "lon": 72.74848, "country": "India", "toast": "Cheers"}, {"name": "Vinchhiya", "lat": 22.21027, "lon": 71.37967, "country": "India", "toast": "Cheers"}, {"name": "Viramgam", "lat": 23.12, "lon": 72.03, "country": "India", "toast": "Cheers"}, {"name": "Virpur", "lat": 23.1892, "lon": 73.47987, "country": "India", "toast": "Cheers"}, {"name": "Visavadar", "lat": 21.33954, "lon": 70.74966, "country": "India", "toast": "Cheers"}, {"name": "Visnagar", "lat": 23.69855, "lon": 72.5521, "country": "India", "toast": "Cheers"}, {"name": "Vyara", "lat": 21.11079, "lon": 73.39365, "country": "India", "toast": "Cheers"}, {"name": "Wadhai", "lat": 20.76666667, "lon": 73.48333333, "country": "India", "toast": "Cheers"}, {"name": "Wadhwan", "lat": 22.7, "lon": 71.68333333, "country": "India", "toast": "Cheers"}, {"name": "Waghai", "lat": 20.77048, "lon": 73.50074, "country": "India", "toast": "Cheers"}, {"name": "Wankaner", "lat": 22.61198, "lon": 70.94379, "country": "India", "toast": "Cheers"}, {"name": "Ambala", "lat": 30.32854, "lon": 76.9422, "country": "India", "toast": "Cheers"}, {"name": "Asandh", "lat": 29.52119, "lon": 76.60552, "country": "India", "toast": "Cheers"}, {"name": "Ateli Mandi", "lat": 28.1008, "lon": 76.2598, "country": "India", "toast": "Cheers"}, {"name": "Bahadurgarh", "lat": 28.69287, "lon": 76.93555, "country": "India", "toast": "Cheers"}, {"name": "Bara Uchana", "lat": 29.46747, "lon": 76.17798, "country": "India", "toast": "Cheers"}, {"name": "Barwala", "lat": 29.36747, "lon": 75.90809, "country": "India", "toast": "Cheers"}, {"name": "Bawal", "lat": 28.07184, "lon": 76.58312, "country": "India", "toast": "Cheers"}, {"name": "Beri Khas", "lat": 28.70146, "lon": 76.57708, "country": "India", "toast": "Cheers"}, {"name": "Bhiwani", "lat": 28.75, "lon": 76.16667, "country": "India", "toast": "Cheers"}, {"name": "Bilaspur", "lat": 30.3045, "lon": 77.30424, "country": "India", "toast": "Cheers"}, {"name": "Buriya", "lat": 30.15911, "lon": 77.35814, "country": "India", "toast": "Cheers"}, {"name": "Charkhi Dadri", "lat": 28.59166, "lon": 76.27161, "country": "India", "toast": "Cheers"}, {"name": "Chhachhrauli", "lat": 30.24492, "lon": 77.36027, "country": "India", "toast": "Cheers"}, {"name": "Dabwali", "lat": 29.94906, "lon": 74.73832, "country": "India", "toast": "Cheers"}, {"name": "Dharuhera", "lat": 28.20553, "lon": 76.79691, "country": "India", "toast": "Cheers"}, {"name": "Ellenabad", "lat": 29.45282, "lon": 74.66122, "country": "India", "toast": "Cheers"}, {"name": "Faridabad", "lat": 28.41124, "lon": 77.31316, "country": "India", "toast": "Cheers"}, {"name": "Farrukhnagar", "lat": 28.44745, "lon": 76.82391, "country": "India", "toast": "Cheers"}, {"name": "Fatehabad", "lat": 29.51525, "lon": 75.45554, "country": "India", "toast": "Cheers"}, {"name": "Firozpur Jhirka", "lat": 27.78853, "lon": 76.94496, "country": "India", "toast": "Cheers"}, {"name": "Gharaunda", "lat": 29.53692, "lon": 76.97142, "country": "India", "toast": "Cheers"}, {"name": "Gohana", "lat": 29.13777, "lon": 76.70247, "country": "India", "toast": "Cheers"}, {"name": "Gorakhpur", "lat": 29.44768, "lon": 75.67206, "country": "India", "toast": "Cheers"}, {"name": "Gurgaon", "lat": 28.43891, "lon": 77.00592, "country": "India", "toast": "Cheers"}, {"name": "Hansi", "lat": 29.10239, "lon": 75.96253, "country": "India", "toast": "Cheers"}, {"name": "Hasanpur", "lat": 27.96944, "lon": 77.49544, "country": "India", "toast": "Cheers"}, {"name": "Hisar", "lat": 29.15394, "lon": 75.72294, "country": "India", "toast": "Cheers"}, {"name": "Hodal", "lat": 27.89196, "lon": 77.36744, "country": "India", "toast": "Cheers"}, {"name": "Inda Chhoi", "lat": 29.64042, "lon": 75.79041, "country": "India", "toast": "Cheers"}, {"name": "Indri", "lat": 29.87999, "lon": 77.05972, "country": "India", "toast": "Cheers"}, {"name": "Jagadhri", "lat": 30.16719, "lon": 77.30367, "country": "India", "toast": "Cheers"}, {"name": "Jakhal", "lat": 29.79627, "lon": 75.82392, "country": "India", "toast": "Cheers"}, {"name": "Jhajjar", "lat": 28.6063, "lon": 76.6565, "country": "India", "toast": "Cheers"}, {"name": "Jind", "lat": 29.31577, "lon": 76.31502, "country": "India", "toast": "Cheers"}, {"name": "Kaithal", "lat": 29.80153, "lon": 76.39959, "country": "India", "toast": "Cheers"}, {"name": "Kalanaur", "lat": 28.82823, "lon": 76.3955, "country": "India", "toast": "Cheers"}, {"name": "Kalanwali", "lat": 29.83573, "lon": 74.9717, "country": "India", "toast": "Cheers"}, {"name": "Kanina Khas", "lat": 28.33093, "lon": 76.31099, "country": "India", "toast": "Cheers"}, {"name": "Karnal", "lat": 29.66667, "lon": 76.83333, "country": "India", "toast": "Cheers"}, {"name": "Kharkhauda", "lat": 28.8787, "lon": 76.91069, "country": "India", "toast": "Cheers"}, {"name": "Kheri Sampla", "lat": 28.7781, "lon": 76.7756, "country": "India", "toast": "Cheers"}, {"name": "Kurukshetra", "lat": 30.0, "lon": 76.75, "country": "India", "toast": "Cheers"}, {"name": "Ladwa", "lat": 29.9935, "lon": 77.04563, "country": "India", "toast": "Cheers"}, {"name": "Loharu", "lat": 28.42993, "lon": 75.80779, "country": "India", "toast": "Cheers"}, {"name": "Maham", "lat": 28.96912, "lon": 76.29495, "country": "India", "toast": "Cheers"}, {"name": "Mahendragarh", "lat": 28.25, "lon": 76.16667, "country": "India", "toast": "Cheers"}, {"name": "Mandholi Kalan", "lat": 28.7085, "lon": 75.68296, "country": "India", "toast": "Cheers"}, {"name": "Mustafabad", "lat": 30.2022, "lon": 77.14873, "country": "India", "toast": "Cheers"}, {"name": "Narayangarh", "lat": 30.47798, "lon": 77.12804, "country": "India", "toast": "Cheers"}, {"name": "Narnaul", "lat": 28.04444, "lon": 76.10833, "country": "India", "toast": "Cheers"}, {"name": "Narnaund", "lat": 29.22047, "lon": 76.14278, "country": "India", "toast": "Cheers"}, {"name": "Narwana", "lat": 29.59903, "lon": 76.11927, "country": "India", "toast": "Cheers"}, {"name": "Nilokheri", "lat": 29.83671, "lon": 76.93191, "country": "India", "toast": "Cheers"}, {"name": "Nuh", "lat": 28.10296, "lon": 77.00144, "country": "India", "toast": "Cheers"}, {"name": "Palwal", "lat": 28.14469, "lon": 77.32546, "country": "India", "toast": "Cheers"}, {"name": "Panchkula", "lat": 30.72883, "lon": 76.94716, "country": "India", "toast": "Cheers"}, {"name": "Panipat", "lat": 29.33259, "lon": 76.92634, "country": "India", "toast": "Cheers"}, {"name": "Pataudi", "lat": 28.32547, "lon": 76.77858, "country": "India", "toast": "Cheers"}, {"name": "Pehowa", "lat": 29.97897, "lon": 76.58249, "country": "India", "toast": "Cheers"}, {"name": "Pinjaur", "lat": 30.79873, "lon": 76.91822, "country": "India", "toast": "Cheers"}, {"name": "Punahana", "lat": 27.86371, "lon": 77.20432, "country": "India", "toast": "Cheers"}, {"name": "Pundri", "lat": 29.76096, "lon": 76.56034, "country": "India", "toast": "Cheers"}, {"name": "Radaur", "lat": 30.02706, "lon": 77.15177, "country": "India", "toast": "Cheers"}, {"name": "Rania", "lat": 29.52454, "lon": 74.83689, "country": "India", "toast": "Cheers"}, {"name": "Ratia", "lat": 29.69029, "lon": 75.57688, "country": "India", "toast": "Cheers"}, {"name": "Rewari", "lat": 28.199, "lon": 76.6183, "country": "India", "toast": "Cheers"}, {"name": "Rohtak", "lat": 28.83333, "lon": 76.66667, "country": "India", "toast": "Cheers"}, {"name": "Safidon", "lat": 29.40596, "lon": 76.67042, "country": "India", "toast": "Cheers"}, {"name": "Samalkha", "lat": 29.23552, "lon": 77.01273, "country": "India", "toast": "Cheers"}, {"name": "Shadipur Julana", "lat": 29.12368, "lon": 76.40516, "country": "India", "toast": "Cheers"}, {"name": "Shahabad", "lat": 30.16776, "lon": 76.87046, "country": "India", "toast": "Cheers"}, {"name": "Sirsa", "lat": 29.53489, "lon": 75.02898, "country": "India", "toast": "Cheers"}, {"name": "Sohna", "lat": 28.24737, "lon": 77.06544, "country": "India", "toast": "Cheers"}, {"name": "Sonipat", "lat": 29.0, "lon": 76.91667, "country": "India", "toast": "Cheers"}, {"name": "Taoru", "lat": 28.21173, "lon": 76.94984, "country": "India", "toast": "Cheers"}, {"name": "Thanesar", "lat": 29.97323, "lon": 76.83214, "country": "India", "toast": "Cheers"}, {"name": "Tohana", "lat": 29.71332, "lon": 75.90441, "country": "India", "toast": "Cheers"}, {"name": "Tosham", "lat": 28.86993, "lon": 75.9165, "country": "India", "toast": "Cheers"}, {"name": "Uklana", "lat": 29.51124, "lon": 75.87823, "country": "India", "toast": "Cheers"}, {"name": "Yamunanagar", "lat": 30.23644, "lon": 77.30498, "country": "India", "toast": "Cheers"}, {"name": "Arki", "lat": 31.15196, "lon": 76.96675, "country": "India", "toast": "Cheers"}, {"name": "Baddi", "lat": 30.95783, "lon": 76.79136, "country": "India", "toast": "Cheers"}, {"name": "Banjar", "lat": 31.639, "lon": 77.34055, "country": "India", "toast": "Cheers"}, {"name": "Bilaspur", "lat": 31.33027, "lon": 76.75663, "country": "India", "toast": "Cheers"}, {"name": "Chamba", "lat": 32.57147, "lon": 76.10229, "country": "India", "toast": "Cheers"}, {"name": "Chaupal", "lat": 30.94647, "lon": 77.5884, "country": "India", "toast": "Cheers"}, {"name": "Chowari", "lat": 32.4319, "lon": 76.012, "country": "India", "toast": "Cheers"}, {"name": "Chuari Khas", "lat": 32.43058, "lon": 76.01428, "country": "India", "toast": "Cheers"}, {"name": "Dagshai", "lat": 30.88431, "lon": 77.05228, "country": "India", "toast": "Cheers"}, {"name": "Dalhousie", "lat": 32.55219, "lon": 75.94663, "country": "India", "toast": "Cheers"}, {"name": "Daulatpur", "lat": 31.78871, "lon": 75.99154, "country": "India", "toast": "Cheers"}, {"name": "Dera Gopipur", "lat": 31.87919, "lon": 76.21871, "country": "India", "toast": "Cheers"}, {"name": "Dharamsala", "lat": 32.22006, "lon": 76.32013, "country": "India", "toast": "Cheers"}, {"name": "Gagret", "lat": 31.65846, "lon": 76.06144, "country": "India", "toast": "Cheers"}, {"name": "Ghumarwin", "lat": 31.44166, "lon": 76.71509, "country": "India", "toast": "Cheers"}, {"name": "Hamirpur", "lat": 31.75, "lon": 76.5, "country": "India", "toast": "Cheers"}, {"name": "Jawala Mukhi", "lat": 31.87456, "lon": 76.32013, "country": "India", "toast": "Cheers"}, {"name": "Jogindarnagar", "lat": 31.98727, "lon": 76.78906, "country": "India", "toast": "Cheers"}, {"name": "Jubbal", "lat": 31.10923, "lon": 77.65085, "country": "India", "toast": "Cheers"}, {"name": "Jutogh", "lat": 31.1, "lon": 77.11667, "country": "India", "toast": "Cheers"}, {"name": "Kalka", "lat": 30.83982, "lon": 76.94065, "country": "India", "toast": "Cheers"}, {"name": "Kangar", "lat": 32.09135, "lon": 76.26267, "country": "India", "toast": "Cheers"}, {"name": "Kangra", "lat": 32.16667, "lon": 76.25, "country": "India", "toast": "Cheers"}, {"name": "Kasauli", "lat": 30.89856, "lon": 76.96587, "country": "India", "toast": "Cheers"}, {"name": "Kinnaur", "lat": 31.58333, "lon": 78.41667, "country": "India", "toast": "Cheers"}, {"name": "Kotkhai", "lat": 31.11728, "lon": 77.53936, "country": "India", "toast": "Cheers"}, {"name": "Kotla", "lat": 32.25, "lon": 76.03333, "country": "India", "toast": "Cheers"}, {"name": "Kulu", "lat": 32.0, "lon": 77.25, "country": "India", "toast": "Cheers"}, {"name": "Kyelang", "lat": 32.5717, "lon": 77.02448, "country": "India", "toast": "Cheers"}, {"name": "Lahul and Spiti", "lat": 32.5, "lon": 77.83333, "country": "India", "toast": "Cheers"}, {"name": "Manali", "lat": 32.2574, "lon": 77.17481, "country": "India", "toast": "Cheers"}, {"name": "Mandi", "lat": 31.71194, "lon": 76.93273, "country": "India", "toast": "Cheers"}, {"name": "Nadaun", "lat": 31.78303, "lon": 76.3431, "country": "India", "toast": "Cheers"}, {"name": "Nagar", "lat": 32.13808, "lon": 77.17393, "country": "India", "toast": "Cheers"}, {"name": "Nagrota", "lat": 32.0571, "lon": 76.09139, "country": "India", "toast": "Cheers"}, {"name": "Nahan", "lat": 30.56029, "lon": 77.29426, "country": "India", "toast": "Cheers"}, {"name": "Nalagarh", "lat": 31.04168, "lon": 76.72285, "country": "India", "toast": "Cheers"}, {"name": "Palampur", "lat": 32.11453, "lon": 76.55681, "country": "India", "toast": "Cheers"}, {"name": "Pandoh", "lat": 31.66902, "lon": 77.05359, "country": "India", "toast": "Cheers"}, {"name": "Paonta Sahib", "lat": 30.43666, "lon": 77.62462, "country": "India", "toast": "Cheers"}, {"name": "Parwanoo", "lat": 30.83716, "lon": 76.96143, "country": "India", "toast": "Cheers"}, {"name": "Rajgarh", "lat": 30.85142, "lon": 77.30066, "country": "India", "toast": "Cheers"}, {"name": "Rampur", "lat": 31.44943, "lon": 77.63087, "country": "India", "toast": "Cheers"}, {"name": "Rohru", "lat": 31.20269, "lon": 77.75484, "country": "India", "toast": "Cheers"}, {"name": "Sabathu", "lat": 30.97494, "lon": 76.99137, "country": "India", "toast": "Cheers"}, {"name": "Santokhgarh", "lat": 31.35205, "lon": 76.31775, "country": "India", "toast": "Cheers"}, {"name": "Sarahan", "lat": 31.50988, "lon": 77.79395, "country": "India", "toast": "Cheers"}, {"name": "Sarka Ghat", "lat": 31.69887, "lon": 76.73529, "country": "India", "toast": "Cheers"}, {"name": "Seoni", "lat": 31.24188, "lon": 77.12362, "country": "India", "toast": "Cheers"}, {"name": "Shimla", "lat": 31.16667, "lon": 77.58333, "country": "India", "toast": "Cheers"}, {"name": "Sirmaur", "lat": 30.75, "lon": 77.5, "country": "India", "toast": "Cheers"}, {"name": "Solan", "lat": 31.08333, "lon": 76.83333, "country": "India", "toast": "Cheers"}, {"name": "Sundarnagar", "lat": 31.53523, "lon": 76.905, "country": "India", "toast": "Cheers"}, {"name": "Theog", "lat": 31.12155, "lon": 77.35838, "country": "India", "toast": "Cheers"}, {"name": "Tira Sujanpur", "lat": 31.83364, "lon": 76.50539, "country": "India", "toast": "Cheers"}, {"name": "Una", "lat": 31.46493, "lon": 76.26914, "country": "India", "toast": "Cheers"}, {"name": "Yol", "lat": 32.16423, "lon": 76.19622, "country": "India", "toast": "Cheers"}, {"name": "Akhnur", "lat": 32.86667, "lon": 74.73333, "country": "India", "toast": "Cheers"}, {"name": "Anantnag", "lat": 33.73068, "lon": 75.15418, "country": "India", "toast": "Cheers"}, {"name": "Awantipur", "lat": 33.91978, "lon": 75.01515, "country": "India", "toast": "Cheers"}, {"name": "Badgam", "lat": 33.89001, "lon": 74.66297, "country": "India", "toast": "Cheers"}, {"name": "Bandipore", "lat": 34.50404, "lon": 74.82832, "country": "India", "toast": "Cheers"}, {"name": "Banihal", "lat": 33.43647, "lon": 75.19684, "country": "India", "toast": "Cheers"}, {"name": "Baramula", "lat": 34.19287, "lon": 74.3692, "country": "India", "toast": "Cheers"}, {"name": "Batoti", "lat": 33.11826, "lon": 75.30889, "country": "India", "toast": "Cheers"}, {"name": "Bhadarwah", "lat": 32.97941, "lon": 75.71723, "country": "India", "toast": "Cheers"}, {"name": "Bijbehara", "lat": 33.79378, "lon": 75.107, "country": "India", "toast": "Cheers"}, {"name": "Bishnah", "lat": 32.6106, "lon": 74.85557, "country": "India", "toast": "Cheers"}, {"name": "Doda", "lat": 33.14916, "lon": 75.54746, "country": "India", "toast": "Cheers"}, {"name": "Ganderbal", "lat": 34.29467, "lon": 75.19996, "country": "India", "toast": "Cheers"}, {"name": "Gho Brahmanan de", "lat": 32.5559, "lon": 74.9539, "country": "India", "toast": "Cheers"}, {"name": "Hajan", "lat": 34.29895, "lon": 74.61681, "country": "India", "toast": "Cheers"}, {"name": "Hiranagar", "lat": 32.45493, "lon": 75.27187, "country": "India", "toast": "Cheers"}, {"name": "Jammu", "lat": 32.75, "lon": 74.83333, "country": "India", "toast": "Cheers"}, {"name": "Jaurian", "lat": 32.83255, "lon": 74.57612, "country": "India", "toast": "Cheers"}, {"name": "Kathua", "lat": 32.58333, "lon": 75.5, "country": "India", "toast": "Cheers"}, {"name": "Katra", "lat": 32.99167, "lon": 74.93195, "country": "India", "toast": "Cheers"}, {"name": "Khaur", "lat": 32.6027, "lon": 74.80918, "country": "India", "toast": "Cheers"}, {"name": "Kishtwar", "lat": 33.52958, "lon": 76.01462, "country": "India", "toast": "Cheers"}, {"name": "Kud", "lat": 33.07246, "lon": 75.28727, "country": "India", "toast": "Cheers"}, {"name": "Kulgam", "lat": 33.64456, "lon": 75.01923, "country": "India", "toast": "Cheers"}, {"name": "Kupwara", "lat": 34.53193, "lon": 74.26605, "country": "India", "toast": "Cheers"}, {"name": "Ladakh", "lat": 34.33333, "lon": 77.41667, "country": "India", "toast": "Cheers"}, {"name": "Magam", "lat": 34.09256, "lon": 74.59016, "country": "India", "toast": "Cheers"}, {"name": "Nawanshahr", "lat": 32.76505, "lon": 74.52772, "country": "India", "toast": "Cheers"}, {"name": "Noria", "lat": 32.52095, "lon": 74.79845, "country": "India", "toast": "Cheers"}, {"name": "Padam", "lat": 33.46659, "lon": 76.88488, "country": "India", "toast": "Cheers"}, {"name": "Pahlgam", "lat": 34.01592, "lon": 75.31899, "country": "India", "toast": "Cheers"}, {"name": "Parol", "lat": 32.34598, "lon": 75.43441, "country": "India", "toast": "Cheers"}, {"name": "Pattan", "lat": 34.16125, "lon": 74.55634, "country": "India", "toast": "Cheers"}, {"name": "Pulwama", "lat": 33.87405, "lon": 74.89955, "country": "India", "toast": "Cheers"}, {"name": "Punch", "lat": 33.70178, "lon": 74.19916, "country": "India", "toast": "Cheers"}, {"name": "Qazigund", "lat": 33.63828, "lon": 75.14261, "country": "India", "toast": "Cheers"}, {"name": "Rajaori", "lat": 33.37526, "lon": 74.3092, "country": "India", "toast": "Cheers"}, {"name": "Rajauri", "lat": 33.25, "lon": 74.25, "country": "India", "toast": "Cheers"}, {"name": "Ramban", "lat": 33.32301, "lon": 75.1861, "country": "India", "toast": "Cheers"}, {"name": "Ramgarh", "lat": 33.40379, "lon": 74.22388, "country": "India", "toast": "Cheers"}, {"name": "Ramnagar", "lat": 32.80728, "lon": 75.31119, "country": "India", "toast": "Cheers"}, {"name": "Riasi", "lat": 33.08115, "lon": 74.83242, "country": "India", "toast": "Cheers"}, {"name": "Samba", "lat": 32.57523, "lon": 75.10929, "country": "India", "toast": "Cheers"}, {"name": "Shupiyan", "lat": 33.73067, "lon": 74.81869, "country": "India", "toast": "Cheers"}, {"name": "Sopur", "lat": 34.28671, "lon": 74.47228, "country": "India", "toast": "Cheers"}, {"name": "Soyibug", "lat": 34.07677, "lon": 74.7057, "country": "India", "toast": "Cheers"}, {"name": "Srinagar", "lat": 34.08565, "lon": 74.80555, "country": "India", "toast": "Cheers"}, {"name": "Sumbal", "lat": 34.23072, "lon": 74.6472, "country": "India", "toast": "Cheers"}, {"name": "Thang", "lat": 34.9274, "lon": 76.79336, "country": "India", "toast": "Cheers"}, {"name": "Thanna Mandi", "lat": 33.54204, "lon": 74.381, "country": "India", "toast": "Cheers"}, {"name": "Tral", "lat": 33.92708, "lon": 75.11585, "country": "India", "toast": "Cheers"},