[{"name": "Broken Hill", "lat": -31.9652, "lon": 141.4512, "country": "Australia", "toast": "Cheers"}, {"name": "Broken Hill Municipality", "lat": -31.95, "lon": 141.43333, "country": "Australia", "toast": "Cheers"}, {"name": "Aberfoyle Park", "lat": -35.0768, "lon": 138.59163, "country": "Australia", "toast": "Cheers"}, {"name": "Adelaide", "lat": -34.92866, "lon": 138.59863, "country": "Australia", "toast": "Cheers"}, {"name": "Adelaide city centre", "lat": -34.92873, "lon": 138.60334, "country": "Australia", "toast": "Cheers"}, {"name": "Adelaide Hills", "lat": -34.90103, "lon": 138.85457, "country": "Australia", "toast": "Cheers"}, {"name": "Albert Park", "lat": -34.87201, "lon": 138.51966, "country": "Australia", "toast": "Cheers"}, {"name": "Alberton", "lat": -34.85925, "lon": 138.52138, "country": "Australia", "toast": "Cheers"}, {"name": "Aldgate", "lat": -35.01667, "lon": 138.73333, "country": "Australia", "toast": "Cheers"}, {"name": "Aldinga Beach", "lat": -35.27826, "lon": 138.45802, "country": "Australia", "toast": "Cheers"}, {"name": "Alexandrina", "lat": -35.33769, "lon": 138.83704, "country": "Australia", "toast": "Cheers"}, {"name": "Allenby Gardens", "lat": -34.89766, "lon": 138.55425, "country": "Australia", "toast": "Cheers"}, {"name": "Anangu Pitjantjatjara", "lat": -27.05797, "lon": 131.37314, "country": "Australia", "toast": "Cheers"}, {"name": "Andrews Farm", "lat": -34.67632, "lon": 138.66197, "country": "Australia", "toast": "Cheers"}, {"name": "Angaston", "lat": -34.50129, "lon": 139.04625, "country": "Australia", "toast": "Cheers"}, {"name": "Angle Park", "lat": -34.85989, "lon": 138.55798, "country": "Australia", "toast": "Cheers"}, {"name": "Angle Vale", "lat": -34.64098, "lon": 138.6461, "country": "Australia", "toast": "Cheers"}, {"name": "Ardrossan", "lat": -34.42217, "lon": 137.91907, "country": "Australia", "toast": "Cheers"}, {"name": "Ascot Park", "lat": -34.99175, "lon": 138.55768, "country": "Australia", "toast": "Cheers"}, {"name": "Ashford", "lat": -34.94859, "lon": 138.57457, "country": "Australia", "toast": "Cheers"}, {"name": "Athelstone", "lat": -34.87019, "lon": 138.6999, "country": "Australia", "toast": "Cheers"}, {"name": "Athol Park", "lat": -34.85608, "lon": 138.54282, "country": "Australia", "toast": "Cheers"}, {"name": "Balaklava", "lat": -34.14542, "lon": 138.41148, "country": "Australia", "toast": "Cheers"}, {"name": "Balhannah", "lat": -34.99094, "lon": 138.82565, "country": "Australia", "toast": "Cheers"}, {"name": "Banksia Park", "lat": -34.81015, "lon": 138.7357, "country": "Australia", "toast": "Cheers"}, {"name": "Barmera", "lat": -34.25562, "lon": 140.46147, "country": "Australia", "toast": "Cheers"}, {"name": "Barossa", "lat": -34.61351, "lon": 138.96169, "country": "Australia", "toast": "Cheers"}, {"name": "Barunga West", "lat": -33.79484, "lon": 137.92311, "country": "Australia", "toast": "Cheers"}, {"name": "Beaumont", "lat": -34.94899, "lon": 138.66188, "country": "Australia", "toast": "Cheers"}, {"name": "Bedford Park", "lat": -35.02204, "lon": 138.56815, "country": "Australia", "toast": "Cheers"}, {"name": "Belair", "lat": -34.99766, "lon": 138.62077, "country": "Australia", "toast": "Cheers"}, {"name": "Bellevue Heights", "lat": -35.03023, "lon": 138.58314, "country": "Australia", "toast": "Cheers"}, {"name": "Berri", "lat": -34.28107, "lon": 140.59958, "country": "Australia", "toast": "Cheers"}, {"name": "Berri and Barmera", "lat": -34.28788, "lon": 140.49358, "country": "Australia", "toast": "Cheers"}, {"name": "Beulah Park", "lat": -34.91768, "lon": 138.64522, "country": "Australia", "toast": "Cheers"}, {"name": "Beverley", "lat": -34.89512, "lon": 138.54633, "country": "Australia", "toast": "Cheers"}, {"name": "Birdwood", "lat": -34.81826, "lon": 138.96478, "country": "Australia", "toast": "Cheers"}, {"name": "Birkenhead", "lat": -34.83685, "lon": 138.49788, "country": "Australia", "toast": "Cheers"}, {"name": "Black Forest", "lat": -34.96028, "lon": 138.57668, "country": "Australia", "toast": "Cheers"}, {"name": "Blackwood", "lat": -35.02139, "lon": 138.61429, "country": "Australia", "toast": "Cheers"}, {"name": "Blair Athol", "lat": -34.85889, "lon": 138.59656, "country": "Australia", "toast": "Cheers"}, {"name": "Blakeview", "lat": -34.67566, "lon": 138.7101, "country": "Australia", "toast": "Cheers"}, {"name": "Bordertown", "lat": -36.30768, "lon": 140.77167, "country": "Australia", "toast": "Cheers"}, {"name": "Brahma Lodge", "lat": -34.77604, "lon": 138.65306, "country": "Australia", "toast": "Cheers"}, {"name": "Bridgewater", "lat": -35.01397, "lon": 138.76648, "country": "Australia", "toast": "Cheers"}, {"name": "Brighton", "lat": -35.0182, "lon": 138.52351, "country": "Australia", "toast": "Cheers"}, {"name": "Broadview", "lat": -34.87589, "lon": 138.61498, "country": "Australia", "toast": "Cheers"}, {"name": "Brompton", "lat": -34.89445, "lon": 138.5782, "country": "Australia", "toast": "Cheers"}, {"name": "Brooklyn Park", "lat": -34.92847, "lon": 138.53631, "country": "Australia", "toast": "Cheers"}, {"name": "Burnside", "lat": -34.93333, "lon": 138.65, "country": "Australia", "toast": "Cheers"}, {"name": "Burra", "lat": -33.67171, "lon": 138.92835, "country": "Australia", "toast": "Cheers"}, {"name": "Burton", "lat": -34.73339, "lon": 138.60247, "country": "Australia", "toast": "Cheers"}, {"name": "Camden Park", "lat": -34.96857, "lon": 138.53957, "country": "Australia", "toast": "Cheers"}, {"name": "Campbelltown", "lat": -34.88545, "lon": 138.68546, "country": "Australia", "toast": "Cheers"}, {"name": "Ceduna", "lat": -32.14736, "lon": 133.86288, "country": "Australia", "toast": "Cheers"}, {"name": "Charles Sturt", "lat": -34.90067, "lon": 138.53182, "country": "Australia", "toast": "Cheers"}, {"name": "Cheltenham", "lat": -34.86788, "lon": 138.52336, "country": "Australia", "toast": "Cheers"}, {"name": "Christie Downs", "lat": -35.12999, "lon": 138.49633, "country": "Australia", "toast": "Cheers"}, {"name": "Christies Beach", "lat": -35.13876, "lon": 138.47232, "country": "Australia", "toast": "Cheers"}, {"name": "City of West Torrens", "lat": -34.93133, "lon": 138.5509, "country": "Australia", "toast": "Cheers"}, {"name": "Clapham", "lat": -34.98989, "lon": 138.60158, "country": "Australia", "toast": "Cheers"}, {"name": "Clare", "lat": -33.83325, "lon": 138.61064, "country": "Australia", "toast": "Cheers"}, {"name": "Clare and Gilbert Valleys", "lat": -34.01462, "lon": 138.7534, "country": "Australia", "toast": "Cheers"}, {"name": "Clarence Gardens", "lat": -34.97539, "lon": 138.57983, "country": "Australia", "toast": "Cheers"}, {"name": "Clarence Park", "lat": -34.96416, "lon": 138.5806, "country": "Australia", "toast": "Cheers"}, {"name": "Clearview", "lat": -34.85735, "lon": 138.61327, "country": "Australia", "toast": "Cheers"}, {"name": "Cleve", "lat": -33.66078, "lon": 136.28893, "country": "Australia", "toast": "Cheers"}, {"name": "Clovelly Park", "lat": -34.99951, "lon": 138.57081, "country": "Australia", "toast": "Cheers"}, {"name": "Collinswood", "lat": -34.8873, "lon": 138.61224, "country": "Australia", "toast": "Cheers"}, {"name": "Colonel Light Gardens", "lat": -34.98628, "lon": 138.59746, "country": "Australia", "toast": "Cheers"}, {"name": "Coober Pedy", "lat": -29.01415, "lon": 134.75495, "country": "Australia", "toast": "Cheers"}, {"name": "Copper Coast", "lat": -33.94287, "lon": 137.71329, "country": "Australia", "toast": "Cheers"}, {"name": "Coromandel Valley", "lat": -35.05, "lon": 138.61667, "country": "Australia", "toast": "Cheers"}, {"name": "Cowandilla", "lat": -34.93221, "lon": 138.55931, "country": "Australia", "toast": "Cheers"}, {"name": "Cowell", "lat": -33.68227, "lon": 136.92117, "country": "Australia", "toast": "Cheers"}, {"name": "Crafers", "lat": -35.0, "lon": 138.7, "country": "Australia", "toast": "Cheers"}, {"name": "Crafers West", "lat": -34.99136, "lon": 138.68205, "country": "Australia", "toast": "Cheers"}, {"name": "Craigburn Farm", "lat": -35.04046, "lon": 138.6049, "country": "Australia", "toast": "Cheers"}, {"name": "Craigmore", "lat": -34.70064, "lon": 138.70956, "country": "Australia", "toast": "Cheers"}, {"name": "Croydon Park", "lat": -34.88028, "lon": 138.56779, "country": "Australia", "toast": "Cheers"}, {"name": "Crystal Brook", "lat": -33.35256, "lon": 138.20955, "country": "Australia", "toast": "Cheers"}, {"name": "Cumberland Park", "lat": -34.97204, "lon": 138.5867, "country": "Australia", "toast": "Cheers"}, {"name": "Darlington", "lat": -35.03151, "lon": 138.55527, "country": "Australia", "toast": "Cheers"}, {"name": "Davoren Park", "lat": -34.69063, "lon": 138.66862, "country": "Australia", "toast": "Cheers"}, {"name": "Daw Park", "lat": -34.98975, "lon": 138.58407, "country": "Australia", "toast": "Cheers"}, {"name": "Dernancourt", "lat": -34.86199, "lon": 138.67658, "country": "Australia", "toast": "Cheers"}, {"name": "Dover Gardens", "lat": -35.024, "lon": 138.53695, "country": "Australia", "toast": "Cheers"}, {"name": "Dulwich", "lat": -34.9365, "lon": 138.6272, "country": "Australia", "toast": "Cheers"}, {"name": "Echunga", "lat": -35.10354, "lon": 138.79588, "country": "Australia", "toast": "Cheers"}, {"name": "Eden Hills", "lat": -35.0211, "lon": 138.59567, "country": "Australia", "toast": "Cheers"}, {"name": "Edwardstown", "lat": -34.98018, "lon": 138.5694, "country": "Australia", "toast": "Cheers"}, {"name": "Elizabeth Downs", "lat": -34.69982, "lon": 138.69132, "country": "Australia", "toast": "Cheers"}, {"name": "Elizabeth East", "lat": -34.72513, "lon": 138.68214, "country": "Australia", "toast": "Cheers"}, {"name": "Elizabeth Grove", "lat": -34.73528, "lon": 138.66888, "country": "Australia", "toast": "Cheers"}, {"name": "Elizabeth North", "lat": -34.70678, "lon": 138.67609, "country": "Australia", "toast": "Cheers"}, {"name": "Elizabeth Park", "lat": -34.70974, "lon": 138.68604, "country": "Australia", "toast": "Cheers"}, {"name": "Elizabeth South", "lat": -34.73182, "lon": 138.66192, "country": "Australia", "toast": "Cheers"}, {"name": "Elizabeth Vale", "lat": -34.74857, "lon": 138.66819, "country": "Australia", "toast": "Cheers"}, {"name": "Elliston", "lat": -33.53931, "lon": 135.09514, "country": "Australia", "toast": "Cheers"}, {"name": "Encounter Bay", "lat": -35.57419, "lon": 138.60055, "country": "Australia", "toast": "Cheers"}, {"name": "Enfield", "lat": -34.8526, "lon": 138.60255, "country": "Australia", "toast": "Cheers"}, {"name": "Erindale", "lat": -34.92785, "lon": 138.66313, "country": "Australia", "toast": "Cheers"}, {"name": "Ethelton", "lat": -34.84869, "lon": 138.49103, "country": "Australia", "toast": "Cheers"}, {"name": "Evandale", "lat": -34.90552, "lon": 138.63542, "country": "Australia", "toast": "Cheers"}, {"name": "Evanston", "lat": -34.61657, "lon": 138.73369, "country": "Australia", "toast": "Cheers"}, {"name": "Evanston Gardens", "lat": -34.62323, "lon": 138.72166, "country": "Australia", "toast": "Cheers"}, {"name": "Evanston Park", "lat": -34.62284, "lon": 138.74123, "country": "Australia", "toast": "Cheers"}, {"name": "Everard Park", "lat": -34.95196, "lon": 138.57481, "country": "Australia", "toast": "Cheers"}, {"name": "Exeter", "lat": -34.83994, "lon": 138.48902, "country": "Australia", "toast": "Cheers"}, {"name": "Fairview Park", "lat": -34.79998, "lon": 138.72857, "country": "Australia", "toast": "Cheers"}, {"name": "Felixstow", "lat": -34.88902, "lon": 138.64696, "country": "Australia", "toast": "Cheers"}, {"name": "Ferryden Park", "lat": -34.86616, "lon": 138.5618, "country": "Australia", "toast": "Cheers"}, {"name": "Findon", "lat": -34.9, "lon": 138.53333, "country": "Australia", "toast": "Cheers"}, {"name": "Firle", "lat": -34.90459, "lon": 138.65319, "country": "Australia", "toast": "Cheers"}, {"name": "Flagstaff Hill", "lat": -35.04861, "lon": 138.58285, "country": "Australia", "toast": "Cheers"}, {"name": "Flinders Park", "lat": -34.91026, "lon": 138.54322, "country": "Australia", "toast": "Cheers"}, {"name": "Flinders Ranges", "lat": -32.13341, "lon": 138.33882, "country": "Australia", "toast": "Cheers"}, {"name": "Forestville", "lat": -34.94946, "lon": 138.57845, "country": "Australia", "toast": "Cheers"}, {"name": "Franklin Harbour", "lat": -33.60164, "lon": 136.94148, "country": "Australia", "toast": "Cheers"}, {"name": "Freeling", "lat": -34.45407, "lon": 138.80868, "country": "Australia", "toast": "Cheers"}, {"name": "Fulham", "lat": -34.92737, "lon": 138.51368, "country": "Australia", "toast": "Cheers"}, {"name": "Fulham Gardens", "lat": -34.91483, "lon": 138.51324, "country": "Australia", "toast": "Cheers"}, {"name": "Fullarton", "lat": -34.951, "lon": 138.629, "country": "Australia", "toast": "Cheers"}, {"name": "Gawler", "lat": -34.62109, "lon": 138.73228, "country": "Australia", "toast": "Cheers"}, {"name": "Gawler East", "lat": -34.59889, "lon": 138.7632, "country": "Australia", "toast": "Cheers"}, {"name": "Gawler South", "lat": -34.60712, "lon": 138.74445, "country": "Australia", "toast": "Cheers"}, {"name": "Gilberton", "lat": -34.90051, "lon": 138.6126, "country": "Australia", "toast": "Cheers"}, {"name": "Gilles Plains", "lat": -34.85, "lon": 138.65, "country": "Australia", "toast": "Cheers"}, {"name": "Glandore", "lat": -34.96154, "lon": 138.56832, "country": "Australia", "toast": "Cheers"}, {"name": "Glen Osmond", "lat": -34.9596, "lon": 138.64873, "country": "Australia", "toast": "Cheers"}, {"name": "Glenalta", "lat": -35.00792, "lon": 138.62592, "country": "Australia", "toast": "Cheers"}, {"name": "Glenelg", "lat": -34.98079, "lon": 138.515, "country": "Australia", "toast": "Cheers"}, {"name": "Glenelg East", "lat": -34.9764, "lon": 138.52962, "country": "Australia", "toast": "Cheers"}, {"name": "Glenelg North", "lat": -34.9679, "lon": 138.51751, "country": "Australia", "toast": "Cheers"}, {"name": "Glenelg South", "lat": -34.98964, "lon": 138.51425, "country": "Australia", "toast": "Cheers"}, {"name": "Glengowrie", "lat": -34.98708, "lon": 138.53674, "country": "Australia", "toast": "Cheers"}, {"name": "Glenside", "lat": -34.94275, "lon": 138.63375, "country": "Australia", "toast": "Cheers"}, {"name": "Glenunga", "lat": -34.95013, "lon": 138.63841, "country": "Australia", "toast": "Cheers"}, {"name": "Glynde", "lat": -34.89605, "lon": 138.65253, "country": "Australia", "toast": "Cheers"}, {"name": "Golden Grove", "lat": -34.78333, "lon": 138.73333, "country": "Australia", "toast": "Cheers"}, {"name": "Goodwood", "lat": -34.95092, "lon": 138.5923, "country": "Australia", "toast": "Cheers"}, {"name": "Goolwa", "lat": -35.50159, "lon": 138.78191, "country": "Australia", "toast": "Cheers"}, {"name": "Goolwa Beach", "lat": -35.50474, "lon": 138.7732, "country": "Australia", "toast": "Cheers"}, {"name": "Goyder", "lat": -33.7164, "lon": 139.01655, "country": "Australia", "toast": "Cheers"}, {"name": "Grange", "lat": -34.90223, "lon": 138.49022, "country": "Australia", "toast": "Cheers"}, {"name": "Grant", "lat": -37.83642, "lon": 140.63316, "country": "Australia", "toast": "Cheers"}, {"name": "Greenacres", "lat": -34.86855, "lon": 138.628, "country": "Australia", "toast": "Cheers"}, {"name": "Greenock", "lat": -34.457, "lon": 138.92719, "country": "Australia", "toast": "Cheers"}, {"name": "Greenwith", "lat": -34.76565, "lon": 138.71383, "country": "Australia", "toast": "Cheers"}, {"name": "Gulfview Heights", "lat": -34.79545, "lon": 138.66937, "country": "Australia", "toast": "Cheers"}, {"name": "Hackham", "lat": -35.15514, "lon": 138.52509, "country": "Australia", "toast": "Cheers"}, {"name": "Hackham West", "lat": -35.14312, "lon": 138.51442, "country": "Australia", "toast": "Cheers"}, {"name": "Hahndorf", "lat": -35.02863, "lon": 138.80779, "country": "Australia", "toast": "Cheers"}, {"name": "Hallett Cove", "lat": -35.07923, "lon": 138.5146, "country": "Australia", "toast": "Cheers"}, {"name": "Hampstead Gardens", "lat": -34.87448, "lon": 138.62881, "country": "Australia", "toast": "Cheers"}, {"name": "Happy Valley", "lat": -35.08333, "lon": 138.53333, "country": "Australia", "toast": "Cheers"}, {"name": "Hawthorn", "lat": -34.97384, "lon": 138.60738, "country": "Australia", "toast": "Cheers"}, {"name": "Hawthorndene", "lat": -35.02229, "lon": 138.63039, "country": "Australia", "toast": "Cheers"}, {"name": "Hayborough", "lat": -35.53129, "lon": 138.65037, "country": "Australia", "toast": "Cheers"}, {"name": "Hazelwood Park", "lat": -34.93947, "lon": 138.65879, "country": "Australia", "toast": "Cheers"}, {"name": "Hectorville", "lat": -34.89157, "lon": 138.65892, "country": "Australia", "toast": "Cheers"}, {"name": "Henley Beach", "lat": -34.92029, "lon": 138.49442, "country": "Australia", "toast": "Cheers"}, {"name": "Henley Beach South", "lat": -34.92591, "lon": 138.49554, "country": "Australia", "toast": "Cheers"}, {"name": "Hewett", "lat": -34.57801, "lon": 138.75242, "country": "Australia", "toast": "Cheers"}, {"name": "Highbury", "lat": -34.85287, "lon": 138.6975, "country": "Australia", "toast": "Cheers"}, {"name": "Highgate", "lat": -34.96177, "lon": 138.6218, "country": "Australia", "toast": "Cheers"}, {"name": "Hillbank", "lat": -34.73588, "lon": 138.68723, "country": "Australia", "toast": "Cheers"}, {"name": "Hillcrest", "lat": -34.86252, "lon": 138.64306, "country": "Australia", "toast": "Cheers"}, {"name": "Hindmarsh Island", "lat": -35.51014, "lon": 138.86762, "country": "Australia", "toast": "Cheers"}, {"name": "Holden Hill", "lat": -34.85161, "lon": 138.67232, "country": "Australia", "toast": "Cheers"}, {"name": "Holdfast Bay", "lat": -35.00244, "lon": 138.52318, "country": "Australia", "toast": "Cheers"}, {"name": "Hope Valley", "lat": -34.83333, "lon": 138.7, "country": "Australia", "toast": "Cheers"}, {"name": "Hove", "lat": -35.00814, "lon": 138.5212, "country": "Australia", "toast": "Cheers"}, {"name": "Huntfield Heights", "lat": -35.15452, "lon": 138.51417, "country": "Australia", "toast": "Cheers"}, {"name": "Hyde Park", "lat": -34.95467, "lon": 138.60107, "country": "Australia", "toast": "Cheers"}, {"name": "Ingle Farm", "lat": -34.83333, "lon": 138.63333, "country": "Australia", "toast": "Cheers"}, {"name": "Jamestown", "lat": -33.20531, "lon": 138.60503, "country": "Australia", "toast": "Cheers"}, {"name": "Joslin", "lat": -34.89967, "lon": 138.62655, "country": "Australia", "toast": "Cheers"}, {"name": "Kadina", "lat": -33.96495, "lon": 137.71634, "country": "Australia", "toast": "Cheers"}, {"name": "Kangaroo Island", "lat": -35.8239, "lon": 137.33392, "country": "Australia", "toast": "Cheers"}, {"name": "Kapunda", "lat": -34.33871, "lon": 138.91644, "country": "Australia", "toast": "Cheers"}, {"name": "Karoonda East Murray", "lat": -34.92846, "lon": 140.02484, "country": "Australia", "toast": "Cheers"}, {"name": "Keith", "lat": -36.0991, "lon": 140.35315, "country": "Australia", "toast": "Cheers"}, {"name": "Kensington Gardens", "lat": -34.92582, "lon": 138.66145, "country": "Australia", "toast": "Cheers"}, {"name": "Kensington Park", "lat": -34.92022, "lon": 138.6543, "country": "Australia", "toast": "Cheers"}, {"name": "Kent Town", "lat": -34.92155, "lon": 138.62009, "country": "Australia", "toast": "Cheers"}, {"name": "Kersbrook", "lat": -34.78305, "lon": 138.85091, "country": "Australia", "toast": "Cheers"}, {"name": "Kidman Park", "lat": -34.91224, "lon": 138.52693, "country": "Australia", "toast": "Cheers"}, {"name": "Kilburn", "lat": -34.8597, "lon": 138.58559, "country": "Australia", "toast": "Cheers"}, {"name": "Kilkenny", "lat": -34.87914, "lon": 138.5529, "country": "Australia", "toast": "Cheers"}, {"name": "Kimba", "lat": -33.04817, "lon": 136.31797, "country": "Australia", "toast": "Cheers"}, {"name": "Kingscote", "lat": -35.6559, "lon": 137.6393, "country": "Australia", "toast": "Cheers"}, {"name": "Kingston", "lat": -36.64083, "lon": 140.05093, "country": "Australia", "toast": "Cheers"}, {"name": "Kingston South East", "lat": -36.83073, "lon": 139.8522, "country": "Australia", "toast": "Cheers"}, {"name": "Klemzig", "lat": -34.87928, "lon": 138.63562, "country": "Australia", "toast": "Cheers"}, {"name": "Kurralta Park", "lat": -34.95142, "lon": 138.56702, "country": "Australia", "toast": "Cheers"}, {"name": "Largs Bay", "lat": -34.82582, "lon": 138.48619, "country": "Australia", "toast": "Cheers"}, {"name": "Largs North", "lat": -34.8205, "lon": 138.49241, "country": "Australia", "toast": "Cheers"}, {"name": "Leabrook", "lat": -34.92976, "lon": 138.65862, "country": "Australia", "toast": "Cheers"}, {"name": "Lewiston", "lat": -34.60449, "lon": 138.59125, "country": "Australia", "toast": "Cheers"}, {"name": "Light", "lat": -34.40981, "lon": 138.84367, "country": "Australia", "toast": "Cheers"}, {"name": "Linden Park", "lat": -34.94347, "lon": 138.64728, "country": "Australia", "toast": "Cheers"}, {"name": "Little Hampton", "lat": -35.04225, "lon": 138.86423, "country": "Australia", "toast": "Cheers"}, {"name": "Lobethal", "lat": -34.90455, "lon": 138.87477, "country": "Australia", "toast": "Cheers"}, {"name": "Lockleys", "lat": -34.92588, "lon": 138.52803, "country": "Australia", "toast": "Cheers"}, {"name": "Lower Eyre Peninsula", "lat": -34.48806, "lon": 135.70114, "country": "Australia", "toast": "Cheers"}, {"name": "Lower Mitcham", "lat": -34.97731, "lon": 138.60493, "country": "Australia", "toast": "Cheers"}, {"name": "Loxton", "lat": -34.4502, "lon": 140.56908, "country": "Australia", "toast": "Cheers"}, {"name": "Loxton Waikerie", "lat": -34.48161, "lon": 140.28346, "country": "Australia", "toast": "Cheers"}, {"name": "Lyndoch", "lat": -34.60124, "lon": 138.89094, "country": "Australia", "toast": "Cheers"}, {"name": "Macclesfield", "lat": -35.17182, "lon": 138.83589, "country": "Australia", "toast": "Cheers"}, {"name": "Magill", "lat": -34.90911, "lon": 138.67498, "country": "Australia", "toast": "Cheers"}, {"name": "Maitland", "lat": -34.37386, "lon": 137.67333, "country": "Australia", "toast": "Cheers"}, {"name": "Mallala", "lat": -34.51035, "lon": 138.42783, "country": "Australia", "toast": "Cheers"}, {"name": "Malvern", "lat": -34.95915, "lon": 138.61254, "country": "Australia", "toast": "Cheers"}, {"name": "Manningham", "lat": -34.87776, "lon": 138.62206, "country": "Australia", "toast": "Cheers"}, {"name": "Mannum", "lat": -34.91529, "lon": 139.30325, "country": "Australia", "toast": "Cheers"}, {"name": "Mansfield Park", "lat": -34.85655, "lon": 138.55186, "country": "Australia", "toast": "Cheers"}, {"name": "Maralinga Tjarutja", "lat": -29.60092, "lon": 130.84442, "country": "Australia", "toast": "Cheers"}, {"name": "Marden", "lat": -34.89569, "lon": 138.6378, "country": "Australia", "toast": "Cheers"}, {"name": "Marino", "lat": -35.04468, "lon": 138.51236, "country": "Australia", "toast": "Cheers"}, {"name": "Marion", "lat": -35.01322, "lon": 138.55339, "country": "Australia", "toast": "Cheers"}, {"name": "Marleston", "lat": -34.94763, "lon": 138.55957, "country": "Australia", "toast": "Cheers"}, {"name": "Maslin Beach", "lat": -35.22595, "lon": 138.47984, "country": "Australia", "toast": "Cheers"}, {"name": "Mawson Lakes", "lat": -34.81589, "lon": 138.60809, "country": "Australia", "toast": "Cheers"}, {"name": "Maylands", "lat": -34.91128, "lon": 138.63671, "country": "Australia", "toast": "Cheers"}, {"name": "McCracken", "lat": -35.5358, "lon": 138.63121, "country": "Australia", "toast": "Cheers"}, {"name": "McLaren Flat", "lat": -35.21667, "lon": 138.58333, "country": "Australia", "toast": "Cheers"}, {"name": "McLaren Vale", "lat": -35.21895, "lon": 138.54326, "country": "Australia", "toast": "Cheers"}, {"name": "Meadows", "lat": -35.18021, "lon": 138.7625, "country": "Australia", "toast": "Cheers"}, {"name": "Medindie", "lat": -34.896, "lon": 138.605, "country": "Australia", "toast": "Cheers"}, {"name": "Melrose Park", "lat": -34.98328, "lon": 138.57541, "country": "Australia", "toast": "Cheers"}, {"name": "Meningie", "lat": -35.68637, "lon": 139.34007, "country": "Australia", "toast": "Cheers"}, {"name": "Mid Murray", "lat": -34.41566, "lon": 139.41639, "country": "Australia", "toast": "Cheers"}, {"name": "Middleton", "lat": -35.51047, "lon": 138.70377, "country": "Australia", "toast": "Cheers"}, {"name": "Mile End", "lat": -34.92654, "lon": 138.57033, "country": "Australia", "toast": "Cheers"}, {"name": "Millicent", "lat": -37.59389, "lon": 140.34947, "country": "Australia", "toast": "Cheers"}, {"name": "Millswood", "lat": -34.95505, "lon": 138.58888, "country": "Australia", "toast": "Cheers"}, {"name": "Minlaton", "lat": -34.77101, "lon": 137.59576, "country": "Australia", "toast": "Cheers"}, {"name": "Mitcham", "lat": -35.0069, "lon": 138.62218, "country": "Australia", "toast": "Cheers"}, {"name": "Mitchell Park", "lat": -35.01031, "lon": 138.56266, "country": "Australia", "toast": "Cheers"}, {"name": "Moana", "lat": -35.19394, "lon": 138.47614, "country": "Australia", "toast": "Cheers"}, {"name": "Modbury", "lat": -34.83333, "lon": 138.68333, "country": "Australia", "toast": "Cheers"}, {"name": "Modbury Heights", "lat": -34.80969, "lon": 138.68544, "country": "Australia", "toast": "Cheers"}, {"name": "Modbury North", "lat": -34.82848, "lon": 138.6739, "country": "Australia", "toast": "Cheers"}, {"name": "Monash", "lat": -34.2384, "lon": 140.56131, "country": "Australia", "toast": "Cheers"}, {"name": "Moonta Bay", "lat": -34.05, "lon": 137.56667, "country": "Australia", "toast": "Cheers"}, {"name": "Moorak", "lat": -37.86381, "lon": 140.74263, "country": "Australia", "toast": "Cheers"}, {"name": "Morphett Vale", "lat": -35.13333, "lon": 138.51667, "country": "Australia", "toast": "Cheers"}, {"name": "Morphettville", "lat": -34.98852, "lon": 138.53979, "country": "Australia", "toast": "Cheers"}, {"name": "Mount Barker", "lat": -35.06907, "lon": 138.86936, "country": "Australia", "toast": "Cheers"}, {"name": "Mount Compass", "lat": -35.34685, "lon": 138.62032, "country": "Australia", "toast": "Cheers"}, {"name": "Mount Gambier", "lat": -37.82469, "lon": 140.78191, "country": "Australia", "toast": "Cheers"}, {"name": "Mount Remarkable", "lat": -32.71813, "lon": 138.1713, "country": "Australia", "toast": "Cheers"}, {"name": "Munno Para", "lat": -34.66792, "lon": 138.70149, "country": "Australia", "toast": "Cheers"}, {"name": "Munno Para West", "lat": -34.66464, "lon": 138.68066, "country": "Australia", "toast": "Cheers"}, {"name": "Murray Bridge", "lat": -35.2002, "lon": 139.3209, "country": "Australia", "toast": "Cheers"}, {"name": "Mylor", "lat": -35.04303, "lon": 138.759, "country": "Australia", "toast": "Cheers"}, {"name": "Myrtle Bank", "lat": -34.96057, "lon": 138.63377, "country": "Australia", "toast": "Cheers"}, {"name": "Nailsworth", "lat": -34.88437, "lon": 138.60619, "country": "Australia", "toast": "Cheers"}, {"name": "Nairne", "lat": -35.0345, "lon": 138.91154, "country": "Australia", "toast": "Cheers"}, {"name": "Naracoorte", "lat": -36.95785, "lon": 140.7383, "country": "Australia", "toast": "Cheers"}, {"name": "Naracoorte and Lucindale", "lat": -36.99542, "lon": 140.52791, "country": "Australia", "toast": "Cheers"}, {"name": "Netherby", "lat": -34.97048, "lon": 138.62503, "country": "Australia", "toast": "Cheers"}, {"name": "Netley", "lat": -34.94887, "lon": 138.54983, "country": "Australia", "toast": "Cheers"}, {"name": "Newton", "lat": -34.88207, "lon": 138.68249, "country": "Australia", "toast": "Cheers"}, {"name": "Noarlunga Downs", "lat": -35.1504, "lon": 138.50395, "country": "Australia", "toast": "Cheers"}, {"name": "Normanville", "lat": -35.44623, "lon": 138.3213, "country": "Australia", "toast": "Cheers"}, {"name": "North Adelaide", "lat": -34.90733, "lon": 138.59141, "country": "Australia", "toast": "Cheers"}, {"name": "North Brighton", "lat": -35.00279, "lon": 138.52211, "country": "Australia", "toast": "Cheers"}, {"name": "North Haven", "lat": -34.78825, "lon": 138.49162, "country": "Australia", "toast": "Cheers"}, {"name": "North Plympton", "lat": -34.95769, "lon": 138.55343, "country": "Australia", "toast": "Cheers"}, {"name": "Northern Areas", "lat": -33.30074, "lon": 138.47745, "country": "Australia", "toast": "Cheers"}, {"name": "Northfield", "lat": -34.84979, "lon": 138.6255, "country": "Australia", "toast": "Cheers"}, {"name": "Northgate", "lat": -34.85784, "lon": 138.62908, "country": "Australia", "toast": "Cheers"}, {"name": "Norwood", "lat": -34.9273, "lon": 138.62849, "country": "Australia", "toast": "Cheers"}, {"name": "Norwood Payneham St Peters", "lat": -34.908, "lon": 138.63556, "country": "Australia", "toast": "Cheers"}, {"name": "Novar Gardens", "lat": -34.96626, "lon": 138.53256, "country": "Australia", "toast": "Cheers"}, {"name": "Nuriootpa", "lat": -34.46825, "lon": 138.99767, "country": "Australia", "toast": "Cheers"}, {"name": "O'Sullivan Beach", "lat": -35.11879, "lon": 138.4734, "country": "Australia", "toast": "Cheers"}, {"name": "O’Halloran Hill", "lat": -35.06667, "lon": 138.55, "country": "Australia", "toast": "Cheers"}, {"name": "Oakden", "lat": -34.8528, "lon": 138.6433, "country": "Australia", "toast": "Cheers"}, {"name": "Oaklands Park", "lat": -35.00671, "lon": 138.54457, "country": "Australia", "toast": "Cheers"}, {"name": "Old Noarlunga", "lat": -35.18209, "lon": 138.50138, "country": "Australia", "toast": "Cheers"}, {"name": "Old Reynella", "lat": -35.10353, "lon": 138.53365, "country": "Australia", "toast": "Cheers"}, {"name": "One Tree Hill", "lat": -34.7, "lon": 138.76667, "country": "Australia", "toast": "Cheers"}, {"name": "Onkaparinga", "lat": -35.1868, "lon": 138.57776, "country": "Australia", "toast": "Cheers"}, {"name": "Onkaparinga Hills", "lat": -35.13514, "lon": 138.56697, "country": "Australia", "toast": "Cheers"}, {"name": "Orroroo/Carrieton", "lat": -32.53181, "lon": 138.6647, "country": "Australia", "toast": "Cheers"}, {"name": "Osborne", "lat": -34.79804, "lon": 138.49796, "country": "Australia", "toast": "Cheers"}, {"name": "Ottoway", "lat": -34.84756, "lon": 138.53575, "country": "Australia", "toast": "Cheers"}, {"name": "Panorama", "lat": -34.9908, "lon": 138.59948, "country": "Australia", "toast": "Cheers"}, {"name": "Para Hills", "lat": -34.8121, "lon": 138.65802, "country": "Australia", "toast": "Cheers"}, {"name": "Para Hills West", "lat": -34.80474, "lon": 138.64283, "country": "Australia", "toast": "Cheers"}, {"name": "Para Vista", "lat": -34.82094, "lon": 138.66111, "country": "Australia", "toast": "Cheers"}, {"name": "Paradise", "lat": -34.87361, "lon": 138.66896, "country": "Australia", "toast": "Cheers"}, {"name": "Parafield Gardens", "lat": -34.78254, "lon": 138.61077, "country": "Australia", "toast": "Cheers"}, {"name": "Paralowie", "lat": -34.75705, "lon": 138.60819, "country": "Australia", "toast": "Cheers"}, {"name": "Paringa", "lat": -34.17644, "lon": 140.78579, "country": "Australia", "toast": "Cheers"}, {"name": "Park Holme", "lat": -34.99443, "lon": 138.55318, "country": "Australia", "toast": "Cheers"}, {"name": "Parkside", "lat": -34.94512, "lon": 138.61304, "country": "Australia", "toast": "Cheers"}, {"name": "Pasadena", "lat": -35.00274, "lon": 138.58862, "country": "Australia", "toast": "Cheers"}, {"name": "Payneham", "lat": -34.89724, "lon": 138.64064, "country": "Australia", "toast": "Cheers"}, {"name": "Payneham South", "lat": -34.90481, "lon": 138.64448, "country": "Australia", "toast": "Cheers"}, {"name": "Pennington", "lat": -34.85758, "lon": 138.5316, "country": "Australia", "toast": "Cheers"}, {"name": "Penola", "lat": -37.3752, "lon": 140.83678, "country": "Australia", "toast": "Cheers"}, {"name": "Peterborough", "lat": -32.84787, "lon": 139.02608, "country": "Australia", "toast": "Cheers"}, {"name": "Peterhead", "lat": -34.83118, "lon": 138.49892, "country": "Australia", "toast": "Cheers"}, {"name": "Playford", "lat": -34.69419, "lon": 138.6421, "country": "Australia", "toast": "Cheers"}, {"name": "Plympton", "lat": -34.962, "lon": 138.55496, "country": "Australia", "toast": "Cheers"}, {"name": "Plympton Park", "lat": -34.98071, "lon": 138.54918, "country": "Australia", "toast": "Cheers"}, {"name": "Pooraka", "lat": -34.82471, "lon": 138.62637, "country": "Australia", "toast": "Cheers"}, {"name": "Port Adelaide", "lat": -34.8462, "lon": 138.50302, "country": "Australia", "toast": "Cheers"}, {"name": "Port Adelaide Enfield", "lat": -34.84803, "lon": 138.50773, "country": "Australia", "toast": "Cheers"}, {"name": "Port Augusta", "lat": -32.5553, "lon": 137.71362, "country": "Australia", "toast": "Cheers"}, {"name": "Port Augusta West", "lat": -32.48611, "lon": 137.75833, "country": "Australia", "toast": "Cheers"}, {"name": "Port Broughton", "lat": -33.6007, "lon": 137.93597, "country": "Australia", "toast": "Cheers"}, {"name": "Port Elliot", "lat": -35.53017, "lon": 138.67922, "country": "Australia", "toast": "Cheers"}, {"name": "Port Lincoln", "lat": -34.72854, "lon": 135.85748, "country": "Australia", "toast": "Cheers"}, {"name": "Port Noarlunga", "lat": -35.14802, "lon": 138.47099, "country": "Australia", "toast": "Cheers"}, {"name": "Port Noarlunga South", "lat": -35.17404, "lon": 138.46859, "country": "Australia", "toast": "Cheers"}, {"name": "Port Pirie", "lat": -33.19176, "lon": 138.01746, "country": "Australia", "toast": "Cheers"}, {"name": "Port Pirie City and Dists", "lat": -33.36513, "lon": 138.10706, "country": "Australia", "toast": "Cheers"}, {"name": "Port Pirie South", "lat": -33.19797, "lon": 138.01446, "country": "Australia", "toast": "Cheers"}, {"name": "Port Pirie West", "lat": -33.1779, "lon": 137.9985, "country": "Australia", "toast": "Cheers"}, {"name": "Port Willunga", "lat": -35.26181, "lon": 138.46436, "country": "Australia", "toast": "Cheers"}, {"name": "Prospect", "lat": -34.88457, "lon": 138.60038, "country": "Australia", "toast": "Cheers"}, {"name": "Queenstown", "lat": -34.86091, "lon": 138.51048, "country": "Australia", "toast": "Cheers"}, {"name": "Quorn", "lat": -32.34676, "lon": 138.04176, "country": "Australia", "toast": "Cheers"}, {"name": "Redwood Park", "lat": -34.81155, "lon": 138.70695, "country": "Australia", "toast": "Cheers"}, {"name": "Renmark", "lat": -34.17702, "lon": 140.74697, "country": "Australia", "toast": "Cheers"}, {"name": "Renmark Paringa", "lat": -34.17485, "lon": 140.7486, "country": "Australia", "toast": "Cheers"}, {"name": "Renmark West", "lat": -34.16531, "lon": 140.7097, "country": "Australia", "toast": "Cheers"}, {"name": "Renown Park", "lat": -34.89174, "lon": 138.57729, "country": "Australia", "toast": "Cheers"}, {"name": "Reynella", "lat": -35.09372, "lon": 138.53082, "country": "Australia", "toast": "Cheers"}, {"name": "Reynella East", "lat": -35.09197, "lon": 138.55742, "country": "Australia", "toast": "Cheers"}, {"name": "Richmond", "lat": -34.94199, "lon": 138.56322, "country": "Australia", "toast": "Cheers"}, {"name": "Ridgehaven", "lat": -34.82126, "lon": 138.70467, "country": "Australia", "toast": "Cheers"}, {"name": "Ridleyton", "lat": -34.8928, "lon": 138.57159, "country": "Australia", "toast": "Cheers"}, {"name": "Risdon Park", "lat": -33.19661, "lon": 137.99399, "country": "Australia", "toast": "Cheers"}, {"name": "Risdon Park South", "lat": -33.21104, "lon": 137.99498, "country": "Australia", "toast": "Cheers"}, {"name": "Robe", "lat": -37.18616, "lon": 139.99003, "country": "Australia", "toast": "Cheers"}, {"name": "Rose Park", "lat": -34.93039, "lon": 138.62825, "country": "Australia", "toast": "Cheers"}, {"name": "Rosewater", "lat": -34.852, "lon": 138.52158, "country": "Australia", "toast": "Cheers"}, {"name": "Rosslyn Park", "lat": -34.92194, "lon": 138.67553, "country": "Australia", "toast": "Cheers"}, {"name": "Rostrevor", "lat": -34.89386, "lon": 138.69183, "country": "Australia", "toast": "Cheers"}, {"name": "Roxby Downs", "lat": -30.54892, "lon": 136.88377, "country": "Australia", "toast": "Cheers"}, {"name": "Royal Park", "lat": -34.87415, "lon": 138.51189, "country": "Australia", "toast": "Cheers"}, {"name": "Royston Park", "lat": -34.89757, "lon": 138.6315, "country": "Australia", "toast": "Cheers"}, {"name": "Salisbury", "lat": -34.76827, "lon": 138.60831, "country": "Australia", "toast": "Cheers"}, {"name": "Salisbury Downs", "lat": -34.76772, "lon": 138.6221, "country": "Australia", "toast": "Cheers"}, {"name": "Salisbury East", "lat": -34.79052, "lon": 138.6545, "country": "Australia", "toast": "Cheers"}, {"name": "Salisbury Heights", "lat": -34.7631, "lon": 138.67591, "country": "Australia", "toast": "Cheers"}, {"name": "Salisbury North", "lat": -34.74956, "lon": 138.6206, "country": "Australia", "toast": "Cheers"}, {"name": "Salisbury Park", "lat": -34.76155, "lon": 138.67029, "country": "Australia", "toast": "Cheers"}, {"name": "Salisbury Plain", "lat": -34.77265, "lon": 138.6633, "country": "Australia", "toast": "Cheers"}, {"name": "Seacliff", "lat": -35.03474, "lon": 138.52288, "country": "Australia", "toast": "Cheers"}, {"name": "Seacliff Park", "lat": -35.02983, "lon": 138.53129, "country": "Australia", "toast": "Cheers"}, {"name": "Seacombe Gardens", "lat": -35.02336, "lon": 138.5458, "country": "Australia", "toast": "Cheers"}, {"name": "Seacombe Heights", "lat": -35.03264, "lon": 138.54584, "country": "Australia", "toast": "Cheers"}, {"name": "Seaford", "lat": -35.1898, "lon": 138.47589, "country": "Australia", "toast": "Cheers"}, {"name": "Seaford Meadows", "lat": -35.17276, "lon": 138.4879, "country": "Australia", "toast": "Cheers"}, {"name": "Seaford Rise", "lat": -35.19296, "lon": 138.48172, "country": "Australia", "toast": "Cheers"}, {"name": "Seaton", "lat": -34.9, "lon": 138.51667, "country": "Australia", "toast": "Cheers"}, {"name": "Seaview Downs", "lat": -35.03698, "lon": 138.53796, "country": "Australia", "toast": "Cheers"}, {"name": "Sefton Park", "lat": -34.87405, "lon": 138.60343, "country": "Australia", "toast": "Cheers"}, {"name": "Sellicks Beach", "lat": -35.33869, "lon": 138.44734, "country": "Australia", "toast": "Cheers"}, {"name": "Semaphore", "lat": -34.83934, "lon": 138.48228, "country": "Australia", "toast": "Cheers"}, {"name": "Semaphore Park", "lat": -34.85072, "lon": 138.47889, "country": "Australia", "toast": "Cheers"}, {"name": "Semaphore South", "lat": -34.84975, "lon": 138.47949, "country": "Australia", "toast": "Cheers"}, {"name": "Sheidow Park", "lat": -35.07928, "lon": 138.52738, "country": "Australia", "toast": "Cheers"}, {"name": "Smithfield", "lat": -34.68333, "lon": 138.68333, "country": "Australia", "toast": "Cheers"}, {"name": "Smithfield Plains", "lat": -34.67643, "lon": 138.67785, "country": "Australia", "toast": "Cheers"}, {"name": "Solomontown", "lat": -33.1853, "lon": 138.02364, "country": "Australia", "toast": "Cheers"}, {"name": "Somerton Park", "lat": -34.99705, "lon": 138.52155, "country": "Australia", "toast": "Cheers"}, {"name": "South Brighton", "lat": -35.02765, "lon": 138.52798, "country": "Australia", "toast": "Cheers"}, {"name": "South Plympton", "lat": -34.97682, "lon": 138.55588, "country": "Australia", "toast": "Cheers"}, {"name": "Southern Mallee", "lat": -35.36733, "lon": 140.5203, "country": "Australia", "toast": "Cheers"}, {"name": "St Agnes", "lat": -34.83075, "lon": 138.71074, "country": "Australia", "toast": "Cheers"}, {"name": "St Georges", "lat": -34.952, "lon": 138.64787, "country": "Australia", "toast": "Cheers"}, {"name": "St Marys", "lat": -35.00423, "lon": 138.57983, "country": "Australia", "toast": "Cheers"}, {"name": "St Morris", "lat": -34.91107, "lon": 138.6536, "country": "Australia", "toast": "Cheers"}, {"name": "St Peters", "lat": -34.90498, "lon": 138.62255, "country": "Australia", "toast": "Cheers"}, {"name": "Stirling", "lat": -35.0022, "lon": 138.71956, "country": "Australia", "toast": "Cheers"}, {"name": "Stirling North", "lat": -32.47986, "lon": 137.83804, "country": "Australia", "toast": "Cheers"}, {"name": "Stonyfell", "lat": -34.93422, "lon": 138.67674, "country": "Australia", "toast": "Cheers"}, {"name": "Strathalbyn", "lat": -35.25979, "lon": 138.89247, "country": "Australia", "toast": "Cheers"}, {"name": "Streaky Bay", "lat": -32.73808, "lon": 134.55116, "country": "Australia", "toast": "Cheers"}, {"name": "Sturt", "lat": -35.02303, "lon": 138.55476, "country": "Australia", "toast": "Cheers"}, {"name": "Surrey Downs", "lat": -34.79951, "lon": 138.71154, "country": "Australia", "toast": "Cheers"}, {"name": "Tailem Bend", "lat": -35.25226, "lon": 139.45546, "country": "Australia", "toast": "Cheers"}, {"name": "Tanunda", "lat": -34.52336, "lon": 138.95982, "country": "Australia", "toast": "Cheers"}, {"name": "Taperoo", "lat": -34.80425, "lon": 138.49593, "country": "Australia", "toast": "Cheers"}, {"name": "Tatiara", "lat": -36.22232, "lon": 140.50748, "country": "Australia", "toast": "Cheers"}, {"name": "Tea Tree Gully", "lat": -34.80171, "lon": 138.71994, "country": "Australia", "toast": "Cheers"}, {"name": "Tennyson", "lat": -34.88601, "lon": 138.48588, "country": "Australia", "toast": "Cheers"}, {"name": "The Coorong", "lat": -35.71844, "lon": 139.70329, "country": "Australia", "toast": "Cheers"}, {"name": "Thebarton", "lat": -34.91667, "lon": 138.56667, "country": "Australia", "toast": "Cheers"}, {"name": "Toorak Gardens", "lat": -34.93478, "lon": 138.63639, "country": "Australia", "toast": "Cheers"}, {"name": "Torrens Park", "lat": -34.97607, "lon": 138.61034, "country": "Australia", "toast": "Cheers"}, {"name": "Torrensville", "lat": -34.92046, "lon": 138.56149, "country": "Australia", "toast": "Cheers"}, {"name": "Tranmere", "lat": -34.9055, "lon": 138.66212, "country": "Australia", "toast": "Cheers"}, {"name": "Trinity Gardens", "lat": -34.91438, "lon": 138.64141, "country": "Australia", "toast": "Cheers"}, {"name": "Trott Park", "lat": -35.07576, "lon": 138.54189, "country": "Australia", "toast": "Cheers"}, {"name": "Tumby Bay", "lat": -34.19697, "lon": 136.13649, "country": "Australia", "toast": "Cheers"}, {"name": "Tusmore", "lat": -34.93894, "lon": 138.65059, "country": "Australia", "toast": "Cheers"}, {"name": "Two Wells", "lat": -34.59327, "lon": 138.51367, "country": "Australia", "toast": "Cheers"}, {"name": "Underdale", "lat": -34.91803, "lon": 138.54704, "country": "Australia", "toast": "Cheers"}, {"name": "Unley", "lat": -34.95392, "lon": 138.60798, "country": "Australia", "toast": "Cheers"}, {"name": "Unley Park", "lat": -34.96388, "lon": 138.60776, "country": "Australia", "toast": "Cheers"}, {"name": "Vale Park", "lat": -34.88604, "lon": 138.62714, "country": "Australia", "toast": "Cheers"}, {"name": "Valley View", "lat": -34.83994, "lon": 138.66072, "country": "Australia", "toast": "Cheers"}, {"name": "Victor Harbor", "lat": -35.51605, "lon": 138.5461, "country": "Australia", "toast": "Cheers"}, {"name": "Virginia", "lat": -34.6663, "lon": 138.56027, "country": "Australia", "toast": "Cheers"}, {"name": "Waikerie", "lat": -34.18178, "lon": 139.98552, "country": "Australia", "toast": "Cheers"}, {"name": "Wakefield", "lat": -34.00743, "lon": 138.39455, "country": "Australia", "toast": "Cheers"}, {"name": "Walkerville", "lat": -34.89443, "lon": 138.61626, "country": "Australia", "toast": "Cheers"}, {"name": "Walkley Heights", "lat": -34.83668, "lon": 138.64368, "country": "Australia", "toast": "Cheers"}, {"name": "Wallaroo", "lat": -33.93881, "lon": 137.63365, "country": "Australia", "toast": "Cheers"}, {"name": "Warradale", "lat": -34.99717, "lon": 138.53155, "country": "Australia", "toast": "Cheers"}, {"name": "Waterloo Corner", "lat": -34.71667, "lon": 138.58333, "country": "Australia", "toast": "Cheers"}, {"name": "Wattle Park", "lat": -34.92516, "lon": 138.67501, "country": "Australia", "toast": "Cheers"}, {"name": "Wattle Range", "lat": -37.50804, "lon": 140.42114, "country": "Australia", "toast": "Cheers"}, {"name": "Wayville", "lat": -34.94468, "lon": 138.59132, "country": "Australia", "toast": "Cheers"}, {"name": "West Beach", "lat": -34.94597, "lon": 138.50935, "country": "Australia", "toast": "Cheers"}, {"name": "West Croydon", "lat": -34.89448, "lon": 138.55931, "country": "Australia", "toast": "Cheers"}, {"name": "West Hindmarsh", "lat": -34.90794, "lon": 138.56412, "country": "Australia", "toast": "Cheers"}, {"name": "West Lakes", "lat": -34.87299, "lon": 138.49458, "country": "Australia", "toast": "Cheers"}, {"name": "West Lakes Shore", "lat": -34.8601, "lon": 138.48966, "country": "Australia", "toast": "Cheers"}, {"name": "Westbourne Park", "lat": -34.97165, "lon": 138.59525, "country": "Australia", "toast": "Cheers"}, {"name": "Whyalla", "lat": -33.04569, "lon": 137.54468, "country": "Australia", "toast": "Cheers"}, {"name": "Whyalla Jenkins", "lat": -33.02205, "lon": 137.51269, "country": "Australia", "toast": "Cheers"}, {"name": "Whyalla Norrie", "lat": -33.02903, "lon": 137.53922, "country": "Australia", "toast": "Cheers"}, {"name": "Whyalla Playford", "lat": -33.02788, "lon": 137.56196, "country": "Australia", "toast": "Cheers"}, {"name": "Whyalla Stuart", "lat": -33.02493, "lon": 137.52471, "country": "Australia", "toast": "Cheers"}, {"name": "Willaston", "lat": -34.5864, "lon": 138.74124, "country": "Australia", "toast": "Cheers"}, {"name": "Williamstown", "lat": -34.6721, "lon": 138.89108, "country": "Australia", "toast": "Cheers"}, {"name": "Willunga", "lat": -35.27127, "lon": 138.55417, "country": "Australia", "toast": "Cheers"}, {"name": "Windsor Gardens", "lat": -34.86538, "lon": 138.64703, "country": "Australia", "toast": "Cheers"}, {"name": "Woodcroft", "lat": -35.10236, "lon": 138.56292, "country": "Australia", "toast": "Cheers"}, {"name": "Woodside", "lat": -34.95433, "lon": 138.87901, "country": "Australia", "toast": "Cheers"}, {"name": "Woodville", "lat": -34.877, "lon": 138.54291, "country": "Australia", "toast": "Cheers"}, {"name": "Woodville Gardens", "lat": -34.86788, "lon": 138.54798, "country": "Australia", "toast": "Cheers"}, {"name": "Woodville North", "lat": -34.872, "lon": 138.54309, "country": "Australia", "toast": "Cheers"}, {"name": "Woodville Park", "lat": -34.88696, "lon": 138.54648, "country": "Australia", "toast": "Cheers"}, {"name": "Woodville South", "lat": -34.88186, "lon": 138.53477, "country": "Australia", "toast": "Cheers"}, {"name": "Woodville West", "lat": -34.8864, "lon": 138.53095, "country": "Australia", "toast": "Cheers"}, {"name": "Wudinna", "lat": -32.97747, "lon": 135.3917, "country": "Australia", "toast": "Cheers"}, {"name": "Wynn Vale", "lat": -34.79942, "lon": 138.68714, "country": "Australia", "toast": "Cheers"}, {"name": "Yankalilla", "lat": -35.4939, "lon": 138.34225, "country": "Australia", "toast": "Cheers"}, {"name": "Yorke Peninsula", "lat": -34.70549, "lon": 137.58179, "country": "Australia", "toast": "Cheers"}]