[{"name": "Broken Hill", "lat": -31.9652, "lon": 141.4512}, {"name": "Broken Hill Municipality", "lat": -31.95, "lon": 141.43333}, {"name": "Aberfoyle Park", "lat": -35.0768, "lon": 138.59163}, {"name": "Adelaide", "lat": -34.92866, "lon": 138.59863}, {"name": "Adelaide city centre", "lat": -34.92873, "lon": 138.60334}, {"name": "Adelaide Hills", "lat": -34.90103, "lon": 138.85457}, {"name": "Albert Park", "lat": -34.87201, "lon": 138.51966}, {"name": "Alberton", "lat": -34.85925, "lon": 138.52138}, {"name": "Aldgate", "lat": -35.01667, "lon": 138.73333}, {"name": "Aldinga Beach", "lat": -35.27826, "lon": 138.45802}, {"name": "Alexandrina", "lat": -35.33769, "lon": 138.83704}, {"name": "Allenby Gardens", "lat": -34.89766, "lon": 138.55425}, {"name": "Anangu Pitjantjatjara", "lat": -27.05797, "lon": 131.37314}, {"name": "Andrews Farm", "lat": -34.67632, "lon": 138.66197}, {"name": "Angaston", "lat": -34.50129, "lon": 139.04625}, {"name": "Angle Park", "lat": -34.85989, "lon": 138.55798}, {"name": "Angle Vale", "lat": -34.64098, "lon": 138.6461}, {"name": "Ardrossan", "lat": -34.42217, "lon": 137.91907}, {"name": "Ascot Park", "lat": -34.99175, "lon": 138.55768}, {"name": "Ashford", "lat": -34.94859, "lon": 138.57457}, {"name": "Athelstone", "lat": -34.87019, "lon": 138.6999}, {"name": "Athol Park", "lat": -34.85608, "lon": 138.54282}, {"name": "Balaklava", "lat": -34.14542, "lon": 138.41148}, {"name": "Balhannah", "lat": -34.99094, "lon": 138.82565}, {"name": "Banksia Park", "lat": -34.81015, "lon": 138.7357}, {"name": "Barmera", "lat": -34.25562, "lon": 140.46147}, {"name": "Barossa", "lat": -34.61351, "lon": 138.96169}, {"name": "Barunga West", "lat": -33.79484, "lon": 137.92311}, {"name": "Beaumont", "lat": -34.94899, "lon": 138.66188}, {"name": "Bedford Park", "lat": -35.02204, "lon": 138.56815}, {"name": "Belair", "lat": -34.99766, "lon": 138.62077}, {"name": "Bellevue Heights", "lat": -35.03023, "lon": 138.58314}, {"name": "Berri", "lat": -34.28107, "lon": 140.59958}, {"name": "Berri and Barmera", "lat": -34.28788, "lon": 140.49358}, {"name": "Beulah Park", "lat": -34.91768, "lon": 138.64522}, {"name": "Beverley", "lat": -34.89512, "lon": 138.54633}, {"name": "Birdwood", "lat": -34.81826, "lon": 138.96478}, {"name": "Birkenhead", "lat": -34.83685, "lon": 138.49788}, {"name": "Black Forest", "lat": -34.96028, "lon": 138.57668}, {"name": "Blackwood", "lat": -35.02139, "lon": 138.61429}, {"name": "Blair Athol", "lat": -34.85889, "lon": 138.59656}, {"name": "Blakeview", "lat": -34.67566, "lon": 138.7101}, {"name": "Bordertown", "lat": -36.30768, "lon": 140.77167}, {"name": "Brahma Lodge", "lat": -34.77604, "lon": 138.65306}, {"name": "Bridgewater", "lat": -35.01397, "lon": 138.76648}, {"name": "Brighton", "lat": -35.0182, "lon": 138.52351}, {"name": "Broadview", "lat": -34.87589, "lon": 138.61498}, {"name": "Brompton", "lat": -34.89445, "lon": 138.5782}, {"name": "Brooklyn Park", "lat": -34.92847, "lon": 138.53631}, {"name": "Burnside", "lat": -34.93333, "lon": 138.65}, {"name": "Burra", "lat": -33.67171, "lon": 138.92835}, {"name": "Burton", "lat": -34.73339, "lon": 138.60247}, {"name": "Camden Park", "lat": -34.96857, "lon": 138.53957}, {"name": "Campbelltown", "lat": -34.88545, "lon": 138.68546}, {"name": "Ceduna", "lat": -32.14736, "lon": 133.86288}, {"name": "Charles Sturt", "lat": -34.90067, "lon": 138.53182}, {"name": "Cheltenham", "lat": -34.86788, "lon": 138.52336}, {"name": "Christie Downs", "lat": -35.12999, "lon": 138.49633}, {"name": "Christies Beach", "lat": -35.13876, "lon": 138.47232}, {"name": "City of West Torrens", "lat": -34.93133, "lon": 138.5509}, {"name": "Clapham", "lat": -34.98989, "lon": 138.60158}, {"name": "Clare", "lat": -33.83325, "lon": 138.61064}, {"name": "Clare and Gilbert Valleys", "lat": -34.01462, "lon": 138.7534}, {"name": "Clarence Gardens", "lat": -34.97539, "lon": 138.57983}, {"name": "Clarence Park", "lat": -34.96416, "lon": 138.5806}, {"name": "Clearview", "lat": -34.85735, "lon": 138.61327}, {"name": "Cleve", "lat": -33.66078, "lon": 136.28893}, {"name": "Clovelly Park", "lat": -34.99951, "lon": 138.57081}, {"name": "Collinswood", "lat": -34.8873, "lon": 138.61224}, {"name": "Colonel Light Gardens", "lat": -34.98628, "lon": 138.59746}, {"name": "Coober Pedy", "lat": -29.01415, "lon": 134.75495}, {"name": "Copper Coast", "lat": -33.94287, "lon": 137.71329}, {"name": "Coromandel Valley", "lat": -35.05, "lon": 138.61667}, {"name": "Cowandilla", "lat": -34.93221, "lon": 138.55931}, {"name": "Cowell", "lat": -33.68227, "lon": 136.92117}, {"name": "Crafers", "lat": -35.0, "lon": 138.7}, {"name": "Crafers West", "lat": -34.99136, "lon": 138.68205}, {"name": "Craigburn Farm", "lat": -35.04046, "lon": 138.6049}, {"name": "Craigmore", "lat": -34.70064, "lon": 138.70956}, {"name": "Croydon Park", "lat": -34.88028, "lon": 138.56779}, {"name": "Crystal Brook", "lat": -33.35256, "lon": 138.20955}, {"name": "Cumberland Park", "lat": -34.97204, "lon": 138.5867}, {"name": "Darlington", "lat": -35.03151, "lon": 138.55527}, {"name": "Davoren Park", "lat": -34.69063, "lon": 138.66862}, {"name": "Daw Park", "lat": -34.98975, "lon": 138.58407}, {"name": "Dernancourt", "lat": -34.86199, "lon": 138.67658}, {"name": "Dover Gardens", "lat": -35.024, "lon": 138.53695}, {"name": "Dulwich", "lat": -34.9365, "lon": 138.6272}, {"name": "Echunga", "lat": -35.10354, "lon": 138.79588}, {"name": "Eden Hills", "lat": -35.0211, "lon": 138.59567}, {"name": "Edwardstown", "lat": -34.98018, "lon": 138.5694}, {"name": "Elizabeth Downs", "lat": -34.69982, "lon": 138.69132}, {"name": "Elizabeth East", "lat": -34.72513, "lon": 138.68214}, {"name": "Elizabeth Grove", "lat": -34.73528, "lon": 138.66888}, {"name": "Elizabeth North", "lat": -34.70678, "lon": 138.67609}, {"name": "Elizabeth Park", "lat": -34.70974, "lon": 138.68604}, {"name": "Elizabeth South", "lat": -34.73182, "lon": 138.66192}, {"name": "Elizabeth Vale", "lat": -34.74857, "lon": 138.66819}, {"name": "Elliston", "lat": -33.53931, "lon": 135.09514}, {"name": "Encounter Bay", "lat": -35.57419, "lon": 138.60055}, {"name": "Enfield", "lat": -34.8526, "lon": 138.60255}, {"name": "Erindale", "lat": -34.92785, "lon": 138.66313}, {"name": "Ethelton", "lat": -34.84869, "lon": 138.49103}, {"name": "Evandale", "lat": -34.90552, "lon": 138.63542}, {"name": "Evanston", "lat": -34.61657, "lon": 138.73369}, {"name": "Evanston Gardens", "lat": -34.62323, "lon": 138.72166}, {"name": "Evanston Park", "lat": -34.62284, "lon": 138.74123}, {"name": "Everard Park", "lat": -34.95196, "lon": 138.57481}, {"name": "Exeter", "lat": -34.83994, "lon": 138.48902}, {"name": "Fairview Park", "lat": -34.79998, "lon": 138.72857}, {"name": "Felixstow", "lat": -34.88902, "lon": 138.64696}, {"name": "Ferryden Park", "lat": -34.86616, "lon": 138.5618}, {"name": "Findon", "lat": -34.9, "lon": 138.53333}, {"name": "Firle", "lat": -34.90459, "lon": 138.65319}, {"name": "Flagstaff Hill", "lat": -35.04861, "lon": 138.58285}, {"name": "Flinders Park", "lat": -34.91026, "lon": 138.54322}, {"name": "Flinders Ranges", "lat": -32.13341, "lon": 138.33882}, {"name": "Forestville", "lat": -34.94946, "lon": 138.57845}, {"name": "Franklin Harbour", "lat": -33.60164, "lon": 136.94148}, {"name": "Freeling", "lat": -34.45407, "lon": 138.80868}, {"name": "Fulham", "lat": -34.92737, "lon": 138.51368}, {"name": "Fulham Gardens", "lat": -34.91483, "lon": 138.51324}, {"name": "Fullarton", "lat": -34.951, "lon": 138.629}, {"name": "Gawler", "lat": -34.62109, "lon": 138.73228}, {"name": "Gawler East", "lat": -34.59889, "lon": 138.7632}, {"name": "Gawler South", "lat": -34.60712, "lon": 138.74445}, {"name": "Gilberton", "lat": -34.90051, "lon": 138.6126}, {"name": "Gilles Plains", "lat": -34.85, "lon": 138.65}, {"name": "Glandore", "lat": -34.96154, "lon": 138.56832}, {"name": "Glen Osmond", "lat": -34.9596, "lon": 138.64873}, {"name": "Glenalta", "lat": -35.00792, "lon": 138.62592}, {"name": "Glenelg", "lat": -34.98079, "lon": 138.515}, {"name": "Glenelg East", "lat": -34.9764, "lon": 138.52962}, {"name": "Glenelg North", "lat": -34.9679, "lon": 138.51751}, {"name": "Glenelg South", "lat": -34.98964, "lon": 138.51425}, {"name": "Glengowrie", "lat": -34.98708, "lon": 138.53674}, {"name": "Glenside", "lat": -34.94275, "lon": 138.63375}, {"name": "Glenunga", "lat": -34.95013, "lon": 138.63841}, {"name": "Glynde", "lat": -34.89605, "lon": 138.65253}, {"name": "Golden Grove", "lat": -34.78333, "lon": 138.73333}, {"name": "Goodwood", "lat": -34.95092, "lon": 138.5923}, {"name": "Goolwa", "lat": -35.50159, "lon": 138.78191}, {"name": "Goolwa Beach", "lat": -35.50474, "lon": 138.7732}, {"name": "Goyder", "lat": -33.7164, "lon": 139.01655}, {"name": "Grange", "lat": -34.90223, "lon": 138.49022}, {"name": "Grant", "lat": -37.83642, "lon": 140.63316}, {"name": "Greenacres", "lat": -34.86855, "lon": 138.628}, {"name": "Greenock", "lat": -34.457, "lon": 138.92719}, {"name": "Greenwith", "lat": -34.76565, "lon": 138.71383}, {"name": "Gulfview Heights", "lat": -34.79545, "lon": 138.66937}, {"name": "Hackham", "lat": -35.15514, "lon": 138.52509}, {"name": "Hackham West", "lat": -35.14312, "lon": 138.51442}, {"name": "Hahndorf", "lat": -35.02863, "lon": 138.80779}, {"name": "Hallett Cove", "lat": -35.07923, "lon": 138.5146}, {"name": "Hampstead Gardens", "lat": -34.87448, "lon": 138.62881}, {"name": "Happy Valley", "lat": -35.08333, "lon": 138.53333}, {"name": "Hawthorn", "lat": -34.97384, "lon": 138.60738}, {"name": "Hawthorndene", "lat": -35.02229, "lon": 138.63039}, {"name": "Hayborough", "lat": -35.53129, "lon": 138.65037}, {"name": "Hazelwood Park", "lat": -34.93947, "lon": 138.65879}, {"name": "Hectorville", "lat": -34.89157, "lon": 138.65892}, {"name": "Henley Beach", "lat": -34.92029, "lon": 138.49442}, {"name": "Henley Beach South", "lat": -34.92591, "lon": 138.49554}, {"name": "Hewett", "lat": -34.57801, "lon": 138.75242}, {"name": "Highbury", "lat": -34.85287, "lon": 138.6975}, {"name": "Highgate", "lat": -34.96177, "lon": 138.6218}, {"name": "Hillbank", "lat": -34.73588, "lon": 138.68723}, {"name": "Hillcrest", "lat": -34.86252, "lon": 138.64306}, {"name": "Hindmarsh Island", "lat": -35.51014, "lon": 138.86762}, {"name": "Holden Hill", "lat": -34.85161, "lon": 138.67232}, {"name": "Holdfast Bay", "lat": -35.00244, "lon": 138.52318}, {"name": "Hope Valley", "lat": -34.83333, "lon": 138.7}, {"name": "Hove", "lat": -35.00814, "lon": 138.5212}, {"name": "Huntfield Heights", "lat": -35.15452, "lon": 138.51417}, {"name": "Hyde Park", "lat": -34.95467, "lon": 138.60107}, {"name": "Ingle Farm", "lat": -34.83333, "lon": 138.63333}, {"name": "Jamestown", "lat": -33.20531, "lon": 138.60503}, {"name": "Joslin", "lat": -34.89967, "lon": 138.62655}, {"name": "Kadina", "lat": -33.96495, "lon": 137.71634}, {"name": "Kangaroo Island", "lat": -35.8239, "lon": 137.33392}, {"name": "Kapunda", "lat": -34.33871, "lon": 138.91644}, {"name": "Karoonda East Murray", "lat": -34.92846, "lon": 140.02484}, {"name": "Keith", "lat": -36.0991, "lon": 140.35315}, {"name": "Kensington Gardens", "lat": -34.92582, "lon": 138.66145}, {"name": "Kensington Park", "lat": -34.92022, "lon": 138.6543}, {"name": "Kent Town", "lat": -34.92155, "lon": 138.62009}, {"name": "Kersbrook", "lat": -34.78305, "lon": 138.85091}, {"name": "Kidman Park", "lat": -34.91224, "lon": 138.52693}, {"name": "Kilburn", "lat": -34.8597, "lon": 138.58559}, {"name": "Kilkenny", "lat": -34.87914, "lon": 138.5529}, {"name": "Kimba", "lat": -33.04817, "lon": 136.31797}, {"name": "Kingscote", "lat": -35.6559, "lon": 137.6393}, {"name": "Kingston", "lat": -36.64083, "lon": 140.05093}, {"name": "Kingston South East", "lat": -36.83073, "lon": 139.8522}, {"name": "Klemzig", "lat": -34.87928, "lon": 138.63562}, {"name": "Kurralta Park", "lat": -34.95142, "lon": 138.56702}, {"name": "Largs Bay", "lat": -34.82582, "lon": 138.48619}, {"name": "Largs North", "lat": -34.8205, "lon": 138.49241}, {"name": "Leabrook", "lat": -34.92976, "lon": 138.65862}, {"name": "Lewiston", "lat": -34.60449, "lon": 138.59125}, {"name": "Light", "lat": -34.40981, "lon": 138.84367}, {"name": "Linden Park", "lat": -34.94347, "lon": 138.64728}, {"name": "Little Hampton", "lat": -35.04225, "lon": 138.86423}, {"name": "Lobethal", "lat": -34.90455, "lon": 138.87477}, {"name": "Lockleys", "lat": -34.92588, "lon": 138.52803}, {"name": "Lower Eyre Peninsula", "lat": -34.48806, "lon": 135.70114}, {"name": "Lower Mitcham", "lat": -34.97731, "lon": 138.60493}, {"name": "Loxton", "lat": -34.4502, "lon": 140.56908}, {"name": "Loxton Waikerie", "lat": -34.48161, "lon": 140.28346}, {"name": "Lyndoch", "lat": -34.60124, "lon": 138.89094}, {"name": "Macclesfield", "lat": -35.17182, "lon": 138.83589}, {"name": "Magill", "lat": -34.90911, "lon": 138.67498}, {"name": "Maitland", "lat": -34.37386, "lon": 137.67333}, {"name": "Mallala", "lat": -34.51035, "lon": 138.42783}, {"name": "Malvern", "lat": -34.95915, "lon": 138.61254}, {"name": "Manningham", "lat": -34.87776, "lon": 138.62206}, {"name": "Mannum", "lat": -34.91529, "lon": 139.30325}, {"name": "Mansfield Park", "lat": -34.85655, "lon": 138.55186}, {"name": "Maralinga Tjarutja", "lat": -29.60092, "lon": 130.84442}, {"name": "Marden", "lat": -34.89569, "lon": 138.6378}, {"name": "Marino", "lat": -35.04468, "lon": 138.51236}, {"name": "Marion", "lat": -35.01322, "lon": 138.55339}, {"name": "Marleston", "lat": -34.94763, "lon": 138.55957}, {"name": "Maslin Beach", "lat": -35.22595, "lon": 138.47984}, {"name": "Mawson Lakes", "lat": -34.81589, "lon": 138.60809}, {"name": "Maylands", "lat": -34.91128, "lon": 138.63671}, {"name": "McCracken", "lat": -35.5358, "lon": 138.63121}, {"name": "McLaren Flat", "lat": -35.21667, "lon": 138.58333}, {"name": "McLaren Vale", "lat": -35.21895, "lon": 138.54326}, {"name": "Meadows", "lat": -35.18021, "lon": 138.7625}, {"name": "Medindie", "lat": -34.896, "lon": 138.605}, {"name": "Melrose Park", "lat": -34.98328, "lon": 138.57541}, {"name": "Meningie", "lat": -35.68637, "lon": 139.34007}, {"name": "Mid Murray", "lat": -34.41566, "lon": 139.41639}, {"name": "Middleton", "lat": -35.51047, "lon": 138.70377}, {"name": "Mile End", "lat": -34.92654, "lon": 138.57033}, {"name": "Millicent", "lat": -37.59389, "lon": 140.34947}, {"name": "Millswood", "lat": -34.95505, "lon": 138.58888}, {"name": "Minlaton", "lat": -34.77101, "lon": 137.59576}, {"name": "Mitcham", "lat": -35.0069, "lon": 138.62218}, {"name": "Mitchell Park", "lat": -35.01031, "lon": 138.56266}, {"name": "Moana", "lat": -35.19394, "lon": 138.47614}, {"name": "Modbury", "lat": -34.83333, "lon": 138.68333}, {"name": "Modbury Heights", "lat": -34.80969, "lon": 138.68544}, {"name": "Modbury North", "lat": -34.82848, "lon": 138.6739}, {"name": "Monash", "lat": -34.2384, "lon": 140.56131}, {"name": "Moonta Bay", "lat": -34.05, "lon": 137.56667}, {"name": "Moorak", "lat": -37.86381, "lon": 140.74263}, {"name": "Morphett Vale", "lat": -35.13333, "lon": 138.51667}, {"name": "Morphettville", "lat": -34.98852, "lon": 138.53979}, {"name": "Mount Barker", "lat": -35.06907, "lon": 138.86936}, {"name": "Mount Compass", "lat": -35.34685, "lon": 138.62032}, {"name": "Mount Gambier", "lat": -37.82469, "lon": 140.78191}, {"name": "Mount Remarkable", "lat": -32.71813, "lon": 138.1713}, {"name": "Munno Para", "lat": -34.66792, "lon": 138.70149}, {"name": "Munno Para West", "lat": -34.66464, "lon": 138.68066}, {"name": "Murray Bridge", "lat": -35.2002, "lon": 139.3209}, {"name": "Mylor", "lat": -35.04303, "lon": 138.759}, {"name": "Myrtle Bank", "lat": -34.96057, "lon": 138.63377}, {"name": "Nailsworth", "lat": -34.88437, "lon": 138.60619}, {"name": "Nairne", "lat": -35.0345, "lon": 138.91154}, {"name": "Naracoorte", "lat": -36.95785, "lon": 140.7383}, {"name": "Naracoorte and Lucindale", "lat": -36.99542, "lon": 140.52791}, {"name": "Netherby", "lat": -34.97048, "lon": 138.62503}, {"name": "Netley", "lat": -34.94887, "lon": 138.54983}, {"name": "Newton", "lat": -34.88207, "lon": 138.68249}, {"name": "Noarlunga Downs", "lat": -35.1504, "lon": 138.50395}, {"name": "Normanville", "lat": -35.44623, "lon": 138.3213}, {"name": "North Adelaide", "lat": -34.90733, "lon": 138.59141}, {"name": "North Brighton", "lat": -35.00279, "lon": 138.52211}, {"name": "North Haven", "lat": -34.78825, "lon": 138.49162}, {"name": "North Plympton", "lat": -34.95769, "lon": 138.55343}, {"name": "Northern Areas", "lat": -33.30074, "lon": 138.47745}, {"name": "Northfield", "lat": -34.84979, "lon": 138.6255}, {"name": "Northgate", "lat": -34.85784, "lon": 138.62908}, {"name": "Norwood", "lat": -34.9273, "lon": 138.62849}, {"name": "Norwood Payneham St Peters", "lat": -34.908, "lon": 138.63556}, {"name": "Novar Gardens", "lat": -34.96626, "lon": 138.53256}, {"name": "Nuriootpa", "lat": -34.46825, "lon": 138.99767}, {"name": "O'Sullivan Beach", "lat": -35.11879, "lon": 138.4734}, {"name": "O’Halloran Hill", "lat": -35.06667, "lon": 138.55}, {"name": "Oakden", "lat": -34.8528, "lon": 138.6433}, {"name": "Oaklands Park", "lat": -35.00671, "lon": 138.54457}, {"name": "Old Noarlunga", "lat": -35.18209, "lon": 138.50138}, {"name": "Old Reynella", "lat": -35.10353, "lon": 138.53365}, {"name": "One Tree Hill", "lat": -34.7, "lon": 138.76667}, {"name": "Onkaparinga", "lat": -35.1868, "lon": 138.57776}, {"name": "Onkaparinga Hills", "lat": -35.13514, "lon": 138.56697}, {"name": "Orroroo/Carrieton", "lat": -32.53181, "lon": 138.6647}, {"name": "Osborne", "lat": -34.79804, "lon": 138.49796}, {"name": "Ottoway", "lat": -34.84756, "lon": 138.53575}, {"name": "Panorama", "lat": -34.9908, "lon": 138.59948}, {"name": "Para Hills", "lat": -34.8121, "lon": 138.65802}, {"name": "Para Hills West", "lat": -34.80474, "lon": 138.64283}, {"name": "Para Vista", "lat": -34.82094, "lon": 138.66111}, {"name": "Paradise", "lat": -34.87361, "lon": 138.66896}, {"name": "Parafield Gardens", "lat": -34.78254, "lon": 138.61077}, {"name": "Paralowie", "lat": -34.75705, "lon": 138.60819}, {"name": "Paringa", "lat": -34.17644, "lon": 140.78579}, {"name": "Park Holme", "lat": -34.99443, "lon": 138.55318}, {"name": "Parkside", "lat": -34.94512, "lon": 138.61304}, {"name": "Pasadena", "lat": -35.00274, "lon": 138.58862}, {"name": "Payneham", "lat": -34.89724, "lon": 138.64064}, {"name": "Payneham South", "lat": -34.90481, "lon": 138.64448}, {"name": "Pennington", "lat": -34.85758, "lon": 138.5316}, {"name": "Penola", "lat": -37.3752, "lon": 140.83678}, {"name": "Peterborough", "lat": -32.84787, "lon": 139.02608}, {"name": "Peterhead", "lat": -34.83118, "lon": 138.49892}, {"name": "Playford", "lat": -34.69419, "lon": 138.6421}, {"name": "Plympton", "lat": -34.962, "lon": 138.55496}, {"name": "Plympton Park", "lat": -34.98071, "lon": 138.54918}, {"name": "Pooraka", "lat": -34.82471, "lon": 138.62637}, {"name": "Port Adelaide", "lat": -34.8462, "lon": 138.50302}, {"name": "Port Adelaide Enfield", "lat": -34.84803, "lon": 138.50773}, {"name": "Port Augusta", "lat": -32.5553, "lon": 137.71362}, {"name": "Port Augusta West", "lat": -32.48611, "lon": 137.75833}, {"name": "Port Broughton", "lat": -33.6007, "lon": 137.93597}, {"name": "Port Elliot", "lat": -35.53017, "lon": 138.67922}, {"name": "Port Lincoln", "lat": -34.72854, "lon": 135.85748}, {"name": "Port Noarlunga", "lat": -35.14802, "lon": 138.47099}, {"name": "Port Noarlunga South", "lat": -35.17404, "lon": 138.46859}, {"name": "Port Pirie", "lat": -33.19176, "lon": 138.01746}, {"name": "Port Pirie City and Dists", "lat": -33.36513, "lon": 138.10706}, {"name": "Port Pirie South", "lat": -33.19797, "lon": 138.01446}, {"name": "Port Pirie West", "lat": -33.1779, "lon": 137.9985}, {"name": "Port Willunga", "lat": -35.26181, "lon": 138.46436}, {"name": "Prospect", "lat": -34.88457, "lon": 138.60038}, {"name": "Queenstown", "lat": -34.86091, "lon": 138.51048}, {"name": "Quorn", "lat": -32.34676, "lon": 138.04176}, {"name": "Redwood Park", "lat": -34.81155, "lon": 138.70695}, {"name": "Renmark", "lat": -34.17702, "lon": 140.74697}, {"name": "Renmark Paringa", "lat": -34.17485, "lon": 140.7486}, {"name": "Renmark West", "lat": -34.16531, "lon": 140.7097}, {"name": "Renown Park", "lat": -34.89174, "lon": 138.57729}, {"name": "Reynella", "lat": -35.09372, "lon": 138.53082}, {"name": "Reynella East", "lat": -35.09197, "lon": 138.55742}, {"name": "Richmond", "lat": -34.94199, "lon": 138.56322}, {"name": "Ridgehaven", "lat": -34.82126, "lon": 138.70467}, {"name": "Ridleyton", "lat": -34.8928, "lon": 138.57159}, {"name": "Risdon Park", "lat": -33.19661, "lon": 137.99399}, {"name": "Risdon Park South", "lat": -33.21104, "lon": 137.99498}, {"name": "Robe", "lat": -37.18616, "lon": 139.99003}, {"name": "Rose Park", "lat": -34.93039, "lon": 138.62825}, {"name": "Rosewater", "lat": -34.852, "lon": 138.52158}, {"name": "Rosslyn Park", "lat": -34.92194, "lon": 138.67553}, {"name": "Rostrevor", "lat": -34.89386, "lon": 138.69183}, {"name": "Roxby Downs", "lat": -30.54892, "lon": 136.88377}, {"name": "Royal Park", "lat": -34.87415, "lon": 138.51189}, {"name": "Royston Park", "lat": -34.89757, "lon": 138.6315}, {"name": "Salisbury", "lat": -34.76827, "lon": 138.60831}, {"name": "Salisbury Downs", "lat": -34.76772, "lon": 138.6221}, {"name": "Salisbury East", "lat": -34.79052, "lon": 138.6545}, {"name": "Salisbury Heights", "lat": -34.7631, "lon": 138.67591}, {"name": "Salisbury North", "lat": -34.74956, "lon": 138.6206}, {"name": "Salisbury Park", "lat": -34.76155, "lon": 138.67029}, {"name": "Salisbury Plain", "lat": -34.77265, "lon": 138.6633}, {"name": "Seacliff", "lat": -35.03474, "lon": 138.52288}, {"name": "Seacliff Park", "lat": -35.02983, "lon": 138.53129}, {"name": "Seacombe Gardens", "lat": -35.02336, "lon": 138.5458}, {"name": "Seacombe Heights", "lat": -35.03264, "lon": 138.54584}, {"name": "Seaford", "lat": -35.1898, "lon": 138.47589}, {"name": "Seaford Meadows", "lat": -35.17276, "lon": 138.4879}, {"name": "Seaford Rise", "lat": -35.19296, "lon": 138.48172}, {"name": "Seaton", "lat": -34.9, "lon": 138.51667}, {"name": "Seaview Downs", "lat": -35.03698, "lon": 138.53796}, {"name": "Sefton Park", "lat": -34.87405, "lon": 138.60343}, {"name": "Sellicks Beach", "lat": -35.33869, "lon": 138.44734}, {"name": "Semaphore", "lat": -34.83934, "lon": 138.48228}, {"name": "Semaphore Park", "lat": -34.85072, "lon": 138.47889}, {"name": "Semaphore South", "lat": -34.84975, "lon": 138.47949}, {"name": "Sheidow Park", "lat": -35.07928, "lon": 138.52738}, {"name": "Smithfield", "lat": -34.68333, "lon": 138.68333}, {"name": "Smithfield Plains", "lat": -34.67643, "lon": 138.67785}, {"name": "Solomontown", "lat": -33.1853, "lon": 138.02364}, {"name": "Somerton Park", "lat": -34.99705, "lon": 138.52155}, {"name": "South Brighton", "lat": -35.02765, "lon": 138.52798}, {"name": "South Plympton", "lat": -34.97682, "lon": 138.55588}, {"name": "Southern Mallee", "lat": -35.36733, "lon": 140.5203}, {"name": "St Agnes", "lat": -34.83075, "lon": 138.71074}, {"name": "St Georges", "lat": -34.952, "lon": 138.64787}, {"name": "St Marys", "lat": -35.00423, "lon": 138.57983}, {"name": "St Morris", "lat": -34.91107, "lon": 138.6536}, {"name": "St Peters", "lat": -34.90498, "lon": 138.62255}, {"name": "Stirling", "lat": -35.0022, "lon": 138.71956}, {"name": "Stirling North", "lat": -32.47986, "lon": 137.83804}, {"name": "Stonyfell", "lat": -34.93422, "lon": 138.67674}, {"name": "Strathalbyn", "lat": -35.25979, "lon": 138.89247}, {"name": "Streaky Bay", "lat": -32.73808, "lon": 134.55116}, {"name": "Sturt", "lat": -35.02303, "lon": 138.55476}, {"name": "Surrey Downs", "lat": -34.79951, "lon": 138.71154}, {"name": "Tailem Bend", "lat": -35.25226, "lon": 139.45546}, {"name": "Tanunda", "lat": -34.52336, "lon": 138.95982}, {"name": "Taperoo", "lat": -34.80425, "lon": 138.49593}, {"name": "Tatiara", "lat": -36.22232, "lon": 140.50748}, {"name": "Tea Tree Gully", "lat": -34.80171, "lon": 138.71994}, {"name": "Tennyson", "lat": -34.88601, "lon": 138.48588}, {"name": "The Coorong", "lat": -35.71844, "lon": 139.70329}, {"name": "Thebarton", "lat": -34.91667, "lon": 138.56667}, {"name": "Toorak Gardens", "lat": -34.93478, "lon": 138.63639}, {"name": "Torrens Park", "lat": -34.97607, "lon": 138.61034}, {"name": "Torrensville", "lat": -34.92046, "lon": 138.56149}, {"name": "Tranmere", "lat": -34.9055, "lon": 138.66212}, {"name": "Trinity Gardens", "lat": -34.91438, "lon": 138.64141}, {"name": "Trott Park", "lat": -35.07576, "lon": 138.54189}, {"name": "Tumby Bay", "lat": -34.19697, "lon": 136.13649}, {"name": "Tusmore", "lat": -34.93894, "lon": 138.65059}, {"name": "Two Wells", "lat": -34.59327, "lon": 138.51367}, {"name": "Underdale", "lat": -34.91803, "lon": 138.54704}, {"name": "Unley", "lat": -34.95392, "lon": 138.60798}, {"name": "Unley Park", "lat": -34.96388, "lon": 138.60776}, {"name": "Vale Park", "lat": -34.88604, "lon": 138.62714}, {"name": "Valley View", "lat": -34.83994, "lon": 138.66072}, {"name": "Victor Harbor", "lat": -35.51605, "lon": 138.5461}, {"name": "Virginia", "lat": -34.6663, "lon": 138.56027}, {"name": "Waikerie", "lat": -34.18178, "lon": 139.98552}, {"name": "Wakefield", "lat": -34.00743, "lon": 138.39455}, {"name": "Walkerville", "lat": -34.89443, "lon": 138.61626}, {"name": "Walkley Heights", "lat": -34.83668, "lon": 138.64368}, {"name": "Wallaroo", "lat": -33.93881, "lon": 137.63365}, {"name": "Warradale", "lat": -34.99717, "lon": 138.53155}, {"name": "Waterloo Corner", "lat": -34.71667, "lon": 138.58333}, {"name": "Wattle Park", "lat": -34.92516, "lon": 138.67501}, {"name": "Wattle Range", "lat": -37.50804, "lon": 140.42114}, {"name": "Wayville", "lat": -34.94468, "lon": 138.59132}, {"name": "West Beach", "lat": -34.94597, "lon": 138.50935}, {"name": "West Croydon", "lat": -34.89448, "lon": 138.55931}, {"name": "West Hindmarsh", "lat": -34.90794, "lon": 138.56412}, {"name": "West Lakes", "lat": -34.87299, "lon": 138.49458}, {"name": "West Lakes Shore", "lat": -34.8601, "lon": 138.48966}, {"name": "Westbourne Park", "lat": -34.97165, "lon": 138.59525}, {"name": "Whyalla", "lat": -33.04569, "lon": 137.54468}, {"name": "Whyalla Jenkins", "lat": -33.02205, "lon": 137.51269}, {"name": "Whyalla Norrie", "lat": -33.02903, "lon": 137.53922}, {"name": "Whyalla Playford", "lat": -33.02788, "lon": 137.56196}, {"name": "Whyalla Stuart", "lat": -33.02493, "lon": 137.52471}, {"name": "Willaston", "lat": -34.5864, "lon": 138.74124}, {"name": "Williamstown", "lat": -34.6721, "lon": 138.89108}, {"name": "Willunga", "lat": -35.27127, "lon": 138.55417}, {"name": "Windsor Gardens", "lat": -34.86538, "lon": 138.64703}, {"name": "Woodcroft", "lat": -35.10236, "lon": 138.56292}, {"name": "Woodside", "lat": -34.95433, "lon": 138.87901}, {"name": "Woodville", "lat": -34.877, "lon": 138.54291}, {"name": "Woodville Gardens", "lat": -34.86788, "lon": 138.54798}, {"name": "Woodville North", "lat": -34.872, "lon": 138.54309}, {"name": "Woodville Park", "lat": -34.88696, "lon": 138.54648}, {"name": "Woodville South", "lat": -34.88186, "lon": 138.53477}, {"name": "Woodville West", "lat": -34.8864, "lon": 138.53095}, {"name": "Wudinna", "lat": -32.97747, "lon": 135.3917}, {"name": "Wynn Vale", "lat": -34.79942, "lon": 138.68714}, {"name": "Yankalilla", "lat": -35.4939, "lon": 138.34225}, {"name": "Yorke Peninsula", "lat": -34.70549, "lon": 137.58179}]