[{"name": "Bogale", "lat": 16.29415, "lon": 95.39742, "country": "Myanmar", "toast": "Aung bar yay"}, {"name": "Hinthada", "lat": 17.64944, "lon": 95.45705, "country": "Myanmar", "toast": "Aung bar yay"}, {"name": "Kyaiklat", "lat": 16.44502, "lon": 95.72373, "country": "Myanmar", "toast": "Aung bar yay"}, {"name": "Maubin", "lat": 16.73148, "lon": 95.65441, "country": "Myanmar", "toast": "Aung bar yay"}, {"name": "Mawlamyinegyunn", "lat": 16.3772, "lon": 95.26488, "country": "Myanmar", "toast": "Aung bar yay"}, {"name": "Myanaung", "lat": 18.28651, "lon": 95.32014, "country": "Myanmar", "toast": "Aung bar yay"}, {"name": "Nyaungdon", "lat": 17.04459, "lon": 95.63957, "country": "Myanmar", "toast": "Aung bar yay"}, {"name": "Pathein", "lat": 16.77919, "lon": 94.73212, "country": "Myanmar", "toast": "Aung bar yay"}, {"name": "Pyapon", "lat": 16.28543, "lon": 95.67882, "country": "Myanmar", "toast": "Aung bar yay"}, {"name": "Wakema", "lat": 16.60333, "lon": 95.18278, "country": "Myanmar", "toast": "Aung bar yay"}, {"name": "Bago", "lat": 17.33521, "lon": 96.48135, "country": "Myanmar", "toast": "Aung bar yay"}, {"name": "Letpandan", "lat": 17.78664, "lon": 95.75076, "country": "Myanmar", "toast": "Aung bar yay"}, {"name": "Nyaunglebin", "lat": 17.95363, "lon": 96.72247, "country": "Myanmar", "toast": "Aung bar yay"}, {"name": "Paungde", "lat": 18.49167, "lon": 95.50591, "country": "Myanmar", "toast": "Aung bar yay"}, {"name": "Pyay", "lat": 18.82464, "lon": 95.22216, "country": "Myanmar", "toast": "Aung bar yay"}, {"name": "Pyu", "lat": 18.4813, "lon": 96.43742, "country": "Myanmar", "toast": "Aung bar yay"}, {"name": "Taungoo", "lat": 18.94291, "lon": 96.43408, "country": "Myanmar", "toast": "Aung bar yay"}, {"name": "Thanatpin", "lat": 17.29136, "lon": 96.57523, "country": "Myanmar", "toast": "Aung bar yay"}, {"name": "Tharyarwady", "lat": 17.65399, "lon": 95.78813, "country": "Myanmar", "toast": "Aung bar yay"}, {"name": "Falam", "lat": 22.91335, "lon": 93.67779, "country": "Myanmar", "toast": "Aung bar yay"}, {"name": "Hakha", "lat": 22.64452, "lon": 93.61076, "country": "Myanmar", "toast": "Aung bar yay"}, {"name": "Bhamo", "lat": 24.25256, "lon": 97.23357, "country": "Myanmar", "toast": "Aung bar yay"}, {"name": "Myitkyina", "lat": 25.38327, "lon": 97.39637, "country": "Myanmar", "toast": "Aung bar yay"}, {"name": "Loikaw", "lat": 19.67798, "lon": 97.20975, "country": "Myanmar", "toast": "Aung bar yay"}, {"name": "Dellok", "lat": 16.04072, "lon": 97.91773, "country": "Myanmar", "toast": "Aung bar yay"}, {"name": "Hpa-An", "lat": 16.88953, "lon": 97.63482, "country": "Myanmar", "toast": "Aung bar yay"}, {"name": "Klonhtoug", "lat": 15.95411, "lon": 98.4325, "country": "Myanmar", "toast": "Aung bar yay"}, {"name": "Kyain Seikgyi Township", "lat": 15.82288, "lon": 98.25257, "country": "Myanmar", "toast": "Aung bar yay"}, {"name": "Mikenaungea", "lat": 15.95846, "lon": 98.42721, "country": "Myanmar", "toast": "Aung bar yay"}, {"name": "Myawadi", "lat": 16.68911, "lon": 98.50893, "country": "Myanmar", "toast": "Aung bar yay"}, {"name": "Pulei", "lat": 16.06243, "lon": 97.8828, "country": "Myanmar", "toast": "Aung bar yay"}, {"name": "Tagondaing", "lat": 16.0675, "lon": 97.90694, "country": "Myanmar", "toast": "Aung bar yay"}, {"name": "Tamoowoug", "lat": 16.03447, "lon": 97.91458, "country": "Myanmar", "toast": "Aung bar yay"}, {"name": "Chauk", "lat": 20.89921, "lon": 94.81784, "country": "Myanmar", "toast": "Aung bar yay"}, {"name": "Magway", "lat": 20.14956, "lon": 94.93246, "country": "Myanmar", "toast": "Aung bar yay"}, {"name": "Minbu", "lat": 20.18059, "lon": 94.87595, "country": "Myanmar", "toast": "Aung bar yay"}, {"name": "Myaydo", "lat": 19.36838, "lon": 95.21512, "country": "Myanmar", "toast": "Aung bar yay"}, {"name": "Pakokku", "lat": 21.33489, "lon": 95.08438, "country": "Myanmar", "toast": "Aung bar yay"}, {"name": "Taungdwingyi", "lat": 20.0065, "lon": 95.54531, "country": "Myanmar", "toast": "Aung bar yay"}, {"name": "Thayetmyo", "lat": 19.32076, "lon": 95.18272, "country": "Myanmar", "toast": "Aung bar yay"}, {"name": "Yenangyaung", "lat": 20.46504, "lon": 94.8712, "country": "Myanmar", "toast": "Aung bar yay"}, {"name": "Kyaukse", "lat": 21.6056, "lon": 96.13508, "country": "Myanmar", "toast": "Aung bar yay"}, {"name": "Mandalay", "lat": 21.97473, "lon": 96.08359, "country": "Myanmar", "toast": "Aung bar yay"}, {"name": "Meiktila", "lat": 20.87776, "lon": 95.85844, "country": "Myanmar", "toast": "Aung bar yay"}, {"name": "Mogok", "lat": 22.91766, "lon": 96.50982, "country": "Myanmar", "toast": "Aung bar yay"}, {"name": "Myingyan", "lat": 21.46002, "lon": 95.3884, "country": "Myanmar", "toast": "Aung bar yay"}, {"name": "Nyaungshwe", "lat": 20.66084, "lon": 96.93405, "country": "Myanmar", "toast": "Aung bar yay"}, {"name": "Pyin Oo Lwin", "lat": 22.03501, "lon": 96.45683, "country": "Myanmar", "toast": "Aung bar yay"}, {"name": "Yamethin", "lat": 20.43189, "lon": 96.13875, "country": "Myanmar", "toast": "Aung bar yay"}, {"name": "Kyaikkami", "lat": 16.07686, "lon": 97.56388, "country": "Myanmar", "toast": "Aung bar yay"}, {"name": "Kyaikto", "lat": 17.30858, "lon": 97.01124, "country": "Myanmar", "toast": "Aung bar yay"}, {"name": "Martaban", "lat": 16.52834, "lon": 97.6157, "country": "Myanmar", "toast": "Aung bar yay"}, {"name": "Mawlamyine", "lat": 16.49051, "lon": 97.62825, "country": "Myanmar", "toast": "Aung bar yay"}, {"name": "Mudon", "lat": 16.25624, "lon": 97.7246, "country": "Myanmar", "toast": "Aung bar yay"}, {"name": "Thaton", "lat": 16.91867, "lon": 97.37001, "country": "Myanmar", "toast": "Aung bar yay"}, {"name": "Nay Pyi Taw", "lat": 19.745, "lon": 96.12972, "country": "Myanmar", "toast": "Aung bar yay"}, {"name": "Pyinmana", "lat": 19.7381, "lon": 96.20742, "country": "Myanmar", "toast": "Aung bar yay"}, {"name": "Sittwe", "lat": 20.14624, "lon": 92.89835, "country": "Myanmar", "toast": "Aung bar yay"}, {"name": "Mawlaik", "lat": 23.64254, "lon": 94.40478, "country": "Myanmar", "toast": "Aung bar yay"}, {"name": "Monywa", "lat": 22.10856, "lon": 95.13583, "country": "Myanmar", "toast": "Aung bar yay"}, {"name": "Sagaing", "lat": 21.8787, "lon": 95.97965, "country": "Myanmar", "toast": "Aung bar yay"}, {"name": "Shwebo", "lat": 22.56925, "lon": 95.69818, "country": "Myanmar", "toast": "Aung bar yay"}, {"name": "Lashio", "lat": 22.9359, "lon": 97.7498, "country": "Myanmar", "toast": "Aung bar yay"}, {"name": "Tachilek", "lat": 20.4475, "lon": 99.88083, "country": "Myanmar", "toast": "Aung bar yay"}, {"name": "Taunggyi", "lat": 20.78919, "lon": 97.03776, "country": "Myanmar", "toast": "Aung bar yay"}, {"name": "Dawei", "lat": 14.0823, "lon": 98.19151, "country": "Myanmar", "toast": "Aung bar yay"}, {"name": "Kawthoung", "lat": 9.98238, "lon": 98.55034, "country": "Myanmar", "toast": "Aung bar yay"}, {"name": "Myeik", "lat": 12.43954, "lon": 98.60028, "country": "Myanmar", "toast": "Aung bar yay"}, {"name": "Kanbe", "lat": 16.70728, "lon": 96.00168, "country": "Myanmar", "toast": "Aung bar yay"}, {"name": "Kayan", "lat": 16.90802, "lon": 96.56037, "country": "Myanmar", "toast": "Aung bar yay"}, {"name": "Syriam", "lat": 16.76887, "lon": 96.24503, "country": "Myanmar", "toast": "Aung bar yay"}, {"name": "Thongwa", "lat": 16.75998, "lon": 96.52498, "country": "Myanmar", "toast": "Aung bar yay"}, {"name": "Twante", "lat": 16.71047, "lon": 95.92866, "country": "Myanmar", "toast": "Aung bar yay"}, {"name": "Yangon", "lat": 16.80528, "lon": 96.15611, "country": "Myanmar", "toast": "Aung bar yay"}]