[{"name": "Agarakavan", "lat": 40.33069, "lon": 44.07233}, {"name": "Aparan", "lat": 40.59323, "lon": 44.3589}, {"name": "Aragats", "lat": 40.48889, "lon": 44.3529}, {"name": "Arteni", "lat": 40.2973, "lon": 43.76672}, {"name": "Ashnak", "lat": 40.33069, "lon": 43.91669}, {"name": "Ashtarak", "lat": 40.2991, "lon": 44.36204}, {"name": "Byurakan", "lat": 40.33894, "lon": 44.27275}, {"name": "Hnaberd", "lat": 40.63721, "lon": 44.14058}, {"name": "Karbi", "lat": 40.33069, "lon": 44.37793}, {"name": "Kasakh", "lat": 40.53697, "lon": 44.41046}, {"name": "Kosh", "lat": 40.30011, "lon": 44.16107}, {"name": "Nor Yerznka", "lat": 40.30011, "lon": 44.38892}, {"name": "Oshakan", "lat": 40.26392, "lon": 44.31671}, {"name": "Sasunik", "lat": 40.25012, "lon": 44.34448}, {"name": "Shenavan", "lat": 40.48328, "lon": 44.38348}, {"name": "T’alin", "lat": 40.39172, "lon": 43.87793}, {"name": "Tsaghkahovit", "lat": 40.63428, "lon": 44.22241}, {"name": "Ushi", "lat": 40.34729, "lon": 44.37512}, {"name": "Voskevaz", "lat": 40.27508, "lon": 44.30011}, {"name": "Zovuni", "lat": 40.51111, "lon": 44.4389}, {"name": "Abovyan", "lat": 40.04851, "lon": 44.54742}, {"name": "Aralez", "lat": 39.90008, "lon": 44.6557}, {"name": "Ararat", "lat": 39.83069, "lon": 44.70569}, {"name": "Arevabuyr", "lat": 40.03607, "lon": 44.46948}, {"name": "Arevshat", "lat": 40.03963, "lon": 44.54179}, {"name": "Armash", "lat": 39.76672, "lon": 44.8111}, {"name": "Artashat", "lat": 39.96144, "lon": 44.54447}, {"name": "Avshar", "lat": 39.85553, "lon": 44.65832}, {"name": "Aygavan", "lat": 39.87327, "lon": 44.66984}, {"name": "Aygepat", "lat": 39.95845, "lon": 44.59981}, {"name": "Aygestan", "lat": 40.00293, "lon": 44.55829}, {"name": "Aygezard", "lat": 39.95436, "lon": 44.60229}, {"name": "Bardzrashen", "lat": 40.08533, "lon": 44.57957}, {"name": "Berk’anush", "lat": 39.9779, "lon": 44.51672}, {"name": "Burastan", "lat": 39.99157, "lon": 44.49681}, {"name": "Byuravan", "lat": 40.01604, "lon": 44.51889}, {"name": "Dalar", "lat": 39.97653, "lon": 44.52649}, {"name": "Darakert", "lat": 40.10553, "lon": 44.41388}, {"name": "Dashtavan", "lat": 40.1001, "lon": 44.39172}, {"name": "Dimitrov", "lat": 40.00848, "lon": 44.4917}, {"name": "Dvin", "lat": 40.01984, "lon": 44.58376}, {"name": "Getazat", "lat": 40.03844, "lon": 44.56369}, {"name": "Ghukasavan", "lat": 40.12793, "lon": 44.41669}, {"name": "Goravan", "lat": 39.90832, "lon": 44.73328}, {"name": "Hayanist", "lat": 40.12231, "lon": 44.37793}, {"name": "Hovtashat", "lat": 40.09729, "lon": 44.34448}, {"name": "Hovtashen", "lat": 40.02508, "lon": 44.45007}, {"name": "Jrahovit", "lat": 40.0473, "lon": 44.4751}, {"name": "Lusarrat", "lat": 39.87403, "lon": 44.58678}, {"name": "Marmarashen", "lat": 40.05829, "lon": 44.47229}, {"name": "Masis", "lat": 40.06542, "lon": 44.41618}, {"name": "Mrganush", "lat": 40.02857, "lon": 44.55831}, {"name": "Mrgavan", "lat": 39.97251, "lon": 44.53565}, {"name": "Mrgavet", "lat": 40.02789, "lon": 44.48328}, {"name": "Nizami", "lat": 40.09168, "lon": 44.4057}, {"name": "Norabats’", "lat": 40.10553, "lon": 44.43329}, {"name": "Noramarg", "lat": 40.02228, "lon": 44.42511}, {"name": "Norashen", "lat": 40.0013, "lon": 44.59296}, {"name": "Noyakert", "lat": 39.83069, "lon": 44.66949}, {"name": "Nshavan", "lat": 40.02787, "lon": 44.52565}, {"name": "Sayat’-Nova", "lat": 40.07507, "lon": 44.40008}, {"name": "Shahumyan", "lat": 39.94171, "lon": 44.57233}, {"name": "Sis", "lat": 40.05829, "lon": 44.38892}, {"name": "Sisavan", "lat": 39.90802, "lon": 44.66721}, {"name": "Surenavan", "lat": 39.79449, "lon": 44.77508}, {"name": "Vedi", "lat": 39.91388, "lon": 44.7251}, {"name": "Verin Artashat", "lat": 39.99731, "lon": 44.58893}, {"name": "Verin Dvin", "lat": 40.02434, "lon": 44.59038}, {"name": "Vosketap’", "lat": 39.88114, "lon": 44.64917}, {"name": "Vostan", "lat": 39.96515, "lon": 44.55937}, {"name": "Yeghegnavan", "lat": 39.83893, "lon": 44.61951}, {"name": "Zangakatun", "lat": 39.82233, "lon": 45.04169}, {"name": "Zorak", "lat": 40.09168, "lon": 44.39447}, {"name": "Aghavnatun", "lat": 40.2333, "lon": 44.25295}, {"name": "Aknalich", "lat": 40.14728, "lon": 44.16669}, {"name": "Aknashen", "lat": 40.09551, "lon": 44.28604}, {"name": "Alashkert", "lat": 40.10712, "lon": 44.05108}, {"name": "Apaga", "lat": 40.09729, "lon": 44.25293}, {"name": "Arak’s", "lat": 40.05548, "lon": 44.30292}, {"name": "Arazap’", "lat": 40.04169, "lon": 44.14728}, {"name": "Arbat’", "lat": 40.13892, "lon": 44.40289}, {"name": "Arevashat", "lat": 40.14447, "lon": 44.37512}, {"name": "Arevik", "lat": 40.1001, "lon": 44.09448}, {"name": "Argavand", "lat": 40.0611, "lon": 44.09448}, {"name": "Armavir", "lat": 40.15446, "lon": 44.03815}, {"name": "Arshaluys", "lat": 40.16949, "lon": 44.21393}, {"name": "Artimet", "lat": 40.15008, "lon": 44.26672}, {"name": "Aygek", "lat": 40.1889, "lon": 44.38611}, {"name": "Aygeshat", "lat": 40.07507, "lon": 44.0611}, {"name": "Baghramyan", "lat": 40.19452, "lon": 44.36951}, {"name": "Bambakashat", "lat": 40.10828, "lon": 44.01947}, {"name": "Dalarik", "lat": 40.2279, "lon": 43.87793}, {"name": "Doghs", "lat": 40.22229, "lon": 44.27228}, {"name": "Gay", "lat": 40.08444, "lon": 44.30528}, {"name": "Geghakert", "lat": 40.18516, "lon": 44.24331}, {"name": "Geghanist", "lat": 40.14587, "lon": 44.43048}, {"name": "Getashen", "lat": 40.04449, "lon": 43.94171}, {"name": "Gmbet’", "lat": 40.22369, "lon": 44.25409}, {"name": "Griboyedov", "lat": 40.11307, "lon": 44.27169}, {"name": "Haykashen", "lat": 40.07233, "lon": 44.30829}, {"name": "Hovtamej", "lat": 40.18329, "lon": 44.25848}, {"name": "Janfida", "lat": 40.04449, "lon": 44.02789}, {"name": "Khoronk’", "lat": 40.13611, "lon": 44.24731}, {"name": "Lenughi", "lat": 40.12512, "lon": 43.96393}, {"name": "Lukashin", "lat": 40.18726, "lon": 44.0039}, {"name": "Margara", "lat": 40.03332, "lon": 44.18048}, {"name": "Mayisyan", "lat": 40.15701, "lon": 44.09192}, {"name": "Merdzavan", "lat": 40.1814, "lon": 44.40033}, {"name": "Metsamor", "lat": 40.14447, "lon": 44.1167}, {"name": "Mrgashat", "lat": 40.13068, "lon": 44.08069}, {"name": "Musalerr", "lat": 40.1557, "lon": 44.37793}, {"name": "Myasnikyan", "lat": 40.18048, "lon": 43.91949}, {"name": "Nalbandyan", "lat": 40.0639, "lon": 43.98889}, {"name": "Nor Armavir", "lat": 40.08612, "lon": 43.99451}, {"name": "Norakert", "lat": 40.19733, "lon": 44.3501}, {"name": "P’shatavan", "lat": 40.03888, "lon": 44.06671}, {"name": "Ptghunk’", "lat": 40.16388, "lon": 44.36389}, {"name": "Sardarapat", "lat": 40.13206, "lon": 44.00969}, {"name": "Shenavan", "lat": 40.05548, "lon": 43.93048}, {"name": "Tandzut", "lat": 40.06952, "lon": 44.07788}, {"name": "Taronik", "lat": 40.13367, "lon": 44.19957}, {"name": "Tsaghkunk’", "lat": 40.18048, "lon": 44.27228}, {"name": "Tsiatsan", "lat": 40.1861, "lon": 44.26947}, {"name": "Vagharshapat", "lat": 40.16557, "lon": 44.29462}, {"name": "Voskehat", "lat": 40.14172, "lon": 44.33069}, {"name": "Yeghegnut", "lat": 40.08893, "lon": 44.16669}, {"name": "Yeraskhahun", "lat": 40.07233, "lon": 44.21948}, {"name": "Akunk’", "lat": 40.15886, "lon": 45.72568}, {"name": "Astghadzor", "lat": 40.12231, "lon": 45.35553}, {"name": "Chambarak", "lat": 40.59655, "lon": 45.35498}, {"name": "Ddmashen", "lat": 40.57028, "lon": 44.82295}, {"name": "Drakhtik", "lat": 40.56497, "lon": 45.2367}, {"name": "Dzoragyugh", "lat": 40.16957, "lon": 45.18337}, {"name": "Gagarin", "lat": 40.54026, "lon": 44.86962}, {"name": "Gandzak", "lat": 40.31472, "lon": 45.11139}, {"name": "Gavarr", "lat": 40.35398, "lon": 45.12386}, {"name": "Geghamasar", "lat": 40.31091, "lon": 45.67924}, {"name": "Geghamavan", "lat": 40.5625, "lon": 44.88892}, {"name": "Karanlukh", "lat": 40.10444, "lon": 45.28972}, {"name": "Karchaghbyur", "lat": 40.17048, "lon": 45.57785}, {"name": "Lanjaghbyur", "lat": 40.26947, "lon": 45.14447}, {"name": "Lchap’", "lat": 40.45569, "lon": 45.07507}, {"name": "Lchashen", "lat": 40.51947, "lon": 44.93048}, {"name": "Lichk’", "lat": 40.15933, "lon": 45.23467}, {"name": "Madina", "lat": 40.07637, "lon": 45.25507}, {"name": "Martuni", "lat": 40.08333, "lon": 45.25}, {"name": "Mets Masrik", "lat": 40.21948, "lon": 45.76391}, {"name": "Nerk’in Getashen", "lat": 40.14172, "lon": 45.27087}, {"name": "Noratus", "lat": 40.37793, "lon": 45.18048}, {"name": "Sarukhan", "lat": 40.29169, "lon": 45.13068}, {"name": "Sevan", "lat": 40.5473, "lon": 44.94171}, {"name": "Tsovagyugh", "lat": 40.63348, "lon": 44.96112}, {"name": "Tsovak", "lat": 40.18254, "lon": 45.63286}, {"name": "Tsovasar", "lat": 40.1382, "lon": 45.19096}, {"name": "Tsovazard", "lat": 40.4751, "lon": 45.05011}, {"name": "Tsovinar", "lat": 40.15959, "lon": 45.46786}, {"name": "Vaghashen", "lat": 40.13611, "lon": 45.33069}, {"name": "Vahan", "lat": 40.57549, "lon": 45.39769}, {"name": "Vardenik", "lat": 40.13348, "lon": 45.44311}, {"name": "Vardenis", "lat": 40.18329, "lon": 45.73053}, {"name": "Varser", "lat": 40.55548, "lon": 44.90832}, {"name": "Verin Getashen", "lat": 40.13068, "lon": 45.25293}, {"name": "Yeranos", "lat": 40.20428, "lon": 45.19209}, {"name": "Abovyan", "lat": 40.27368, "lon": 44.63348}, {"name": "Aghavnadzor", "lat": 40.58195, "lon": 44.69581}, {"name": "Akunk’", "lat": 40.26672, "lon": 44.6861}, {"name": "Aramus", "lat": 40.25095, "lon": 44.66351}, {"name": "Argel", "lat": 40.37793, "lon": 44.6001}, {"name": "Arzakan", "lat": 40.45007, "lon": 44.60828}, {"name": "Arzni", "lat": 40.2973, "lon": 44.59869}, {"name": "Balahovit", "lat": 40.25153, "lon": 44.60828}, {"name": "Bjni", "lat": 40.45831, "lon": 44.65008}, {"name": "Buzhakan", "lat": 40.45569, "lon": 44.51947}, {"name": "Byureghavan", "lat": 40.31417, "lon": 44.59333}, {"name": "Dzoraghbyur", "lat": 40.20412, "lon": 44.6415}, {"name": "Fantan", "lat": 40.39447, "lon": 44.6861}, {"name": "Garrni", "lat": 40.11931, "lon": 44.73442}, {"name": "Goght’", "lat": 40.1347, "lon": 44.78332}, {"name": "Hrazdan", "lat": 40.49748, "lon": 44.7662}, {"name": "Kaputan", "lat": 40.32507, "lon": 44.70007}, {"name": "Kotayk’", "lat": 40.27789, "lon": 44.66388}, {"name": "Lerrnanist", "lat": 40.46676, "lon": 44.79249}, {"name": "Mayakovski", "lat": 40.25293, "lon": 44.63892}, {"name": "Meghradzor", "lat": 40.60611, "lon": 44.65147}, {"name": "Mrgashen", "lat": 40.28607, "lon": 44.54449}, {"name": "Nor Geghi", "lat": 40.32233, "lon": 44.58331}, {"name": "Nor Gyugh", "lat": 40.26672, "lon": 44.65832}, {"name": "Prroshyan", "lat": 40.24731, "lon": 44.41949}, {"name": "Ptghni", "lat": 40.25568, "lon": 44.58612}, {"name": "Solak", "lat": 40.46252, "lon": 44.70709}, {"name": "Tsaghkadzor", "lat": 40.53259, "lon": 44.72025}, {"name": "Yeghvard", "lat": 40.32507, "lon": 44.48608}, {"name": "Zarr", "lat": 40.25848, "lon": 44.73328}, {"name": "Zoravan", "lat": 40.35553, "lon": 44.52228}, {"name": "Zovaber", "lat": 40.56671, "lon": 44.79028}, {"name": "Agarak", "lat": 41.01072, "lon": 44.46845}, {"name": "Akht’ala", "lat": 41.16838, "lon": 44.75811}, {"name": "Alaverdi", "lat": 41.09766, "lon": 44.67316}, {"name": "Arevashogh", "lat": 40.86039, "lon": 44.27438}, {"name": "Bazum", "lat": 40.86763, "lon": 44.43978}, {"name": "Chochkan", "lat": 41.18118, "lon": 44.83217}, {"name": "Darpas", "lat": 40.83674, "lon": 44.42494}, {"name": "Dsegh", "lat": 40.9617, "lon": 44.65003}, {"name": "Fioletovo", "lat": 40.72241, "lon": 44.71769}, {"name": "Gogaran", "lat": 40.89255, "lon": 44.19915}, {"name": "Gugark’", "lat": 40.8046, "lon": 44.54025}, {"name": "Gyulagarak", "lat": 40.96715, "lon": 44.47144}, {"name": "Jrashen", "lat": 40.79028, "lon": 44.18664}, {"name": "Lerrnants’k’", "lat": 40.79532, "lon": 44.27435}, {"name": "Lerrnapat", "lat": 40.81538, "lon": 44.39344}, {"name": "Lerrnavan", "lat": 40.7882, "lon": 44.16024}, {"name": "Lorut", "lat": 40.93717, "lon": 44.77142}, {"name": "Margahovit", "lat": 40.73381, "lon": 44.68474}, {"name": "Mets Parni", "lat": 40.83472, "lon": 44.11108}, {"name": "Metsavan", "lat": 41.20156, "lon": 44.22877}, {"name": "Norashen", "lat": 41.18886, "lon": 44.33336}, {"name": "Odzun", "lat": 41.05321, "lon": 44.61341}, {"name": "Sarahart’", "lat": 40.87043, "lon": 44.21407}, {"name": "Saramej", "lat": 40.77487, "lon": 44.2222}, {"name": "Shahumyan", "lat": 40.77482, "lon": 44.54596}, {"name": "Shirakamut", "lat": 40.86056, "lon": 44.15278}, {"name": "Shnogh", "lat": 41.14693, "lon": 44.84043}, {"name": "Spitak", "lat": 40.83221, "lon": 44.26731}, {"name": "Step’anavan", "lat": 41.00995, "lon": 44.38531}, {"name": "Tashir", "lat": 41.12072, "lon": 44.28462}, {"name": "Tsaghkaber", "lat": 40.79849, "lon": 44.10144}, {"name": "Urrut", "lat": 41.06778, "lon": 44.39628}, {"name": "Vahagni", "lat": 40.90698, "lon": 44.60873}, {"name": "Vanadzor", "lat": 40.80456, "lon": 44.4939}, {"name": "Vardablur", "lat": 40.97083, "lon": 44.50889}, {"name": "Yeghegnut", "lat": 40.90302, "lon": 44.63155}, {"name": "Akhuryan", "lat": 40.78003, "lon": 43.90027}, {"name": "Amasia", "lat": 40.95442, "lon": 43.7872}, {"name": "Anushavan", "lat": 40.65008, "lon": 43.98053}, {"name": "Arevik", "lat": 40.7417, "lon": 43.9043}, {"name": "Arevshat", "lat": 40.65345, "lon": 44.04419}, {"name": "Arrap’i", "lat": 40.78276, "lon": 43.80583}, {"name": "Azatan", "lat": 40.71959, "lon": 43.82727}, {"name": "Basen", "lat": 40.75767, "lon": 43.99274}, {"name": "Dzit’hank’ov", "lat": 40.50848, "lon": 43.82092}, {"name": "Gyumri", "lat": 40.7942, "lon": 43.84528}, {"name": "Haykavan", "lat": 40.80312, "lon": 43.75173}, {"name": "Horrom", "lat": 40.65973, "lon": 43.89032}, {"name": "Kamo", "lat": 40.82572, "lon": 43.95071}, {"name": "Lerrnakert", "lat": 40.5625, "lon": 43.9389}, {"name": "Maralik", "lat": 40.57507, "lon": 43.87231}, {"name": "Marmashen", "lat": 40.83486, "lon": 43.7779}, {"name": "Mayisyan", "lat": 40.84715, "lon": 43.83938}, {"name": "Meghrashen", "lat": 40.6723, "lon": 43.95831}, {"name": "Mets Mant’ash", "lat": 40.64376, "lon": 44.05653}, {"name": "P’ok’r Mant’ash", "lat": 40.64026, "lon": 44.04666}, {"name": "Pemzashen", "lat": 40.58612, "lon": 43.94311}, {"name": "Saratak", "lat": 40.6709, "lon": 43.87231}, {"name": "Shirak", "lat": 40.84042, "lon": 43.91582}, {"name": "Spandaryan", "lat": 40.66105, "lon": 44.01551}, {"name": "Voskehask", "lat": 40.76426, "lon": 43.77474}, {"name": "Yerazgavors", "lat": 40.69505, "lon": 43.74722}, {"name": "Agarak", "lat": 39.20684, "lon": 46.5446}, {"name": "Akner", "lat": 39.53491, "lon": 46.30732}, {"name": "Angeghakot’", "lat": 39.56952, "lon": 45.94452}, {"name": "Brrnakot’", "lat": 39.49742, "lon": 45.97241}, {"name": "Dzorastan", "lat": 39.27059, "lon": 46.3572}, {"name": "Goris", "lat": 39.51111, "lon": 46.34168}, {"name": "Hats’avan", "lat": 39.46405, "lon": 45.97047}, {"name": "Kapan", "lat": 39.20755, "lon": 46.40576}, {"name": "Khndzoresk", "lat": 39.50568, "lon": 46.4361}, {"name": "Meghri", "lat": 38.90292, "lon": 46.24458}, {"name": "Shaghat", "lat": 39.55698, "lon": 45.90727}, {"name": "Shinuhayr", "lat": 39.4367, "lon": 46.31787}, {"name": "Tegh", "lat": 39.55826, "lon": 46.48054}, {"name": "Verishen", "lat": 39.53543, "lon": 46.32063}, {"name": "Archis", "lat": 41.16351, "lon": 44.87631}, {"name": "Artsvaberd", "lat": 40.83947, "lon": 45.47033}, {"name": "Aygehovit", "lat": 40.97951, "lon": 45.25033}, {"name": "Azatamut", "lat": 40.98204, "lon": 45.18551}, {"name": "Bagratashen", "lat": 41.24358, "lon": 44.81737}, {"name": "Berd", "lat": 40.88135, "lon": 45.38901}, {"name": "Berdavan", "lat": 41.20503, "lon": 44.99967}, {"name": "Dilijan", "lat": 40.7417, "lon": 44.8501}, {"name": "Haghartsin", "lat": 40.77614, "lon": 44.96847}, {"name": "Ijevan", "lat": 40.87877, "lon": 45.14851}, {"name": "Khasht’arrak", "lat": 40.93668, "lon": 45.1821}, {"name": "Mosesgegh", "lat": 40.90534, "lon": 45.48838}, {"name": "Navur", "lat": 40.86695, "lon": 45.34179}, {"name": "Noyemberyan", "lat": 41.17244, "lon": 44.99917}, {"name": "Parravak’ar", "lat": 40.98248, "lon": 45.36696}, {"name": "Sarigyugh", "lat": 41.03531, "lon": 45.14486}, {"name": "Voskevan", "lat": 41.12081, "lon": 45.06381}, {"name": "Agarakadzor", "lat": 39.73608, "lon": 45.35553}, {"name": "Aghavnadzor", "lat": 39.78607, "lon": 45.2279}, {"name": "Areni", "lat": 39.71668, "lon": 45.18329}, {"name": "Getap’", "lat": 39.76392, "lon": 45.30829}, {"name": "Gladzor", "lat": 39.7807, "lon": 45.34729}, {"name": "Jermuk", "lat": 39.84168, "lon": 45.66949}, {"name": "Malishka", "lat": 39.74731, "lon": 45.4057}, {"name": "Rrind", "lat": 39.76111, "lon": 45.17792}, {"name": "Shatin", "lat": 39.83612, "lon": 45.30292}, {"name": "Vayk’", "lat": 39.6889, "lon": 45.46668}, {"name": "Vernashen", "lat": 39.79236, "lon": 45.36389}, {"name": "Yeghegis", "lat": 39.87231, "lon": 45.3501}, {"name": "Yeghegnadzor", "lat": 39.76389, "lon": 45.33239}, {"name": "Zarrit’ap’", "lat": 39.63892, "lon": 45.51111}, {"name": "Arabkir", "lat": 40.20549, "lon": 44.50699}, {"name": "Argavand", "lat": 40.15289, "lon": 44.4389}, {"name": "Jrashen", "lat": 40.05275, "lon": 44.51259}, {"name": "K’anak’erravan", "lat": 40.24739, "lon": 44.53511}, {"name": "Vardadzor", "lat": 40.18701, "lon": 45.19212}, {"name": "Yerevan", "lat": 40.18111, "lon": 44.51361}, {"name": "Ceyranbatan", "lat": 40.54194, "lon": 49.66073}, {"name": "Digah", "lat": 40.49257, "lon": 49.87477}, {"name": "Gyuzdek", "lat": 40.37444, "lon": 49.68194}, {"name": "Khirdalan", "lat": 40.44808, "lon": 49.75502}, {"name": "Qobu", "lat": 40.40472, "lon": 49.71306}, {"name": "Saray", "lat": 40.53299, "lon": 49.71681}, {"name": "Ağdam", "lat": 39.99096, "lon": 46.92736}, {"name": "Ağdaş", "lat": 40.64699, "lon": 47.4738}, {"name": "Agdzhabedy", "lat": 40.05015, "lon": 47.45937}, {"name": "Avşar", "lat": 39.97389, "lon": 47.42389}, {"name": "Aghstafa", "lat": 41.11889, "lon": 45.45389}, {"name": "Saloğlu", "lat": 41.27524, "lon": 45.35293}, {"name": "Vurğun", "lat": 41.09524, "lon": 45.47111}, {"name": "Aghsu", "lat": 40.57028, "lon": 48.40087}, {"name": "Astara", "lat": 38.45598, "lon": 48.87498}, {"name": "Kizhaba", "lat": 38.53461, "lon": 48.80546}, {"name": "Amirdzhan", "lat": 40.42639, "lon": 49.98361}, {"name": "Badamdar", "lat": 40.34024, "lon": 49.8045}, {"name": "Bakıxanov", "lat": 40.41894, "lon": 49.96693}, {"name": "Baku", "lat": 40.37767, "lon": 49.89201}, {"name": "Balakhani", "lat": 40.46344, "lon": 49.91893}, {"name": "Bilajari", "lat": 40.4444, "lon": 49.80566}, {"name": "Bilajer", "lat": 40.56441, "lon": 50.04002}, {"name": "Binagadi", "lat": 40.46602, "lon": 49.82783}, {"name": "Biny Selo", "lat": 40.45076, "lon": 50.08686}, {"name": "Buzovna", "lat": 40.51903, "lon": 50.11438}, {"name": "Hövsan", "lat": 40.37444, "lon": 50.08528}, {"name": "Khodzhi-Gasan", "lat": 40.41293, "lon": 49.76904}, {"name": "Korgöz", "lat": 40.30446, "lon": 49.6236}, {"name": "Lökbatan", "lat": 40.3256, "lon": 49.73376}, {"name": "Mardakan", "lat": 40.49182, "lon": 50.14292}, {"name": "Maştağa", "lat": 40.52983, "lon": 50.00616}, {"name": "Nardaran", "lat": 40.55611, "lon": 50.00556}, {"name": "Nizami Rayonu", "lat": 40.4097, "lon": 49.91926}, {"name": "Pirallahı", "lat": 40.47013, "lon": 50.32476}, {"name": "Puta", "lat": 40.29667, "lon": 49.66028}, {"name": "Qala", "lat": 40.44256, "lon": 50.16759}, {"name": "Qaraçuxur", "lat": 40.39667, "lon": 49.97361}, {"name": "Qobustan", "lat": 40.08238, "lon": 49.41205}, {"name": "Ramana", "lat": 40.44222, "lon": 49.98056}, {"name": "Sabunçu", "lat": 40.4425, "lon": 49.94806}, {"name": "Sanqaçal", "lat": 40.16991, "lon": 49.46394}, {"name": "Türkan", "lat": 40.3646, "lon": 50.22075}, {"name": "Yeni Suraxanı", "lat": 40.43026, "lon": 50.03598}, {"name": "Zabrat", "lat": 40.47746, "lon": 49.94174}, {"name": "Zyrya", "lat": 40.36613, "lon": 50.29198}, {"name": "Belokany", "lat": 41.72626, "lon": 46.40478}, {"name": "Qabaqçöl", "lat": 41.75259, "lon": 46.27052}, {"name": "Barda", "lat": 40.37577, "lon": 47.12619}, {"name": "Samuxlu", "lat": 40.50833, "lon": 47.16917}, {"name": "Beylagan", "lat": 39.77556, "lon": 47.61861}, {"name": "Birinci Aşıqlı", "lat": 39.81917, "lon": 47.67944}, {"name": "Dünyamalılar", "lat": 39.77278, "lon": 47.75889}, {"name": "Orjonikidze", "lat": 39.63571, "lon": 47.71199}, {"name": "Yuxarı Aran", "lat": 39.73361, "lon": 47.655}, {"name": "Pushkino", "lat": 39.45833, "lon": 48.545}, {"name": "Verkhniy Dashkesan", "lat": 40.49357, "lon": 46.07175}, {"name": "Yukhary-Dashkesan", "lat": 40.52393, "lon": 46.08186}, {"name": "Fizuli", "lat": 39.60094, "lon": 47.14529}, {"name": "Horadiz", "lat": 39.45015, "lon": 47.33496}, {"name": "Ganja", "lat": 40.68278, "lon": 46.36056}, {"name": "Arıqdam", "lat": 40.59313, "lon": 45.799}, {"name": "Arıqıran", "lat": 40.53971, "lon": 45.61414}, {"name": "Böyük Qaramurad", "lat": 40.57626, "lon": 45.63727}, {"name": "Kyadabek", "lat": 40.57055, "lon": 45.81229}, {"name": "Novosaratovka", "lat": 40.59811, "lon": 45.60079}, {"name": "Qobustan", "lat": 40.5336, "lon": 48.92819}, {"name": "Goranboy", "lat": 40.61028, "lon": 46.78972}, {"name": "Qızılhacılı", "lat": 40.57362, "lon": 46.849}, {"name": "Geoktschai", "lat": 40.65055, "lon": 47.74219}, {"name": "Yelenendorf", "lat": 40.58584, "lon": 46.3189}, {"name": "Hacıqabul", "lat": 40.03874, "lon": 48.94286}, {"name": "Mughan", "lat": 40.09902, "lon": 48.81886}, {"name": "Imishli", "lat": 39.87095, "lon": 48.05995}, {"name": "Basqal", "lat": 40.7552, "lon": 48.39104}, {"name": "İsmayıllı", "lat": 40.78485, "lon": 48.15141}, {"name": "Jebrail", "lat": 39.39917, "lon": 47.02835}, {"name": "Jalilabad", "lat": 39.20963, "lon": 48.49186}, {"name": "Prishibinskoye", "lat": 39.11998, "lon": 48.59383}, {"name": "Kerbakhiar", "lat": 40.10984, "lon": 46.04446}, {"name": "Vank", "lat": 40.05275, "lon": 46.54419}, {"name": "Xaçmaz", "lat": 41.46426, "lon": 48.80565}, {"name": "Xudat", "lat": 41.63052, "lon": 48.68161}, {"name": "Khankendi", "lat": 39.8266, "lon": 46.7556}, {"name": "Altıağac", "lat": 40.85785, "lon": 48.9354}, {"name": "Khyzy", "lat": 40.90847, "lon": 49.07481}, {"name": "Kilyazi", "lat": 40.87392, "lon": 49.34376}, {"name": "Şuraabad", "lat": 40.8199, "lon": 49.46774}, {"name": "Askyaran", "lat": 39.9391, "lon": 46.83161}, {"name": "Xocalı", "lat": 39.91297, "lon": 46.79028}, {"name": "Kyurdarmir", "lat": 40.34257, "lon": 48.15649}, {"name": "Laçın", "lat": 39.59881, "lon": 46.55045}, {"name": "Haftoni", "lat": 38.76325, "lon": 48.76223}, {"name": "Lankaran", "lat": 38.75428, "lon": 48.85062}, {"name": "Lerik", "lat": 38.77388, "lon": 48.41497}, {"name": "Hadrut", "lat": 39.52003, "lon": 47.0319}, {"name": "Novyy Karanlug", "lat": 39.79496, "lon": 47.1117}, {"name": "Qırmızı Bazar", "lat": 39.67669, "lon": 46.95123}, {"name": "Boradigah", "lat": 38.93013, "lon": 48.7092}, {"name": "Masally", "lat": 39.03532, "lon": 48.6654}, {"name": "Mingelchaur", "lat": 40.76395, "lon": 47.05953}, {"name": "Naftalan", "lat": 40.5061, "lon": 46.8244}, {"name": "Nakhchivan", "lat": 39.20889, "lon": 45.41222}, {"name": "Cahri", "lat": 39.34837, "lon": 45.41557}, {"name": "Çalxanqala", "lat": 39.44167, "lon": 45.28333}, {"name": "Culfa", "lat": 38.95397, "lon": 45.62961}, {"name": "Deste", "lat": 38.88375, "lon": 45.90963}, {"name": "Heydarabad", "lat": 39.72286, "lon": 44.84846}, {"name": "Julfa Rayon", "lat": 39.16667, "lon": 45.66667}, {"name": "Oğlanqala", "lat": 39.58694, "lon": 45.04611}, {"name": "Ordubad", "lat": 38.90961, "lon": 46.02274}, {"name": "Ordubad Rayon", "lat": 39.08333, "lon": 45.91667}, {"name": "Qıvraq", "lat": 39.39939, "lon": 45.11513}, {"name": "Şahbuz", "lat": 39.40722, "lon": 45.57389}, {"name": "Sedarak", "lat": 39.71427, "lon": 44.88455}, {"name": "Shahbuz Rayon", "lat": 39.41667, "lon": 45.58333}, {"name": "Sharur City", "lat": 39.55298, "lon": 44.97993}, {"name": "Sumbatan-diza", "lat": 38.94804, "lon": 45.82572}, {"name": "Tazakend", "lat": 39.15459, "lon": 45.44282}, {"name": "Yaycı", "lat": 38.94052, "lon": 45.73244}, {"name": "Neftçala", "lat": 39.3768, "lon": 49.247}, {"name": "Severo-Vostotchnyi Bank", "lat": 39.41117, "lon": 49.24792}, {"name": "Sovetabad", "lat": 39.33667, "lon": 49.21414}, {"name": "Xıllı", "lat": 39.43012, "lon": 49.10166}, {"name": "Oğuz", "lat": 41.07128, "lon": 47.46528}, {"name": "Qutqashen", "lat": 40.98247, "lon": 47.84909}, {"name": "Çinarlı", "lat": 41.46965, "lon": 46.91582}, {"name": "Qax", "lat": 41.41826, "lon": 46.92043}, {"name": "Qax İngiloy", "lat": 41.42412, "lon": 46.93859}, {"name": "Qaxbaş", "lat": 41.43254, "lon": 46.9646}, {"name": "Qazax", "lat": 41.09246, "lon": 45.36561}, {"name": "Hacıhüseynli", "lat": 41.45639, "lon": 48.64889}, {"name": "Quba", "lat": 41.36108, "lon": 48.51341}, {"name": "Qubadlı", "lat": 39.34441, "lon": 46.58183}, {"name": "Qusar", "lat": 41.4275, "lon": 48.4302}, {"name": "Samur", "lat": 41.63671, "lon": 48.43028}, {"name": "Əhmədbəyli", "lat": 39.88074, "lon": 48.39158}, {"name": "Saatlı", "lat": 39.93214, "lon": 48.36892}, {"name": "Sabirabad", "lat": 40.00869, "lon": 48.47701}, {"name": "Qaraçala", "lat": 39.81614, "lon": 48.93792}, {"name": "Salyan", "lat": 39.59621, "lon": 48.98479}, {"name": "Qarayeri", "lat": 40.78674, "lon": 46.31365}, {"name": "Qırmızı Samux", "lat": 40.93972, "lon": 46.37889}, {"name": "Samux", "lat": 40.76485, "lon": 46.40868}, {"name": "Divichibazar", "lat": 41.20117, "lon": 48.98712}, {"name": "Sheki", "lat": 41.19194, "lon": 47.17056}, {"name": "Baş Göynük", "lat": 41.32582, "lon": 47.11357}, {"name": "Shamakhi", "lat": 40.63141, "lon": 48.64137}, {"name": "Dolyar", "lat": 40.86278, "lon": 46.03493}, {"name": "Dzagam", "lat": 40.9033, "lon": 45.88564}, {"name": "Qasım İsmayılov", "lat": 40.81243, "lon": 46.25938}, {"name": "Shamkhor", "lat": 40.82975, "lon": 46.0178}, {"name": "Şirvan", "lat": 39.93778, "lon": 48.929}, {"name": "Shushi", "lat": 39.76006, "lon": 46.74989}, {"name": "Gilgilçay", "lat": 41.13932, "lon": 49.09038}, {"name": "Kyzyl-Burun", "lat": 41.07811, "lon": 49.11564}, {"name": "Corat", "lat": 40.57176, "lon": 49.70509}, {"name": "Hacı Zeynalabdin", "lat": 40.62333, "lon": 49.55861}, {"name": "Sumqayıt", "lat": 40.58972, "lon": 49.66861}, {"name": "Martakert", "lat": 40.21127, "lon": 46.82135}, {"name": "Terter", "lat": 40.34201, "lon": 46.93161}, {"name": "Çatax", "lat": 40.72622, "lon": 45.55919}, {"name": "Çobansığnaq", "lat": 40.75244, "lon": 45.70645}, {"name": "Dondar Quşçu", "lat": 40.9539, "lon": 45.61942}, {"name": "Qaraxanlı", "lat": 41.04358, "lon": 45.65527}, {"name": "Tovuz", "lat": 40.99249, "lon": 45.62838}, {"name": "Yanıqlı", "lat": 40.8432, "lon": 45.6803}, {"name": "Ujar", "lat": 40.51902, "lon": 47.65423}, {"name": "Yardımlı", "lat": 38.90771, "lon": 48.24052}, {"name": "Aran", "lat": 40.62528, "lon": 46.97556}, {"name": "Qaramanlı", "lat": 40.48135, "lon": 46.99339}, {"name": "Yevlakh", "lat": 40.61832, "lon": 47.15014}, {"name": "Mincivan", "lat": 39.03023, "lon": 46.72329}, {"name": "Zangilan", "lat": 39.08371, "lon": 46.65988}, {"name": "Aliabad", "lat": 41.4829, "lon": 46.63483}, {"name": "Faldarlı", "lat": 41.46868, "lon": 46.51579}, {"name": "Mamrux", "lat": 41.54243, "lon": 46.767}, {"name": "Qandax", "lat": 41.47546, "lon": 46.54128}, {"name": "Zaqatala", "lat": 41.6316, "lon": 46.64479}, {"name": "Zardob", "lat": 40.2184, "lon": 47.71214}, {"name": "Bich’vinta", "lat": 43.16197, "lon": 40.34102}, {"name": "Dranda", "lat": 42.87167, "lon": 41.15333}, {"name": "Gagra", "lat": 43.27858, "lon": 40.27124}, {"name": "Gali", "lat": 42.62655, "lon": 41.73808}, {"name": "Gantiadi", "lat": 43.38111, "lon": 40.07944}, {"name": "Gudauta", "lat": 43.10547, "lon": 40.62067}, {"name": "Kelasuri", "lat": 42.97877, "lon": 41.07067}, {"name": "Och’amch’ire", "lat": 42.71232, "lon": 41.46863}, {"name": "P’rimorsk’oe", "lat": 43.09236, "lon": 40.6965}, {"name": "Sokhumi", "lat": 43.00697, "lon": 40.9893}, {"name": "Stantsiya Novyy Afon", "lat": 43.08056, "lon": 40.83833}, {"name": "Tqvarch'eli", "lat": 42.84035, "lon": 41.68007}, {"name": "Akhaldaba", "lat": 41.65395, "lon": 42.15163}, {"name": "Batumi", "lat": 41.64228, "lon": 41.63392}, {"name": "Chakvi", "lat": 41.72528, "lon": 41.73278}, {"name": "Dioknisi", "lat": 41.62933, "lon": 42.39171}, {"name": "Khelvachauri", "lat": 41.58556, "lon": 41.66889}, {"name": "Khulo", "lat": 41.64353, "lon": 42.30397}, {"name": "Kobuleti", "lat": 41.82143, "lon": 41.77921}, {"name": "Makhinjauri", "lat": 41.67385, "lon": 41.69401}, {"name": "Ochkhamuri", "lat": 41.85975, "lon": 41.85309}, {"name": "Shuakhevi", "lat": 41.63, "lon": 42.19083}, {"name": "Tsikhisdziri", "lat": 41.76659, "lon": 41.75517}, {"name": "Lanchkhuti", "lat": 42.09027, "lon": 42.03239}, {"name": "Naruja", "lat": 41.90694, "lon": 41.95417}, {"name": "Ozurgeti", "lat": 41.92442, "lon": 42.00682}, {"name": "Urek’i", "lat": 41.99556, "lon": 41.77861}, {"name": "Baghdatis Munitsip’alit’et’i", "lat": 42.0, "lon": 42.9}, {"name": "Chiat’ura", "lat": 42.29806, "lon": 43.29889}, {"name": "K’alak’i Chiat’ura", "lat": 42.28333, "lon": 43.25}, {"name": "K’ulashi", "lat": 42.20405, "lon": 42.34289}, {"name": "Kharagauli", "lat": 42.02137, "lon": 43.19773}, {"name": "Khoni", "lat": 42.3226, "lon": 42.42061}, {"name": "Kutaisi", "lat": 42.26791, "lon": 42.69459}, {"name": "Sach’khere", "lat": 42.34528, "lon": 43.41944}, {"name": "Samtredia", "lat": 42.1537, "lon": 42.33517}, {"name": "Shorapani", "lat": 42.0898, "lon": 43.08662}, {"name": "Tqibuli", "lat": 42.35121, "lon": 42.99874}, {"name": "Tsqaltubo", "lat": 42.34129, "lon": 42.5976}, {"name": "Vani", "lat": 42.0832, "lon": 42.52163}, {"name": "Zestap’oni", "lat": 42.11, "lon": 43.0525}, {"name": "Akhmeta", "lat": 42.03111, "lon": 45.2075}, {"name": "Gurjaani", "lat": 41.74292, "lon": 45.80111}, {"name": "Lagodekhi", "lat": 41.82681, "lon": 46.27667}, {"name": "Qvareli", "lat": 41.95493, "lon": 45.81716}, {"name": "Sagarejo", "lat": 41.73397, "lon": 45.33149}, {"name": "Sighnaghi", "lat": 41.62046, "lon": 45.92198}, {"name": "Telavi", "lat": 41.91978, "lon": 45.47315}, {"name": "Tsinandali", "lat": 41.89315, "lon": 45.57129}, {"name": "Tsnori", "lat": 41.62088, "lon": 45.96943}, {"name": "Bolnisi", "lat": 41.44794, "lon": 44.53838}, {"name": "Bolnisis Munitsip’alit’et’i", "lat": 41.36667, "lon": 44.51667}, {"name": "Didi Lilo", "lat": 41.73611, "lon": 44.96472}, {"name": "Dmanisis Munitsip’alit’et’i", "lat": 41.35, "lon": 44.13333}, {"name": "Gardabani", "lat": 41.46054, "lon": 45.09283}, {"name": "Gardabnis Munitsip’alit’et’i", "lat": 41.61667, "lon": 45.0}, {"name": "Manglisi", "lat": 41.69698, "lon": 44.38448}, {"name": "Marneuli", "lat": 41.47588, "lon": 44.80895}, {"name": "Marneulis Munitsip’alit’et’i", "lat": 41.38333, "lon": 44.85}, {"name": "Naghvarevi", "lat": 41.35272, "lon": 44.76178}, {"name": "Rust’avi", "lat": 41.54949, "lon": 44.99323}, {"name": "T’et’ri Tsqaro", "lat": 41.54448, "lon": 44.46153}, {"name": "Tetrits’q’alos Munitsip’alit’et’i", "lat": 41.6, "lon": 44.5}, {"name": "Ts’alk’is Munitsip’alit’et’i", "lat": 41.63333, "lon": 43.96667}, {"name": "Tsalka", "lat": 41.5946, "lon": 44.08909}, {"name": "Akhalgori", "lat": 42.12597, "lon": 44.48333}, {"name": "Dzegvi", "lat": 41.84569, "lon": 44.60097}, {"name": "Gudauri", "lat": 42.47797, "lon": 44.47616}, {"name": "Java", "lat": 42.39972, "lon": 43.93667}, {"name": "Mtskheta", "lat": 41.84514, "lon": 44.71875}, {"name": "P’asanauri", "lat": 42.3506, "lon": 44.68912}, {"name": "Step’antsminda", "lat": 42.65667, "lon": 44.64333}, {"name": "Zhinvali", "lat": 42.13181, "lon": 44.77264}, {"name": "Ambrolauri", "lat": 42.52111, "lon": 43.16222}, {"name": "Ambrolauris Munitsip’alit’et’i", "lat": 42.56667, "lon": 43.1}, {"name": "Lent’ekhi", "lat": 42.78893, "lon": 42.72226}, {"name": "Oni", "lat": 42.57944, "lon": 43.4425}, {"name": "Abasha", "lat": 42.2049284, "lon": 42.2033321}, {"name": "Jvari", "lat": 42.71693, "lon": 42.052}, {"name": "Khobi", "lat": 42.31558, "lon": 41.89871}, {"name": "Kveda Chkhorots’q’u", "lat": 42.48103, "lon": 42.09661}, {"name": "Mart’vili", "lat": 42.41436, "lon": 42.37924}, {"name": "Mest’ia", "lat": 43.04581, "lon": 42.7278}, {"name": "Mest’iis Munitsip’alit’et’i", "lat": 43.05, "lon": 42.55}, {"name": "Orsant’ia", "lat": 42.46777, "lon": 41.67377}, {"name": "P’ot’i", "lat": 42.14616, "lon": 41.67197}, {"name": "Senak’i", "lat": 42.27042, "lon": 42.0675}, {"name": "Tsalenjikha", "lat": 42.60444, "lon": 42.06825}, {"name": "Zugdidi", "lat": 42.5088, "lon": 41.87088}, {"name": "Adigeni", "lat": 41.68191, "lon": 42.69867}, {"name": "Adigeni Municipality", "lat": 41.71667, "lon": 42.73333}, {"name": "Akhaldaba", "lat": 41.92945, "lon": 43.48762}, {"name": "Akhalk’alak’i", "lat": 41.40514, "lon": 43.48629}, {"name": "Akhaltsikhe", "lat": 41.63901, "lon": 42.98262}, {"name": "Akhaltsikhis Munitsip’alit’et’i", "lat": 41.63333, "lon": 43.0}, {"name": "Asp’indzis Munitsip’alit’et’i", "lat": 41.5, "lon": 43.25}, {"name": "Aspindza", "lat": 41.57389, "lon": 43.24826}, {"name": "Bakuriani", "lat": 41.74972, "lon": 43.5325}, {"name": "Borjomi", "lat": 41.85272, "lon": 43.41284}, {"name": "Ninotsminda", "lat": 41.26458, "lon": 43.59161}, {"name": "Tsaghveri", "lat": 41.80365, "lon": 43.48194}, {"name": "Vale", "lat": 41.61558, "lon": 42.87224}, {"name": "Agara", "lat": 42.03761, "lon": 43.82382}, {"name": "Gori", "lat": 41.98422, "lon": 44.11578}, {"name": "Goris Munitsip’alit’et’i", "lat": 42.06667, "lon": 44.11667}, {"name": "Kaspi", "lat": 41.9252, "lon": 44.42568}, {"name": "Khashuri", "lat": 41.99414, "lon": 43.59994}, {"name": "Surami", "lat": 42.02431, "lon": 43.55556}, {"name": "Ts’khinvali", "lat": 42.22764, "lon": 43.96861}, {"name": "Tbilisi", "lat": 41.69411, "lon": 44.83368}, {"name": "Vingt Cinq", "lat": -10.38803, "lon": 56.61795}, {"name": "Albion", "lat": -20.20814, "lon": 57.40766}, {"name": "Bambous", "lat": -20.25667, "lon": 57.40611}, {"name": "Black River", "lat": -20.320479, "lon": 57.403725}, {"name": "Cascavelle", "lat": -20.28694, "lon": 57.40722}, {"name": "Case Noyale", "lat": -20.413704, "lon": 57.369065}, {"name": "Chamarel", "lat": -20.425236, "lon": 57.391165}, {"name": "Flic en Flac", "lat": -20.27417, "lon": 57.36306}, {"name": "Grande Rivière Noire", "lat": -20.36028, "lon": 57.36611}, {"name": "Gros Cailloux", "lat": -20.20722, "lon": 57.43}, {"name": "La Gaulette", "lat": -20.429388, "lon": 57.358841}, {"name": "Le Morne", "lat": -20.444174, "lon": 57.330315}, {"name": "Petite Case Noyale", "lat": -20.39306, "lon": 57.365}, {"name": "Petite Rivière", "lat": -20.19551, "lon": 57.44592}, {"name": "Richelieu", "lat": -20.190849, "lon": 57.461299}, {"name": "Tamarin", "lat": -20.32556, "lon": 57.37056}, {"name": "Bel Air", "lat": -20.258493, "lon": 57.754987}, {"name": "Bel Air Rivière Sèche", "lat": -20.25777, "lon": 57.74976}, {"name": "Bon Accueil", "lat": -20.17083, "lon": 57.65639}, {"name": "Bramsthan", "lat": -20.212979, "lon": 57.73768}, {"name": "Brisée Verdière", "lat": -20.16389, "lon": 57.64667}, {"name": "Camp de Masque", "lat": -20.23694, "lon": 57.66333}, {"name": "Camp De Masque Pave", "lat": -20.250063, "lon": 57.67997}, {"name": "Camp Ithier", "lat": -20.21583, "lon": 57.74556}, {"name": "Centre de Flacq", "lat": -20.18972, "lon": 57.71444}, {"name": "Clémencia", "lat": -20.26389, "lon": 57.70611}, {"name": "Ecroignard", "lat": -20.22611, "lon": 57.73611}, {"name": "Grande Retraite", "lat": -20.165077, "lon": 57.694616}, {"name": "Grande Rivière Sud Est", "lat": -20.28611, "lon": 57.77583}, {"name": "Lalmatie", "lat": -20.18972, "lon": 57.66111}, {"name": "Laventure", "lat": -20.14583, "lon": 57.67667}, {"name": "Mare La Chaux", "lat": -20.19806, "lon": 57.74944}, {"name": "Medine Camp De Masque", "lat": -20.243958, "lon": 57.647035}, {"name": "Olivia", "lat": -20.28778, "lon": 57.73097}, {"name": "Poste de Flacq", "lat": -20.16306, "lon": 57.73056}, {"name": "Quatre Cocos", "lat": -20.20151, "lon": 57.77448}, {"name": "Quatre Soeurs", "lat": -20.29917, "lon": 57.77056}, {"name": "Queen Victoria", "lat": -20.22, "lon": 57.7075}, {"name": "Saint Julien", "lat": -20.22639, "lon": 57.63639}, {"name": "Sebastopol", "lat": -20.2907, "lon": 57.68779}, {"name": "Trou D'Eau Douce", "lat": -20.234586, "lon": 57.794861}, {"name": "Bambous Virieux", "lat": -20.34278, "lon": 57.7575}, {"name": "Beau Vallon", "lat": -20.41889, "lon": 57.69528}, {"name": "Bois des Amourettes", "lat": -20.36306, "lon": 57.73111}, {"name": "Camp Carol", "lat": -20.461785, "lon": 57.678456}, {"name": "Cluny", "lat": -20.36694, "lon": 57.60389}, {"name": "Grand Bel Air", "lat": -20.409124, "lon": 57.681742}, {"name": "Grand Sable", "lat": -20.31417, "lon": 57.76444}, {"name": "Mahébourg", "lat": -20.40806, "lon": 57.7}, {"name": "Mare D'Albert", "lat": -20.420195, "lon": 57.627288}, {"name": "Mare Tabac", "lat": -20.440358, "lon": 57.594215}, {"name": "New Grove", "lat": -20.40861, "lon": 57.61361}, {"name": "Nouvelle France", "lat": -20.37056, "lon": 57.56111}, {"name": "Petit Bel Air", "lat": -20.399412, "lon": 57.692959}, {"name": "Plaine Magnien", "lat": -20.42967, "lon": 57.66968}, {"name": "Riviere Des Creoles", "lat": -20.39084, "lon": 57.69696}, {"name": "Rose Belle", "lat": -20.40028, "lon": 57.59667}, {"name": "Saint Hubert", "lat": -20.36417, "lon": 57.63833}, {"name": "Seizieme Mille", "lat": -20.342111, "lon": 57.549244}, {"name": "Trois Boutiques", "lat": -20.450461, "lon": 57.646829}, {"name": "Union Park", "lat": -20.386294, "lon": 57.58068}, {"name": "Vieux Grand Port", "lat": -20.374066, "lon": 57.716077}, {"name": "Camp Thorel", "lat": -20.21472, "lon": 57.61611}, {"name": "Dagotière", "lat": -20.24476, "lon": 57.56188}, {"name": "Dubreuil", "lat": -20.30132, "lon": 57.59861}, {"name": "L'Avenir", "lat": -20.217142, "lon": 57.550482}, {"name": "L'Esperance", "lat": -20.230413, "lon": 57.595268}, {"name": "La Laura-Malenga", "lat": -20.203861, "lon": 57.549915}, {"name": "Melrose", "lat": -20.26972, "lon": 57.63194}, {"name": "Moka", "lat": -20.21889, "lon": 57.49583}, {"name": "Montagne Blanche", "lat": -20.28592, "lon": 57.657746}, {"name": "Nouvelle Découverte", "lat": -20.186, "lon": 57.590797}, {"name": "Pailles", "lat": -20.19271, "lon": 57.48826}, {"name": "Providence", "lat": -20.24472, "lon": 57.61222}, {"name": "Quartier Militaire", "lat": -20.2479, "lon": 57.59737}, {"name": "Ripailles", "lat": -20.194725, "lon": 57.580596}, {"name": "Saint Julien D'Hotman", "lat": -20.23067, "lon": 57.640378}, {"name": "Saint Pierre", "lat": -20.2175, "lon": 57.52083}, {"name": "Verdun", "lat": -20.23417, "lon": 57.55476}, {"name": "Arsenal", "lat": -20.10556, "lon": 57.53528}, {"name": "Calebasses", "lat": -20.11167, "lon": 57.55389}, {"name": "Congomah", "lat": -20.14889, "lon": 57.59083}, {"name": "Crève Coeur", "lat": -20.19111, "lon": 57.55722}, {"name": "D'Epinay", "lat": -20.130211, "lon": 57.595838}, {"name": "Fond du Sac", "lat": -20.04732, "lon": 57.584}, {"name": "Le Hochet", "lat": -20.135, "lon": 57.52111}, {"name": "Long Mountain", "lat": -20.14306, "lon": 57.56222}, {"name": "Morcellement Saint André", "lat": -20.07199, "lon": 57.56833}, {"name": "Notre Dame", "lat": -20.14056, "lon": 57.55306}, {"name": "Pamplemousses", "lat": -20.10389, "lon": 57.57028}, {"name": "Plaine des Papayes", "lat": -20.065, "lon": 57.5725}, {"name": "Pointe aux Piments", "lat": -20.06494, "lon": 57.52347}, {"name": "Terre Rouge", "lat": -20.12611, "lon": 57.52444}, {"name": "Tombeau Bay", "lat": -20.123451, "lon": 57.502184}, {"name": "Triolet", "lat": -20.0576, "lon": 57.55025}, {"name": "Trou Aux Biches", "lat": -20.031235, "lon": 57.551897}, {"name": "Ville Bague", "lat": -20.146045, "lon": 57.624149}, {"name": "Beau Bassin", "lat": -20.225387, "lon": 57.471455}, {"name": "Beau Bassin-Rose Hill", "lat": -20.23325, "lon": 57.46609}, {"name": "Belle Terre", "lat": -20.2694837, "lon": 57.5165553}, {"name": "Camp Fouqueraux", "lat": -20.2856863, "lon": 57.5171827}, {"name": "Chebel", "lat": -20.2137319, "lon": 57.4607545}, {"name": "Coromandel", "lat": -20.1952292, "lon": 57.4456534}, {"name": "Curepipe", "lat": -20.31628, "lon": 57.52594}, {"name": "Eau Coulee", "lat": -20.303366, "lon": 57.527788}, {"name": "Ebene", "lat": -20.24494, "lon": 57.49163}, {"name": "Floreal", "lat": -20.311214, "lon": 57.507263}, {"name": "Forest Side", "lat": -20.329521, "lon": 57.538981}, {"name": "Glen Park", "lat": -20.3244068, "lon": 57.4753188}, {"name": "Henrietta", "lat": -20.2720048, "lon": 57.5289887}, {"name": "Hermitage", "lat": -20.2768508, "lon": 57.5347137}, {"name": "Highlands", "lat": -20.2782748, "lon": 57.5135041}, {"name": "Midlands", "lat": -20.31907, "lon": 57.57016}, {"name": "Phoenix", "lat": -20.2858446, "lon": 57.5029186}, {"name": "Quatre Bornes", "lat": -20.26381, "lon": 57.4791}, {"name": "Rose Hill", "lat": -20.243478, "lon": 57.469855}, {"name": "Vacoas", "lat": -20.29806, "lon": 57.47833}, {"name": "Bell Village", "lat": -20.170497, "lon": 57.486184}, {"name": "Caudan Waterfront", "lat": -20.1608988, "lon": 57.4977256}, {"name": "China Town", "lat": -20.158797, "lon": 57.506789}, {"name": "Les Pailles", "lat": -20.193527, "lon": 57.489629}, {"name": "Les Salines", "lat": -20.160168, "lon": 57.489041}, {"name": "Plaine Verte", "lat": -20.15841, "lon": 57.514215}, {"name": "Pointe aux Sables", "lat": -20.171687, "lon": 57.453893}, {"name": "Port Louis", "lat": -20.16194, "lon": 57.49889}, {"name": "Soreze", "lat": -20.208561, "lon": 57.486382}, {"name": "Tour Koenig", "lat": -20.178646, "lon": 57.468721}, {"name": "Tranquebar", "lat": -20.176816, "lon": 57.511329}, {"name": "Vallée des Prêtres", "lat": -20.165147, "lon": 57.534039}, {"name": "Vallee Pitot", "lat": -20.1692, "lon": 57.51997}, {"name": "Amaury", "lat": -20.13083, "lon": 57.65917}, {"name": "Amitié Gokoola", "lat": -20.106883, "lon": 57.654728}, {"name": "Cap Malheureux", "lat": -19.98417, "lon": 57.61417}, {"name": "Cottage", "lat": -20.05972, "lon": 57.62917}, {"name": "Espérance Trébuchet", "lat": -20.06972, "lon": 57.64194}, {"name": "Goodlands", "lat": -20.03841, "lon": 57.65055}, {"name": "Grand Baie", "lat": -20.01816, "lon": 57.58015}, {"name": "Grand Gaube", "lat": -20.00639, "lon": 57.66083}, {"name": "Mapou", "lat": -20.07583, "lon": 57.60139}, {"name": "Petit Raffray", "lat": -20.02022, "lon": 57.62296}, {"name": "Piton", "lat": -20.09028, "lon": 57.63028}, {"name": "Plaines des Roches", "lat": -20.11167, "lon": 57.69083}, {"name": "Poudre D'Or", "lat": -20.061627, "lon": 57.682971}, {"name": "Poudre D'Or Hamlet", "lat": -20.081024, "lon": 57.652726}, {"name": "Rivière du Rempart", "lat": -20.10306, "lon": 57.68472}, {"name": "Roche Terre", "lat": -20.01861, "lon": 57.64472}, {"name": "Roches Noire", "lat": -20.11111, "lon": 57.71222}, {"name": "The Vale", "lat": -20.03018, "lon": 57.60219}, {"name": "Baie aux Huîtres", "lat": -19.69444, "lon": 63.40833}, {"name": "Port Mathurin", "lat": -19.68333, "lon": 63.41667}, {"name": "Cargados Carajos", "lat": -16.60329, "lon": 59.65851}, {"name": "Baie Du Cap", "lat": -20.486644, "lon": 57.378815}, {"name": "Bel Ombre", "lat": -20.501919, "lon": 57.425507}, {"name": "Benares", "lat": -20.484407, "lon": 57.588717}, {"name": "Bois Cheri", "lat": -20.426671, "lon": 57.534252}, {"name": "Britannia", "lat": -20.448655, "lon": 57.563407}, {"name": "Camp Diable", "lat": -20.46278, "lon": 57.57889}, {"name": "Chamouny", "lat": -20.48222, "lon": 57.46611}, {"name": "Chemin Grenier", "lat": -20.48722, "lon": 57.46556}, {"name": "Grand Bois", "lat": -20.41889, "lon": 57.54417}, {"name": "L'Escalier", "lat": -20.473335, "lon": 57.618676}, {"name": "La Flora", "lat": -20.410005, "lon": 57.560487}, {"name": "Rivière des Anguilles", "lat": -20.48528, "lon": 57.55083}, {"name": "Rivière Du Poste", "lat": -20.428662, "lon": 57.573681}, {"name": "Saint Aubin", "lat": -20.496, "lon": 57.55}, {"name": "Souillac", "lat": -20.51667, "lon": 57.51667}, {"name": "St Aubin", "lat": -20.494446, "lon": 57.550335}, {"name": "Surinam", "lat": -20.50972, "lon": 57.50528}, {"name": "Adam", "lat": 22.37934, "lon": 57.52718}, {"name": "Bahlā’", "lat": 22.97886, "lon": 57.3047}, {"name": "Bidbid", "lat": 23.40787, "lon": 58.1283}, {"name": "Izkī", "lat": 22.93333, "lon": 57.76667}, {"name": "Nizwá", "lat": 22.93333, "lon": 57.53333}, {"name": "Sufālat Samā’il", "lat": 23.31667, "lon": 58.01667}, {"name": "‘Ibrī", "lat": 23.22573, "lon": 56.51572}, {"name": "Yanqul", "lat": 23.58645, "lon": 56.53969}, {"name": "Al Khābūrah", "lat": 23.97144, "lon": 57.09313}, {"name": "As Suwayq", "lat": 23.84944, "lon": 57.43861}, {"name": "Liwá", "lat": 24.53077, "lon": 56.563}, {"name": "Şaḩam", "lat": 24.17222, "lon": 56.88861}, {"name": "Shināş", "lat": 24.7426, "lon": 56.46698}, {"name": "Sohar", "lat": 24.34745, "lon": 56.70937}, {"name": "Barkā’", "lat": 23.67872, "lon": 57.88605}, {"name": "Bayt al ‘Awābī", "lat": 23.30324, "lon": 57.52459}, {"name": "Oman Smart Future City", "lat": 23.6527, "lon": 57.59926}, {"name": "Rustaq", "lat": 23.39083, "lon": 57.42444}, {"name": "Al Buraymī", "lat": 24.25088, "lon": 55.79312}, {"name": "Haymā’", "lat": 19.95931, "lon": 56.27575}, {"name": "Sur", "lat": 22.56667, "lon": 59.52889}, {"name": "Şalālah", "lat": 17.01505, "lon": 54.09237}, {"name": "Dib Dibba", "lat": 26.19778, "lon": 56.25778}, {"name": "Khasab", "lat": 26.17993, "lon": 56.24774}, {"name": "Madḩā’ al Jadīdah", "lat": 25.28345, "lon": 56.3328}, {"name": "Bawshar", "lat": 23.57769, "lon": 58.39982}, {"name": "Muscat", "lat": 23.58413, "lon": 58.40778}, {"name": "Seeb", "lat": 23.67027, "lon": 58.18911}, {"name": "Bras-Panon", "lat": -21.0315816, "lon": 55.5441634}, {"name": "La Plaine-des-Palmistes", "lat": -21.1529507, "lon": 55.5618014}, {"name": "Saint-André", "lat": -20.9567727, "lon": 55.5548674}, {"name": "Saint-Benoît", "lat": -21.0885946, "lon": 55.4664076}, {"name": "Sainte-Rose", "lat": -21.1778289, "lon": 55.6593981}, {"name": "Salazie", "lat": -21.0524097, "lon": 55.4321337}, {"name": "Saint-Denis", "lat": -20.9645672, "lon": 55.418353}, {"name": "Sainte-Marie", "lat": -20.9462842, "lon": 55.4409587}, {"name": "Sainte-Suzanne", "lat": -20.9506379, "lon": 55.5111475}, {"name": "La Possession", "lat": -20.9966715, "lon": 55.3094196}, {"name": "Le Port", "lat": -20.9459981, "lon": 55.2625839}, {"name": "Les Trois-Bassins", "lat": -21.1138065, "lon": 55.2553467}, {"name": "Saint-Leu", "lat": -21.1815374, "lon": 55.2607553}, {"name": "Saint-Paul", "lat": -21.0365634, "lon": 55.1754223}, {"name": "Cilaos", "lat": -21.1402675, "lon": 55.3731415}, {"name": "Entre-Deux", "lat": -21.2107387, "lon": 55.4112594}, {"name": "L'Étang-Salé", "lat": -21.2347408, "lon": 55.3163686}, {"name": "Le Tampon", "lat": -21.2250092, "lon": 55.4876541}, {"name": "Les Avirons", "lat": -21.2018683, "lon": 55.3216609}, {"name": "Petite-Île", "lat": -21.3329678, "lon": 55.5294205}, {"name": "Saint-Joseph", "lat": -21.2921186, "lon": 55.5616173}, {"name": "Saint-Louis", "lat": -21.2254829, "lon": 55.340044}, {"name": "Saint-Philippe", "lat": -21.308375, "lon": 55.6611834}, {"name": "Saint-Pierre", "lat": -21.3089303, "lon": 55.3395313}, {"name": "Aksarayskiy", "lat": 46.79244, "lon": 48.01188}, {"name": "Astrakhan", "lat": 46.34968, "lon": 48.04076}, {"name": "Chyorny Yar", "lat": 48.06242, "lon": 46.10911}, {"name": "Ikryanoye", "lat": 46.09323, "lon": 47.73078}, {"name": "Kapustin Yar", "lat": 48.58175, "lon": 45.74481}, {"name": "Karalat", "lat": 45.91555, "lon": 48.30683}, {"name": "Kirovskiy", "lat": 45.84639, "lon": 48.12472}, {"name": "Krasnyy Yar", "lat": 46.53314, "lon": 48.34559}, {"name": "Krasnyye Barrikady", "lat": 46.2045, "lon": 47.8535}, {"name": "Liman", "lat": 45.78457, "lon": 47.22405}, {"name": "Marfino", "lat": 46.40852, "lon": 48.71398}, {"name": "Mumra", "lat": 45.77251, "lon": 47.65398}, {"name": "Narimanov", "lat": 46.6927, "lon": 47.8498}, {"name": "Nizhniy Baskunchak", "lat": 48.21978, "lon": 46.83105}, {"name": "Oranzherei", "lat": 45.84756, "lon": 47.56635}, {"name": "Poldnëvoye", "lat": 45.85568, "lon": 47.95241}, {"name": "Sasykoli", "lat": 47.55153, "lon": 46.99679}, {"name": "Sizyy Bugor", "lat": 46.21343, "lon": 48.50462}, {"name": "Solyanka", "lat": 46.3889, "lon": 48.01755}, {"name": "Starokucherganovka", "lat": 46.32476, "lon": 47.9555}, {"name": "Tambovka", "lat": 47.31528, "lon": 47.37773}, {"name": "Trudfront", "lat": 45.9346, "lon": 47.66929}, {"name": "Tumak", "lat": 46.23436, "lon": 48.50627}, {"name": "Uvary", "lat": 46.04575, "lon": 48.03558}, {"name": "Verkhniy Baskunchak", "lat": 48.22564, "lon": 46.72169}, {"name": "Volgo-Kaspiyskiy", "lat": 46.20306, "lon": 47.91869}, {"name": "Volodarskiy", "lat": 46.40134, "lon": 48.54093}, {"name": "Yaksatovo", "lat": 46.24343, "lon": 48.01514}, {"name": "Yandyki", "lat": 45.76913, "lon": 47.12577}, {"name": "Yenotayevka", "lat": 47.24559, "lon": 47.02814}, {"name": "Zenzeli", "lat": 45.92407, "lon": 47.04739}, {"name": "Znamensk", "lat": 48.5842, "lon": 45.7338}, {"name": "Bakhilovo", "lat": 53.4011, "lon": 49.636}, {"name": "Balasheyka", "lat": 53.2841, "lon": 48.0851}, {"name": "Berëza", "lat": 53.51833, "lon": 50.13967}, {"name": "Bezenchuk", "lat": 52.982, "lon": 49.4333}, {"name": "Chapayevsk", "lat": 52.9771, "lon": 49.7086}, {"name": "Chelno-Vershiny", "lat": 54.4148, "lon": 51.08594}, {"name": "Dubovyy Umët", "lat": 52.97629, "lon": 50.28569}, {"name": "Georgiyevka", "lat": 53.27438, "lon": 50.99848}, {"name": "Kamyshla", "lat": 54.11693, "lon": 52.14262}, {"name": "Khryashchevka", "lat": 53.8119, "lon": 49.0916}, {"name": "Khvorostyanka", "lat": 52.6096, "lon": 48.9597}, {"name": "Klyavlino", "lat": 54.26491, "lon": 52.02674}, {"name": "Koshki", "lat": 54.20914, "lon": 50.46767}, {"name": "Krasnoarmeyskoye", "lat": 52.71994, "lon": 50.03122}, {"name": "Krasnyy Yar", "lat": 53.49988, "lon": 50.39312}, {"name": "Krotovka", "lat": 53.2858, "lon": 51.1686}, {"name": "Kurumoch", "lat": 53.48963, "lon": 50.03748}, {"name": "Mayskoye", "lat": 52.27244, "lon": 50.03383}, {"name": "Mezhdurechensk", "lat": 53.2665, "lon": 49.1116}, {"name": "Mirnyy", "lat": 53.50642, "lon": 50.27658}, {"name": "Neftegorsk", "lat": 52.802, "lon": 51.166}, {"name": "Novosemeykino", "lat": 53.37056, "lon": 50.35428}, {"name": "Novyy Buyan", "lat": 53.68611, "lon": 50.04691}, {"name": "Obsharovka", "lat": 53.125, "lon": 48.85306}, {"name": "Osinki", "lat": 52.8432, "lon": 49.5132}, {"name": "Otradnyy", "lat": 53.37596, "lon": 51.3452}, {"name": "Perevoloki", "lat": 53.2458, "lon": 49.1793}, {"name": "Petra-Dubrava", "lat": 53.29613, "lon": 50.36554}, {"name": "Podsolnechnoye", "lat": 53.15, "lon": 52.0191}, {"name": "Podstepki", "lat": 53.5151, "lon": 49.1355}, {"name": "Pokhvistnevo", "lat": 53.65237, "lon": 52.12738}, {"name": "Povolzhskiy", "lat": 53.5854, "lon": 49.7629}, {"name": "Pribrezhnyy", "lat": 53.48662, "lon": 49.85836}, {"name": "Roschinskiy", "lat": 53.05111, "lon": 50.49667}, {"name": "Rozhdestveno", "lat": 53.23745, "lon": 50.05971}, {"name": "Sernovodsk", "lat": 53.92293, "lon": 51.25704}, {"name": "Smyshlyayevka", "lat": 53.23913, "lon": 50.39072}, {"name": "Spiridonovka", "lat": 53.09248, "lon": 50.64621}, {"name": "Sukhodol", "lat": 53.90063, "lon": 51.2117}, {"name": "Surgut", "lat": 53.92498, "lon": 51.20348}, {"name": "Syzran’", "lat": 53.1585, "lon": 48.4681}, {"name": "Tol’yatti", "lat": 53.5303, "lon": 49.3461}, {"name": "Utevka", "lat": 52.9035, "lon": 50.9495}, {"name": "Varlamovo", "lat": 53.1897, "lon": 48.4226}, {"name": "Volzhskiy", "lat": 53.43058, "lon": 50.119}, {"name": "Yelkhovka", "lat": 53.86668, "lon": 50.28319}, {"name": "Zhiguli", "lat": 53.3579, "lon": 49.301}, {"name": "Zol’noye", "lat": 53.4421, "lon": 49.7978}, {"name": "Aleksandrov Gay", "lat": 50.14704, "lon": 48.57037}, {"name": "Alekseyevka", "lat": 52.30583, "lon": 48.02611}, {"name": "Atkarsk", "lat": 51.87185, "lon": 45.00775}, {"name": "Baltay", "lat": 52.46525, "lon": 46.63081}, {"name": "Bol’shoy Karay", "lat": 51.60542, "lon": 42.69006}, {"name": "Cherkasskoye", "lat": 52.42895, "lon": 47.21048}, {"name": "Dergachi", "lat": 51.2328, "lon": 48.7659}, {"name": "Engel’s", "lat": 51.48389, "lon": 46.10528}, {"name": "Ivanteyevka", "lat": 52.2667, "lon": 49.1055}, {"name": "Kalininsk", "lat": 51.5, "lon": 44.4758}, {"name": "Kamenskiy", "lat": 50.88547, "lon": 45.48801}, {"name": "Khvalynsk", "lat": 52.4906, "lon": 48.1058}, {"name": "Khvatovka", "lat": 52.35236, "lon": 46.56282}, {"name": "Kormëzhka", "lat": 51.9005, "lon": 48.0163}, {"name": "Krasnoarmeysk", "lat": 51.02389, "lon": 45.69694}, {"name": "Krasnyy Oktyabr’", "lat": 51.54018, "lon": 45.70382}, {"name": "Krasnyy Yar", "lat": 51.62917, "lon": 46.42167}, {"name": "Lysyye Gory", "lat": 51.55063, "lon": 44.84144}, {"name": "Mokrous", "lat": 51.2373, "lon": 47.5137}, {"name": "Novouzensk", "lat": 50.45917, "lon": 48.14306}, {"name": "Perelyub", "lat": 51.86292, "lon": 50.35412}, {"name": "Pinerovka", "lat": 51.562, "lon": 43.0689}, {"name": "Podlesnoye", "lat": 51.8161, "lon": 47.009}, {"name": "Privolzhskiy", "lat": 51.40944, "lon": 46.04833}, {"name": "Privolzhskoye", "lat": 51.69194, "lon": 46.72361}, {"name": "Pushkino", "lat": 51.235, "lon": 46.97417}, {"name": "Repnoye", "lat": 51.5921, "lon": 43.1861}, {"name": "Romanovka", "lat": 51.74427, "lon": 42.7527}, {"name": "Rovnoye", "lat": 50.7765, "lon": 46.05085}, {"name": "Rtishchevo", "lat": 52.26041, "lon": 43.78745}, {"name": "Samoylovka", "lat": 51.184, "lon": 43.7081}, {"name": "Sennoy", "lat": 52.1509, "lon": 46.96309}, {"name": "Shikhany", "lat": 52.11776, "lon": 47.1986}, {"name": "Shumeyka", "lat": 51.56361, "lon": 46.24833}, {"name": "Sinodskoye", "lat": 51.9918, "lon": 46.67009}, {"name": "Sokolovyy", "lat": 51.56857, "lon": 45.83312}, {"name": "Sovetskoye", "lat": 51.44255, "lon": 46.7424}, {"name": "Staryye Ozinki", "lat": 51.1786, "lon": 49.6769}, {"name": "Stepnoye", "lat": 51.37972, "lon": 46.84917}, {"name": "Svetlyy", "lat": 51.6737, "lon": 45.63054}, {"name": "Svobodnyy", "lat": 52.33039, "lon": 46.37122}, {"name": "Tersa", "lat": 52.08671, "lon": 47.53936}, {"name": "Turki", "lat": 51.98703, "lon": 43.2731}, {"name": "Voskresenskoye", "lat": 51.82478, "lon": 46.93508}, {"name": "Yekaterinovka", "lat": 52.05083, "lon": 44.34515}, {"name": "Yelshanka", "lat": 51.81389, "lon": 46.39972}, {"name": "Alnashi", "lat": 56.18738, "lon": 52.47919}, {"name": "Balezino", "lat": 57.9787, "lon": 53.0138}, {"name": "Debesy", "lat": 57.6515, "lon": 53.8089}, {"name": "Fakel", "lat": 57.631, "lon": 53.0251}, {"name": "Grakhovo", "lat": 56.05017, "lon": 51.96758}, {"name": "Igra", "lat": 57.5549, "lon": 53.0544}, {"name": "Kama", "lat": 56.30512, "lon": 54.09361}, {"name": "Kambarka", "lat": 56.2666, "lon": 54.2056}, {"name": "Karakulino", "lat": 56.012, "lon": 53.70669}, {"name": "Kez", "lat": 57.8957, "lon": 53.7132}, {"name": "Khokhryaki", "lat": 56.91561, "lon": 53.3221}, {"name": "Kiyasovo", "lat": 56.34907, "lon": 53.12439}, {"name": "Kizner", "lat": 56.27489, "lon": 51.508}, {"name": "Krasnogorskoye", "lat": 57.7047, "lon": 52.4999}, {"name": "Malaya Purga", "lat": 56.55666, "lon": 53.00434}, {"name": "Pirogovo", "lat": 56.77959, "lon": 53.14954}, {"name": "Pudem", "lat": 58.3047, "lon": 52.1673}, {"name": "Pychas", "lat": 56.50332, "lon": 52.44088}, {"name": "Sarapul", "lat": 56.47633, "lon": 53.79782}, {"name": "Selty", "lat": 57.3132, "lon": 52.1345}, {"name": "Sharkan", "lat": 57.29885, "lon": 53.87122}, {"name": "Sigayevo", "lat": 56.42163, "lon": 53.77566}, {"name": "Syumsi", "lat": 57.11108, "lon": 51.61494}, {"name": "Uva", "lat": 56.99081, "lon": 52.18517}, {"name": "Vavozh", "lat": 56.77513, "lon": 51.93098}, {"name": "Votkinsk", "lat": 57.04865, "lon": 53.98717}, {"name": "Yar", "lat": 58.2458, "lon": 52.1054}, {"name": "Yukamenskoye", "lat": 57.8878, "lon": 52.245}, {"name": "Cherdakly", "lat": 54.3594, "lon": 48.84497}, {"name": "Chufarovo", "lat": 54.0963, "lon": 47.3367}, {"name": "Dimitrovgrad", "lat": 54.21386, "lon": 49.61838}, {"name": "Glotovka", "lat": 53.94906, "lon": 46.70422}, {"name": "Ignatovka", "lat": 53.94787, "lon": 47.6536}, {"name": "Imeni Vladimira Il’icha Lenina", "lat": 53.56422, "lon": 46.9801}, {"name": "Izmaylovo", "lat": 53.72114, "lon": 47.24581}, {"name": "Kanadey", "lat": 53.16786, "lon": 47.52644}, {"name": "Krasnyy Gulyay", "lat": 54.02821, "lon": 48.33327}, {"name": "Kuzovatovo", "lat": 53.54681, "lon": 47.68659}, {"name": "Mirnyy", "lat": 54.36607, "lon": 48.72939}, {"name": "Mullovka", "lat": 54.2, "lon": 49.4}, {"name": "Novaya Mayna", "lat": 54.15, "lon": 49.75}, {"name": "Novocheremshansk", "lat": 54.35714, "lon": 50.16662}, {"name": "Pavlovka", "lat": 52.68966, "lon": 47.14046}, {"name": "Sengiley", "lat": 53.96222, "lon": 48.79444}, {"name": "Silikatnyy", "lat": 53.98957, "lon": 48.32749}, {"name": "Starotimoshkino", "lat": 53.71908, "lon": 47.53116}, {"name": "Surskoye", "lat": 54.4821, "lon": 46.7214}, {"name": "Tsil’na", "lat": 54.59533, "lon": 48.1414}, {"name": "Ulyanovsk", "lat": 54.32824, "lon": 48.38657}, {"name": "Undory", "lat": 54.60849, "lon": 48.39276}, {"name": "Yazykovo", "lat": 54.2922, "lon": 47.3891}, {"name": "Zhadovka", "lat": 53.57464, "lon": 46.94985}, {"name": "Anse Boileau", "lat": -4.71667, "lon": 55.48333}, {"name": "Anse Etoile", "lat": -4.59166667, "lon": 55.45}, {"name": "Anse Royale", "lat": -4.73333, "lon": 55.51667}, {"name": "Beau Vallon", "lat": -4.62091, "lon": 55.43015}, {"name": "Bel Ombre", "lat": -4.61667, "lon": 55.41667}, {"name": "Cascade", "lat": -4.66667, "lon": 55.5}, {"name": "Victoria", "lat": -4.62001, "lon": 55.45501}, {"name": "Port Glaud", "lat": -4.66667, "lon": 55.41667}, {"name": "Takamaka", "lat": -4.76667, "lon": 55.5}, {"name": "Abu Dhabi", "lat": 24.41361, "lon": 54.43295}, {"name": "Al Ain City", "lat": 24.19167, "lon": 55.76056}, {"name": "Al Dhafra", "lat": 23.65745, "lon": 53.72225}, {"name": "Bani Yas City", "lat": 24.30978, "lon": 54.62944}, {"name": "Ghayathi", "lat": 23.9045342, "lon": 52.5871026}, {"name": "Khalifa City", "lat": 24.42588, "lon": 54.605}, {"name": "Liwa Oasis", "lat": 22.8697255, "lon": 53.2408608}, {"name": "Mussafah", "lat": 24.35893, "lon": 54.48267}, {"name": "Muzayri‘", "lat": 23.14355, "lon": 53.7881}, {"name": "Ruwais", "lat": 24.11028, "lon": 52.73056}, {"name": "Zayed City", "lat": 23.65416, "lon": 53.70522}, {"name": "Ajman", "lat": 25.40328, "lon": 55.52341}, {"name": "Manama", "lat": 25.32568, "lon": 56.00259}, {"name": "Masfut", "lat": 24.83982, "lon": 56.05158}, {"name": "Dubai", "lat": 25.0657, "lon": 55.17128}, {"name": "Dibba Al Fujairah", "lat": 25.5858, "lon": 56.24792}, {"name": "Dibba Al-Fujairah", "lat": 25.59246, "lon": 56.26176}, {"name": "Dibba Al-Hisn", "lat": 25.61955, "lon": 56.27291}, {"name": "Fujairah", "lat": 25.11641, "lon": 56.34141}, {"name": "Ras Al Khaimah", "lat": 25.46116, "lon": 56.04058}, {"name": "Al Batayih", "lat": 25.22317, "lon": 55.74272}, {"name": "Al Dhaid", "lat": 25.28812, "lon": 55.88157}, {"name": "Al Hamriyah", "lat": 25.46121, "lon": 55.54813}, {"name": "Al Madam", "lat": 24.95536, "lon": 55.7682}, {"name": "Kalba", "lat": 24.99816, "lon": 56.27207}, {"name": "Khor Fakkan", "lat": 25.33966, "lon": 56.3028}, {"name": "Milehah", "lat": 25.10097, "lon": 55.91282}, {"name": "Murbaḩ", "lat": 25.27623, "lon": 56.36256}, {"name": "Sharjah", "lat": 25.33737, "lon": 55.41206}, {"name": "Umm AL Quwain", "lat": 25.49326, "lon": 55.7352}]