[{"name": "Agarakavan", "lat": 40.33069, "lon": 44.07233, "country": "Armenia"}, {"name": "Aparan", "lat": 40.59323, "lon": 44.3589, "country": "Armenia"}, {"name": "Aragats", "lat": 40.48889, "lon": 44.3529, "country": "Armenia"}, {"name": "Arteni", "lat": 40.2973, "lon": 43.76672, "country": "Armenia"}, {"name": "Ashnak", "lat": 40.33069, "lon": 43.91669, "country": "Armenia"}, {"name": "Ashtarak", "lat": 40.2991, "lon": 44.36204, "country": "Armenia"}, {"name": "Byurakan", "lat": 40.33894, "lon": 44.27275, "country": "Armenia"}, {"name": "Hnaberd", "lat": 40.63721, "lon": 44.14058, "country": "Armenia"}, {"name": "Karbi", "lat": 40.33069, "lon": 44.37793, "country": "Armenia"}, {"name": "Kasakh", "lat": 40.53697, "lon": 44.41046, "country": "Armenia"}, {"name": "Kosh", "lat": 40.30011, "lon": 44.16107, "country": "Armenia"}, {"name": "Nor Yerznka", "lat": 40.30011, "lon": 44.38892, "country": "Armenia"}, {"name": "Oshakan", "lat": 40.26392, "lon": 44.31671, "country": "Armenia"}, {"name": "Sasunik", "lat": 40.25012, "lon": 44.34448, "country": "Armenia"}, {"name": "Shenavan", "lat": 40.48328, "lon": 44.38348, "country": "Armenia"}, {"name": "T’alin", "lat": 40.39172, "lon": 43.87793, "country": "Armenia"}, {"name": "Tsaghkahovit", "lat": 40.63428, "lon": 44.22241, "country": "Armenia"}, {"name": "Ushi", "lat": 40.34729, "lon": 44.37512, "country": "Armenia"}, {"name": "Voskevaz", "lat": 40.27508, "lon": 44.30011, "country": "Armenia"}, {"name": "Zovuni", "lat": 40.51111, "lon": 44.4389, "country": "Armenia"}, {"name": "Abovyan", "lat": 40.04851, "lon": 44.54742, "country": "Armenia"}, {"name": "Aralez", "lat": 39.90008, "lon": 44.6557, "country": "Armenia"}, {"name": "Ararat", "lat": 39.83069, "lon": 44.70569, "country": "Armenia"}, {"name": "Arevabuyr", "lat": 40.03607, "lon": 44.46948, "country": "Armenia"}, {"name": "Arevshat", "lat": 40.03963, "lon": 44.54179, "country": "Armenia"}, {"name": "Armash", "lat": 39.76672, "lon": 44.8111, "country": "Armenia"}, {"name": "Artashat", "lat": 39.96144, "lon": 44.54447, "country": "Armenia"}, {"name": "Avshar", "lat": 39.85553, "lon": 44.65832, "country": "Armenia"}, {"name": "Aygavan", "lat": 39.87327, "lon": 44.66984, "country": "Armenia"}, {"name": "Aygepat", "lat": 39.95845, "lon": 44.59981, "country": "Armenia"}, {"name": "Aygestan", "lat": 40.00293, "lon": 44.55829, "country": "Armenia"}, {"name": "Aygezard", "lat": 39.95436, "lon": 44.60229, "country": "Armenia"}, {"name": "Bardzrashen", "lat": 40.08533, "lon": 44.57957, "country": "Armenia"}, {"name": "Berk’anush", "lat": 39.9779, "lon": 44.51672, "country": "Armenia"}, {"name": "Burastan", "lat": 39.99157, "lon": 44.49681, "country": "Armenia"}, {"name": "Byuravan", "lat": 40.01604, "lon": 44.51889, "country": "Armenia"}, {"name": "Dalar", "lat": 39.97653, "lon": 44.52649, "country": "Armenia"}, {"name": "Darakert", "lat": 40.10553, "lon": 44.41388, "country": "Armenia"}, {"name": "Dashtavan", "lat": 40.1001, "lon": 44.39172, "country": "Armenia"}, {"name": "Dimitrov", "lat": 40.00848, "lon": 44.4917, "country": "Armenia"}, {"name": "Dvin", "lat": 40.01984, "lon": 44.58376, "country": "Armenia"}, {"name": "Getazat", "lat": 40.03844, "lon": 44.56369, "country": "Armenia"}, {"name": "Ghukasavan", "lat": 40.12793, "lon": 44.41669, "country": "Armenia"}, {"name": "Goravan", "lat": 39.90832, "lon": 44.73328, "country": "Armenia"}, {"name": "Hayanist", "lat": 40.12231, "lon": 44.37793, "country": "Armenia"}, {"name": "Hovtashat", "lat": 40.09729, "lon": 44.34448, "country": "Armenia"}, {"name": "Hovtashen", "lat": 40.02508, "lon": 44.45007, "country": "Armenia"}, {"name": "Jrahovit", "lat": 40.0473, "lon": 44.4751, "country": "Armenia"}, {"name": "Lusarrat", "lat": 39.87403, "lon": 44.58678, "country": "Armenia"}, {"name": "Marmarashen", "lat": 40.05829, "lon": 44.47229, "country": "Armenia"}, {"name": "Masis", "lat": 40.06542, "lon": 44.41618, "country": "Armenia"}, {"name": "Mrganush", "lat": 40.02857, "lon": 44.55831, "country": "Armenia"}, {"name": "Mrgavan", "lat": 39.97251, "lon": 44.53565, "country": "Armenia"}, {"name": "Mrgavet", "lat": 40.02789, "lon": 44.48328, "country": "Armenia"}, {"name": "Nizami", "lat": 40.09168, "lon": 44.4057, "country": "Armenia"}, {"name": "Norabats’", "lat": 40.10553, "lon": 44.43329, "country": "Armenia"}, {"name": "Noramarg", "lat": 40.02228, "lon": 44.42511, "country": "Armenia"}, {"name": "Norashen", "lat": 40.0013, "lon": 44.59296, "country": "Armenia"}, {"name": "Noyakert", "lat": 39.83069, "lon": 44.66949, "country": "Armenia"}, {"name": "Nshavan", "lat": 40.02787, "lon": 44.52565, "country": "Armenia"}, {"name": "Sayat’-Nova", "lat": 40.07507, "lon": 44.40008, "country": "Armenia"}, {"name": "Shahumyan", "lat": 39.94171, "lon": 44.57233, "country": "Armenia"}, {"name": "Sis", "lat": 40.05829, "lon": 44.38892, "country": "Armenia"}, {"name": "Sisavan", "lat": 39.90802, "lon": 44.66721, "country": "Armenia"}, {"name": "Surenavan", "lat": 39.79449, "lon": 44.77508, "country": "Armenia"}, {"name": "Vedi", "lat": 39.91388, "lon": 44.7251, "country": "Armenia"}, {"name": "Verin Artashat", "lat": 39.99731, "lon": 44.58893, "country": "Armenia"}, {"name": "Verin Dvin", "lat": 40.02434, "lon": 44.59038, "country": "Armenia"}, {"name": "Vosketap’", "lat": 39.88114, "lon": 44.64917, "country": "Armenia"}, {"name": "Vostan", "lat": 39.96515, "lon": 44.55937, "country": "Armenia"}, {"name": "Yeghegnavan", "lat": 39.83893, "lon": 44.61951, "country": "Armenia"}, {"name": "Zangakatun", "lat": 39.82233, "lon": 45.04169, "country": "Armenia"}, {"name": "Zorak", "lat": 40.09168, "lon": 44.39447, "country": "Armenia"}, {"name": "Aghavnatun", "lat": 40.2333, "lon": 44.25295, "country": "Armenia"}, {"name": "Aknalich", "lat": 40.14728, "lon": 44.16669, "country": "Armenia"}, {"name": "Aknashen", "lat": 40.09551, "lon": 44.28604, "country": "Armenia"}, {"name": "Alashkert", "lat": 40.10712, "lon": 44.05108, "country": "Armenia"}, {"name": "Apaga", "lat": 40.09729, "lon": 44.25293, "country": "Armenia"}, {"name": "Arak’s", "lat": 40.05548, "lon": 44.30292, "country": "Armenia"}, {"name": "Arazap’", "lat": 40.04169, "lon": 44.14728, "country": "Armenia"}, {"name": "Arbat’", "lat": 40.13892, "lon": 44.40289, "country": "Armenia"}, {"name": "Arevashat", "lat": 40.14447, "lon": 44.37512, "country": "Armenia"}, {"name": "Arevik", "lat": 40.1001, "lon": 44.09448, "country": "Armenia"}, {"name": "Argavand", "lat": 40.0611, "lon": 44.09448, "country": "Armenia"}, {"name": "Armavir", "lat": 40.15446, "lon": 44.03815, "country": "Armenia"}, {"name": "Arshaluys", "lat": 40.16949, "lon": 44.21393, "country": "Armenia"}, {"name": "Artimet", "lat": 40.15008, "lon": 44.26672, "country": "Armenia"}, {"name": "Aygek", "lat": 40.1889, "lon": 44.38611, "country": "Armenia"}, {"name": "Aygeshat", "lat": 40.07507, "lon": 44.0611, "country": "Armenia"}, {"name": "Baghramyan", "lat": 40.19452, "lon": 44.36951, "country": "Armenia"}, {"name": "Bambakashat", "lat": 40.10828, "lon": 44.01947, "country": "Armenia"}, {"name": "Dalarik", "lat": 40.2279, "lon": 43.87793, "country": "Armenia"}, {"name": "Doghs", "lat": 40.22229, "lon": 44.27228, "country": "Armenia"}, {"name": "Gay", "lat": 40.08444, "lon": 44.30528, "country": "Armenia"}, {"name": "Geghakert", "lat": 40.18516, "lon": 44.24331, "country": "Armenia"}, {"name": "Geghanist", "lat": 40.14587, "lon": 44.43048, "country": "Armenia"}, {"name": "Getashen", "lat": 40.04449, "lon": 43.94171, "country": "Armenia"}, {"name": "Gmbet’", "lat": 40.22369, "lon": 44.25409, "country": "Armenia"}, {"name": "Griboyedov", "lat": 40.11307, "lon": 44.27169, "country": "Armenia"}, {"name": "Haykashen", "lat": 40.07233, "lon": 44.30829, "country": "Armenia"}, {"name": "Hovtamej", "lat": 40.18329, "lon": 44.25848, "country": "Armenia"}, {"name": "Janfida", "lat": 40.04449, "lon": 44.02789, "country": "Armenia"}, {"name": "Khoronk’", "lat": 40.13611, "lon": 44.24731, "country": "Armenia"}, {"name": "Lenughi", "lat": 40.12512, "lon": 43.96393, "country": "Armenia"}, {"name": "Lukashin", "lat": 40.18726, "lon": 44.0039, "country": "Armenia"}, {"name": "Margara", "lat": 40.03332, "lon": 44.18048, "country": "Armenia"}, {"name": "Mayisyan", "lat": 40.15701, "lon": 44.09192, "country": "Armenia"}, {"name": "Merdzavan", "lat": 40.1814, "lon": 44.40033, "country": "Armenia"}, {"name": "Metsamor", "lat": 40.14447, "lon": 44.1167, "country": "Armenia"}, {"name": "Mrgashat", "lat": 40.13068, "lon": 44.08069, "country": "Armenia"}, {"name": "Musalerr", "lat": 40.1557, "lon": 44.37793, "country": "Armenia"}, {"name": "Myasnikyan", "lat": 40.18048, "lon": 43.91949, "country": "Armenia"}, {"name": "Nalbandyan", "lat": 40.0639, "lon": 43.98889, "country": "Armenia"}, {"name": "Nor Armavir", "lat": 40.08612, "lon": 43.99451, "country": "Armenia"}, {"name": "Norakert", "lat": 40.19733, "lon": 44.3501, "country": "Armenia"}, {"name": "P’shatavan", "lat": 40.03888, "lon": 44.06671, "country": "Armenia"}, {"name": "Ptghunk’", "lat": 40.16388, "lon": 44.36389, "country": "Armenia"}, {"name": "Sardarapat", "lat": 40.13206, "lon": 44.00969, "country": "Armenia"}, {"name": "Shenavan", "lat": 40.05548, "lon": 43.93048, "country": "Armenia"}, {"name": "Tandzut", "lat": 40.06952, "lon": 44.07788, "country": "Armenia"}, {"name": "Taronik", "lat": 40.13367, "lon": 44.19957, "country": "Armenia"}, {"name": "Tsaghkunk’", "lat": 40.18048, "lon": 44.27228, "country": "Armenia"}, {"name": "Tsiatsan", "lat": 40.1861, "lon": 44.26947, "country": "Armenia"}, {"name": "Vagharshapat", "lat": 40.16557, "lon": 44.29462, "country": "Armenia"}, {"name": "Voskehat", "lat": 40.14172, "lon": 44.33069, "country": "Armenia"}, {"name": "Yeghegnut", "lat": 40.08893, "lon": 44.16669, "country": "Armenia"}, {"name": "Yeraskhahun", "lat": 40.07233, "lon": 44.21948, "country": "Armenia"}, {"name": "Akunk’", "lat": 40.15886, "lon": 45.72568, "country": "Armenia"}, {"name": "Astghadzor", "lat": 40.12231, "lon": 45.35553, "country": "Armenia"}, {"name": "Chambarak", "lat": 40.59655, "lon": 45.35498, "country": "Armenia"}, {"name": "Ddmashen", "lat": 40.57028, "lon": 44.82295, "country": "Armenia"}, {"name": "Drakhtik", "lat": 40.56497, "lon": 45.2367, "country": "Armenia"}, {"name": "Dzoragyugh", "lat": 40.16957, "lon": 45.18337, "country": "Armenia"}, {"name": "Gagarin", "lat": 40.54026, "lon": 44.86962, "country": "Armenia"}, {"name": "Gandzak", "lat": 40.31472, "lon": 45.11139, "country": "Armenia"}, {"name": "Gavarr", "lat": 40.35398, "lon": 45.12386, "country": "Armenia"}, {"name": "Geghamasar", "lat": 40.31091, "lon": 45.67924, "country": "Armenia"}, {"name": "Geghamavan", "lat": 40.5625, "lon": 44.88892, "country": "Armenia"}, {"name": "Karanlukh", "lat": 40.10444, "lon": 45.28972, "country": "Armenia"}, {"name": "Karchaghbyur", "lat": 40.17048, "lon": 45.57785, "country": "Armenia"}, {"name": "Lanjaghbyur", "lat": 40.26947, "lon": 45.14447, "country": "Armenia"}, {"name": "Lchap’", "lat": 40.45569, "lon": 45.07507, "country": "Armenia"}, {"name": "Lchashen", "lat": 40.51947, "lon": 44.93048, "country": "Armenia"}, {"name": "Lichk’", "lat": 40.15933, "lon": 45.23467, "country": "Armenia"}, {"name": "Madina", "lat": 40.07637, "lon": 45.25507, "country": "Armenia"}, {"name": "Martuni", "lat": 40.08333, "lon": 45.25, "country": "Armenia"}, {"name": "Mets Masrik", "lat": 40.21948, "lon": 45.76391, "country": "Armenia"}, {"name": "Nerk’in Getashen", "lat": 40.14172, "lon": 45.27087, "country": "Armenia"}, {"name": "Noratus", "lat": 40.37793, "lon": 45.18048, "country": "Armenia"}, {"name": "Sarukhan", "lat": 40.29169, "lon": 45.13068, "country": "Armenia"}, {"name": "Sevan", "lat": 40.5473, "lon": 44.94171, "country": "Armenia"}, {"name": "Tsovagyugh", "lat": 40.63348, "lon": 44.96112, "country": "Armenia"}, {"name": "Tsovak", "lat": 40.18254, "lon": 45.63286, "country": "Armenia"}, {"name": "Tsovasar", "lat": 40.1382, "lon": 45.19096, "country": "Armenia"}, {"name": "Tsovazard", "lat": 40.4751, "lon": 45.05011, "country": "Armenia"}, {"name": "Tsovinar", "lat": 40.15959, "lon": 45.46786, "country": "Armenia"}, {"name": "Vaghashen", "lat": 40.13611, "lon": 45.33069, "country": "Armenia"}, {"name": "Vahan", "lat": 40.57549, "lon": 45.39769, "country": "Armenia"}, {"name": "Vardenik", "lat": 40.13348, "lon": 45.44311, "country": "Armenia"}, {"name": "Vardenis", "lat": 40.18329, "lon": 45.73053, "country": "Armenia"}, {"name": "Varser", "lat": 40.55548, "lon": 44.90832, "country": "Armenia"}, {"name": "Verin Getashen", "lat": 40.13068, "lon": 45.25293, "country": "Armenia"}, {"name": "Yeranos", "lat": 40.20428, "lon": 45.19209, "country": "Armenia"}, {"name": "Abovyan", "lat": 40.27368, "lon": 44.63348, "country": "Armenia"}, {"name": "Aghavnadzor", "lat": 40.58195, "lon": 44.69581, "country": "Armenia"}, {"name": "Akunk’", "lat": 40.26672, "lon": 44.6861, "country": "Armenia"}, {"name": "Aramus", "lat": 40.25095, "lon": 44.66351, "country": "Armenia"}, {"name": "Argel", "lat": 40.37793, "lon": 44.6001, "country": "Armenia"}, {"name": "Arzakan", "lat": 40.45007, "lon": 44.60828, "country": "Armenia"}, {"name": "Arzni", "lat": 40.2973, "lon": 44.59869, "country": "Armenia"}, {"name": "Balahovit", "lat": 40.25153, "lon": 44.60828, "country": "Armenia"}, {"name": "Bjni", "lat": 40.45831, "lon": 44.65008, "country": "Armenia"}, {"name": "Buzhakan", "lat": 40.45569, "lon": 44.51947, "country": "Armenia"}, {"name": "Byureghavan", "lat": 40.31417, "lon": 44.59333, "country": "Armenia"}, {"name": "Dzoraghbyur", "lat": 40.20412, "lon": 44.6415, "country": "Armenia"}, {"name": "Fantan", "lat": 40.39447, "lon": 44.6861, "country": "Armenia"}, {"name": "Garrni", "lat": 40.11931, "lon": 44.73442, "country": "Armenia"}, {"name": "Goght’", "lat": 40.1347, "lon": 44.78332, "country": "Armenia"}, {"name": "Hrazdan", "lat": 40.49748, "lon": 44.7662, "country": "Armenia"}, {"name": "Kaputan", "lat": 40.32507, "lon": 44.70007, "country": "Armenia"}, {"name": "Kotayk’", "lat": 40.27789, "lon": 44.66388, "country": "Armenia"}, {"name": "Lerrnanist", "lat": 40.46676, "lon": 44.79249, "country": "Armenia"}, {"name": "Mayakovski", "lat": 40.25293, "lon": 44.63892, "country": "Armenia"}, {"name": "Meghradzor", "lat": 40.60611, "lon": 44.65147, "country": "Armenia"}, {"name": "Mrgashen", "lat": 40.28607, "lon": 44.54449, "country": "Armenia"}, {"name": "Nor Geghi", "lat": 40.32233, "lon": 44.58331, "country": "Armenia"}, {"name": "Nor Gyugh", "lat": 40.26672, "lon": 44.65832, "country": "Armenia"}, {"name": "Prroshyan", "lat": 40.24731, "lon": 44.41949, "country": "Armenia"}, {"name": "Ptghni", "lat": 40.25568, "lon": 44.58612, "country": "Armenia"}, {"name": "Solak", "lat": 40.46252, "lon": 44.70709, "country": "Armenia"}, {"name": "Tsaghkadzor", "lat": 40.53259, "lon": 44.72025, "country": "Armenia"}, {"name": "Yeghvard", "lat": 40.32507, "lon": 44.48608, "country": "Armenia"}, {"name": "Zarr", "lat": 40.25848, "lon": 44.73328, "country": "Armenia"}, {"name": "Zoravan", "lat": 40.35553, "lon": 44.52228, "country": "Armenia"}, {"name": "Zovaber", "lat": 40.56671, "lon": 44.79028, "country": "Armenia"}, {"name": "Agarak", "lat": 41.01072, "lon": 44.46845, "country": "Armenia"}, {"name": "Akht’ala", "lat": 41.16838, "lon": 44.75811, "country": "Armenia"}, {"name": "Alaverdi", "lat": 41.09766, "lon": 44.67316, "country": "Armenia"}, {"name": "Arevashogh", "lat": 40.86039, "lon": 44.27438, "country": "Armenia"}, {"name": "Bazum", "lat": 40.86763, "lon": 44.43978, "country": "Armenia"}, {"name": "Chochkan", "lat": 41.18118, "lon": 44.83217, "country": "Armenia"}, {"name": "Darpas", "lat": 40.83674, "lon": 44.42494, "country": "Armenia"}, {"name": "Dsegh", "lat": 40.9617, "lon": 44.65003, "country": "Armenia"}, {"name": "Fioletovo", "lat": 40.72241, "lon": 44.71769, "country": "Armenia"}, {"name": "Gogaran", "lat": 40.89255, "lon": 44.19915, "country": "Armenia"}, {"name": "Gugark’", "lat": 40.8046, "lon": 44.54025, "country": "Armenia"}, {"name": "Gyulagarak", "lat": 40.96715, "lon": 44.47144, "country": "Armenia"}, {"name": "Jrashen", "lat": 40.79028, "lon": 44.18664, "country": "Armenia"}, {"name": "Lerrnants’k’", "lat": 40.79532, "lon": 44.27435, "country": "Armenia"}, {"name": "Lerrnapat", "lat": 40.81538, "lon": 44.39344, "country": "Armenia"}, {"name": "Lerrnavan", "lat": 40.7882, "lon": 44.16024, "country": "Armenia"}, {"name": "Lorut", "lat": 40.93717, "lon": 44.77142, "country": "Armenia"}, {"name": "Margahovit", "lat": 40.73381, "lon": 44.68474, "country": "Armenia"}, {"name": "Mets Parni", "lat": 40.83472, "lon": 44.11108, "country": "Armenia"}, {"name": "Metsavan", "lat": 41.20156, "lon": 44.22877, "country": "Armenia"}, {"name": "Norashen", "lat": 41.18886, "lon": 44.33336, "country": "Armenia"}, {"name": "Odzun", "lat": 41.05321, "lon": 44.61341, "country": "Armenia"}, {"name": "Sarahart’", "lat": 40.87043, "lon": 44.21407, "country": "Armenia"}, {"name": "Saramej", "lat": 40.77487, "lon": 44.2222, "country": "Armenia"}, {"name": "Shahumyan", "lat": 40.77482, "lon": 44.54596, "country": "Armenia"}, {"name": "Shirakamut", "lat": 40.86056, "lon": 44.15278, "country": "Armenia"}, {"name": "Shnogh", "lat": 41.14693, "lon": 44.84043, "country": "Armenia"}, {"name": "Spitak", "lat": 40.83221, "lon": 44.26731, "country": "Armenia"}, {"name": "Step’anavan", "lat": 41.00995, "lon": 44.38531, "country": "Armenia"}, {"name": "Tashir", "lat": 41.12072, "lon": 44.28462, "country": "Armenia"}, {"name": "Tsaghkaber", "lat": 40.79849, "lon": 44.10144, "country": "Armenia"}, {"name": "Urrut", "lat": 41.06778, "lon": 44.39628, "country": "Armenia"}, {"name": "Vahagni", "lat": 40.90698, "lon": 44.60873, "country": "Armenia"}, {"name": "Vanadzor", "lat": 40.80456, "lon": 44.4939, "country": "Armenia"}, {"name": "Vardablur", "lat": 40.97083, "lon": 44.50889, "country": "Armenia"}, {"name": "Yeghegnut", "lat": 40.90302, "lon": 44.63155, "country": "Armenia"}, {"name": "Akhuryan", "lat": 40.78003, "lon": 43.90027, "country": "Armenia"}, {"name": "Amasia", "lat": 40.95442, "lon": 43.7872, "country": "Armenia"}, {"name": "Anushavan", "lat": 40.65008, "lon": 43.98053, "country": "Armenia"}, {"name": "Arevik", "lat": 40.7417, "lon": 43.9043, "country": "Armenia"}, {"name": "Arevshat", "lat": 40.65345, "lon": 44.04419, "country": "Armenia"}, {"name": "Arrap’i", "lat": 40.78276, "lon": 43.80583, "country": "Armenia"}, {"name": "Azatan", "lat": 40.71959, "lon": 43.82727, "country": "Armenia"}, {"name": "Basen", "lat": 40.75767, "lon": 43.99274, "country": "Armenia"}, {"name": "Dzit’hank’ov", "lat": 40.50848, "lon": 43.82092, "country": "Armenia"}, {"name": "Gyumri", "lat": 40.7942, "lon": 43.84528, "country": "Armenia"}, {"name": "Haykavan", "lat": 40.80312, "lon": 43.75173, "country": "Armenia"}, {"name": "Horrom", "lat": 40.65973, "lon": 43.89032, "country": "Armenia"}, {"name": "Kamo", "lat": 40.82572, "lon": 43.95071, "country": "Armenia"}, {"name": "Lerrnakert", "lat": 40.5625, "lon": 43.9389, "country": "Armenia"}, {"name": "Maralik", "lat": 40.57507, "lon": 43.87231, "country": "Armenia"}, {"name": "Marmashen", "lat": 40.83486, "lon": 43.7779, "country": "Armenia"}, {"name": "Mayisyan", "lat": 40.84715, "lon": 43.83938, "country": "Armenia"}, {"name": "Meghrashen", "lat": 40.6723, "lon": 43.95831, "country": "Armenia"}, {"name": "Mets Mant’ash", "lat": 40.64376, "lon": 44.05653, "country": "Armenia"}, {"name": "P’ok’r Mant’ash", "lat": 40.64026, "lon": 44.04666, "country": "Armenia"}, {"name": "Pemzashen", "lat": 40.58612, "lon": 43.94311, "country": "Armenia"}, {"name": "Saratak", "lat": 40.6709, "lon": 43.87231, "country": "Armenia"}, {"name": "Shirak", "lat": 40.84042, "lon": 43.91582, "country": "Armenia"}, {"name": "Spandaryan", "lat": 40.66105, "lon": 44.01551, "country": "Armenia"}, {"name": "Voskehask", "lat": 40.76426, "lon": 43.77474, "country": "Armenia"}, {"name": "Yerazgavors", "lat": 40.69505, "lon": 43.74722, "country": "Armenia"}, {"name": "Agarak", "lat": 39.20684, "lon": 46.5446, "country": "Armenia"}, {"name": "Akner", "lat": 39.53491, "lon": 46.30732, "country": "Armenia"}, {"name": "Angeghakot’", "lat": 39.56952, "lon": 45.94452, "country": "Armenia"}, {"name": "Brrnakot’", "lat": 39.49742, "lon": 45.97241, "country": "Armenia"}, {"name": "Dzorastan", "lat": 39.27059, "lon": 46.3572, "country": "Armenia"}, {"name": "Goris", "lat": 39.51111, "lon": 46.34168, "country": "Armenia"}, {"name": "Hats’avan", "lat": 39.46405, "lon": 45.97047, "country": "Armenia"}, {"name": "Kapan", "lat": 39.20755, "lon": 46.40576, "country": "Armenia"}, {"name": "Khndzoresk", "lat": 39.50568, "lon": 46.4361, "country": "Armenia"}, {"name": "Meghri", "lat": 38.90292, "lon": 46.24458, "country": "Armenia"}, {"name": "Shaghat", "lat": 39.55698, "lon": 45.90727, "country": "Armenia"}, {"name": "Shinuhayr", "lat": 39.4367, "lon": 46.31787, "country": "Armenia"}, {"name": "Tegh", "lat": 39.55826, "lon": 46.48054, "country": "Armenia"}, {"name": "Verishen", "lat": 39.53543, "lon": 46.32063, "country": "Armenia"}, {"name": "Archis", "lat": 41.16351, "lon": 44.87631, "country": "Armenia"}, {"name": "Artsvaberd", "lat": 40.83947, "lon": 45.47033, "country": "Armenia"}, {"name": "Aygehovit", "lat": 40.97951, "lon": 45.25033, "country": "Armenia"}, {"name": "Azatamut", "lat": 40.98204, "lon": 45.18551, "country": "Armenia"}, {"name": "Bagratashen", "lat": 41.24358, "lon": 44.81737, "country": "Armenia"}, {"name": "Berd", "lat": 40.88135, "lon": 45.38901, "country": "Armenia"}, {"name": "Berdavan", "lat": 41.20503, "lon": 44.99967, "country": "Armenia"}, {"name": "Dilijan", "lat": 40.7417, "lon": 44.8501, "country": "Armenia"}, {"name": "Haghartsin", "lat": 40.77614, "lon": 44.96847, "country": "Armenia"}, {"name": "Ijevan", "lat": 40.87877, "lon": 45.14851, "country": "Armenia"}, {"name": "Khasht’arrak", "lat": 40.93668, "lon": 45.1821, "country": "Armenia"}, {"name": "Mosesgegh", "lat": 40.90534, "lon": 45.48838, "country": "Armenia"}, {"name": "Navur", "lat": 40.86695, "lon": 45.34179, "country": "Armenia"}, {"name": "Noyemberyan", "lat": 41.17244, "lon": 44.99917, "country": "Armenia"}, {"name": "Parravak’ar", "lat": 40.98248, "lon": 45.36696, "country": "Armenia"}, {"name": "Sarigyugh", "lat": 41.03531, "lon": 45.14486, "country": "Armenia"}, {"name": "Voskevan", "lat": 41.12081, "lon": 45.06381, "country": "Armenia"}, {"name": "Agarakadzor", "lat": 39.73608, "lon": 45.35553, "country": "Armenia"}, {"name": "Aghavnadzor", "lat": 39.78607, "lon": 45.2279, "country": "Armenia"}, {"name": "Areni", "lat": 39.71668, "lon": 45.18329, "country": "Armenia"}, {"name": "Getap’", "lat": 39.76392, "lon": 45.30829, "country": "Armenia"}, {"name": "Gladzor", "lat": 39.7807, "lon": 45.34729, "country": "Armenia"}, {"name": "Jermuk", "lat": 39.84168, "lon": 45.66949, "country": "Armenia"}, {"name": "Malishka", "lat": 39.74731, "lon": 45.4057, "country": "Armenia"}, {"name": "Rrind", "lat": 39.76111, "lon": 45.17792, "country": "Armenia"}, {"name": "Shatin", "lat": 39.83612, "lon": 45.30292, "country": "Armenia"}, {"name": "Vayk’", "lat": 39.6889, "lon": 45.46668, "country": "Armenia"}, {"name": "Vernashen", "lat": 39.79236, "lon": 45.36389, "country": "Armenia"}, {"name": "Yeghegis", "lat": 39.87231, "lon": 45.3501, "country": "Armenia"}, {"name": "Yeghegnadzor", "lat": 39.76389, "lon": 45.33239, "country": "Armenia"}, {"name": "Zarrit’ap’", "lat": 39.63892, "lon": 45.51111, "country": "Armenia"}, {"name": "Arabkir", "lat": 40.20549, "lon": 44.50699, "country": "Armenia"}, {"name": "Argavand", "lat": 40.15289, "lon": 44.4389, "country": "Armenia"}, {"name": "Jrashen", "lat": 40.05275, "lon": 44.51259, "country": "Armenia"}, {"name": "K’anak’erravan", "lat": 40.24739, "lon": 44.53511, "country": "Armenia"}, {"name": "Vardadzor", "lat": 40.18701, "lon": 45.19212, "country": "Armenia"}, {"name": "Yerevan", "lat": 40.18111, "lon": 44.51361, "country": "Armenia"}, {"name": "Ceyranbatan", "lat": 40.54194, "lon": 49.66073, "country": "Azerbaijan"}, {"name": "Digah", "lat": 40.49257, "lon": 49.87477, "country": "Azerbaijan"}, {"name": "Gyuzdek", "lat": 40.37444, "lon": 49.68194, "country": "Azerbaijan"}, {"name": "Khirdalan", "lat": 40.44808, "lon": 49.75502, "country": "Azerbaijan"}, {"name": "Qobu", "lat": 40.40472, "lon": 49.71306, "country": "Azerbaijan"}, {"name": "Saray", "lat": 40.53299, "lon": 49.71681, "country": "Azerbaijan"}, {"name": "Ağdam", "lat": 39.99096, "lon": 46.92736, "country": "Azerbaijan"}, {"name": "Ağdaş", "lat": 40.64699, "lon": 47.4738, "country": "Azerbaijan"}, {"name": "Agdzhabedy", "lat": 40.05015, "lon": 47.45937, "country": "Azerbaijan"}, {"name": "Avşar", "lat": 39.97389, "lon": 47.42389, "country": "Azerbaijan"}, {"name": "Aghstafa", "lat": 41.11889, "lon": 45.45389, "country": "Azerbaijan"}, {"name": "Saloğlu", "lat": 41.27524, "lon": 45.35293, "country": "Azerbaijan"}, {"name": "Vurğun", "lat": 41.09524, "lon": 45.47111, "country": "Azerbaijan"}, {"name": "Aghsu", "lat": 40.57028, "lon": 48.40087, "country": "Azerbaijan"}, {"name": "Astara", "lat": 38.45598, "lon": 48.87498, "country": "Azerbaijan"}, {"name": "Kizhaba", "lat": 38.53461, "lon": 48.80546, "country": "Azerbaijan"}, {"name": "Amirdzhan", "lat": 40.42639, "lon": 49.98361, "country": "Azerbaijan"}, {"name": "Badamdar", "lat": 40.34024, "lon": 49.8045, "country": "Azerbaijan"}, {"name": "Bakıxanov", "lat": 40.41894, "lon": 49.96693, "country": "Azerbaijan"}, {"name": "Baku", "lat": 40.37767, "lon": 49.89201, "country": "Azerbaijan"}, {"name": "Balakhani", "lat": 40.46344, "lon": 49.91893, "country": "Azerbaijan"}, {"name": "Bilajari", "lat": 40.4444, "lon": 49.80566, "country": "Azerbaijan"}, {"name": "Bilajer", "lat": 40.56441, "lon": 50.04002, "country": "Azerbaijan"}, {"name": "Binagadi", "lat": 40.46602, "lon": 49.82783, "country": "Azerbaijan"}, {"name": "Biny Selo", "lat": 40.45076, "lon": 50.08686, "country": "Azerbaijan"}, {"name": "Buzovna", "lat": 40.51903, "lon": 50.11438, "country": "Azerbaijan"}, {"name": "Hövsan", "lat": 40.37444, "lon": 50.08528, "country": "Azerbaijan"}, {"name": "Khodzhi-Gasan", "lat": 40.41293, "lon": 49.76904, "country": "Azerbaijan"}, {"name": "Korgöz", "lat": 40.30446, "lon": 49.6236, "country": "Azerbaijan"}, {"name": "Lökbatan", "lat": 40.3256, "lon": 49.73376, "country": "Azerbaijan"}, {"name": "Mardakan", "lat": 40.49182, "lon": 50.14292, "country": "Azerbaijan"}, {"name": "Maştağa", "lat": 40.52983, "lon": 50.00616, "country": "Azerbaijan"}, {"name": "Nardaran", "lat": 40.55611, "lon": 50.00556, "country": "Azerbaijan"}, {"name": "Nizami Rayonu", "lat": 40.4097, "lon": 49.91926, "country": "Azerbaijan"}, {"name": "Pirallahı", "lat": 40.47013, "lon": 50.32476, "country": "Azerbaijan"}, {"name": "Puta", "lat": 40.29667, "lon": 49.66028, "country": "Azerbaijan"}, {"name": "Qala", "lat": 40.44256, "lon": 50.16759, "country": "Azerbaijan"}, {"name": "Qaraçuxur", "lat": 40.39667, "lon": 49.97361, "country": "Azerbaijan"}, {"name": "Qobustan", "lat": 40.08238, "lon": 49.41205, "country": "Azerbaijan"}, {"name": "Ramana", "lat": 40.44222, "lon": 49.98056, "country": "Azerbaijan"}, {"name": "Sabunçu", "lat": 40.4425, "lon": 49.94806, "country": "Azerbaijan"}, {"name": "Sanqaçal", "lat": 40.16991, "lon": 49.46394, "country": "Azerbaijan"}, {"name": "Türkan", "lat": 40.3646, "lon": 50.22075, "country": "Azerbaijan"}, {"name": "Yeni Suraxanı", "lat": 40.43026, "lon": 50.03598, "country": "Azerbaijan"}, {"name": "Zabrat", "lat": 40.47746, "lon": 49.94174, "country": "Azerbaijan"}, {"name": "Zyrya", "lat": 40.36613, "lon": 50.29198, "country": "Azerbaijan"}, {"name": "Belokany", "lat": 41.72626, "lon": 46.40478, "country": "Azerbaijan"}, {"name": "Qabaqçöl", "lat": 41.75259, "lon": 46.27052, "country": "Azerbaijan"}, {"name": "Barda", "lat": 40.37577, "lon": 47.12619, "country": "Azerbaijan"}, {"name": "Samuxlu", "lat": 40.50833, "lon": 47.16917, "country": "Azerbaijan"}, {"name": "Beylagan", "lat": 39.77556, "lon": 47.61861, "country": "Azerbaijan"}, {"name": "Birinci Aşıqlı", "lat": 39.81917, "lon": 47.67944, "country": "Azerbaijan"}, {"name": "Dünyamalılar", "lat": 39.77278, "lon": 47.75889, "country": "Azerbaijan"}, {"name": "Orjonikidze", "lat": 39.63571, "lon": 47.71199, "country": "Azerbaijan"}, {"name": "Yuxarı Aran", "lat": 39.73361, "lon": 47.655, "country": "Azerbaijan"}, {"name": "Pushkino", "lat": 39.45833, "lon": 48.545, "country": "Azerbaijan"}, {"name": "Verkhniy Dashkesan", "lat": 40.49357, "lon": 46.07175, "country": "Azerbaijan"}, {"name": "Yukhary-Dashkesan", "lat": 40.52393, "lon": 46.08186, "country": "Azerbaijan"}, {"name": "Fizuli", "lat": 39.60094, "lon": 47.14529, "country": "Azerbaijan"}, {"name": "Horadiz", "lat": 39.45015, "lon": 47.33496, "country": "Azerbaijan"}, {"name": "Ganja", "lat": 40.68278, "lon": 46.36056, "country": "Azerbaijan"}, {"name": "Arıqdam", "lat": 40.59313, "lon": 45.799, "country": "Azerbaijan"}, {"name": "Arıqıran", "lat": 40.53971, "lon": 45.61414, "country": "Azerbaijan"}, {"name": "Böyük Qaramurad", "lat": 40.57626, "lon": 45.63727, "country": "Azerbaijan"}, {"name": "Kyadabek", "lat": 40.57055, "lon": 45.81229, "country": "Azerbaijan"}, {"name": "Novosaratovka", "lat": 40.59811, "lon": 45.60079, "country": "Azerbaijan"}, {"name": "Qobustan", "lat": 40.5336, "lon": 48.92819, "country": "Azerbaijan"}, {"name": "Goranboy", "lat": 40.61028, "lon": 46.78972, "country": "Azerbaijan"}, {"name": "Qızılhacılı", "lat": 40.57362, "lon": 46.849, "country": "Azerbaijan"}, {"name": "Geoktschai", "lat": 40.65055, "lon": 47.74219, "country": "Azerbaijan"}, {"name": "Yelenendorf", "lat": 40.58584, "lon": 46.3189, "country": "Azerbaijan"}, {"name": "Hacıqabul", "lat": 40.03874, "lon": 48.94286, "country": "Azerbaijan"}, {"name": "Mughan", "lat": 40.09902, "lon": 48.81886, "country": "Azerbaijan"}, {"name": "Imishli", "lat": 39.87095, "lon": 48.05995, "country": "Azerbaijan"}, {"name": "Basqal", "lat": 40.7552, "lon": 48.39104, "country": "Azerbaijan"}, {"name": "İsmayıllı", "lat": 40.78485, "lon": 48.15141, "country": "Azerbaijan"}, {"name": "Jebrail", "lat": 39.39917, "lon": 47.02835, "country": "Azerbaijan"}, {"name": "Jalilabad", "lat": 39.20963, "lon": 48.49186, "country": "Azerbaijan"}, {"name": "Prishibinskoye", "lat": 39.11998, "lon": 48.59383, "country": "Azerbaijan"}, {"name": "Kerbakhiar", "lat": 40.10984, "lon": 46.04446, "country": "Azerbaijan"}, {"name": "Vank", "lat": 40.05275, "lon": 46.54419, "country": "Azerbaijan"}, {"name": "Xaçmaz", "lat": 41.46426, "lon": 48.80565, "country": "Azerbaijan"}, {"name": "Xudat", "lat": 41.63052, "lon": 48.68161, "country": "Azerbaijan"}, {"name": "Khankendi", "lat": 39.8266, "lon": 46.7556, "country": "Azerbaijan"}, {"name": "Altıağac", "lat": 40.85785, "lon": 48.9354, "country": "Azerbaijan"}, {"name": "Khyzy", "lat": 40.90847, "lon": 49.07481, "country": "Azerbaijan"}, {"name": "Kilyazi", "lat": 40.87392, "lon": 49.34376, "country": "Azerbaijan"}, {"name": "Şuraabad", "lat": 40.8199, "lon": 49.46774, "country": "Azerbaijan"}, {"name": "Askyaran", "lat": 39.9391, "lon": 46.83161, "country": "Azerbaijan"}, {"name": "Xocalı", "lat": 39.91297, "lon": 46.79028, "country": "Azerbaijan"}, {"name": "Kyurdarmir", "lat": 40.34257, "lon": 48.15649, "country": "Azerbaijan"}, {"name": "Laçın", "lat": 39.59881, "lon": 46.55045, "country": "Azerbaijan"}, {"name": "Haftoni", "lat": 38.76325, "lon": 48.76223, "country": "Azerbaijan"}, {"name": "Lankaran", "lat": 38.75428, "lon": 48.85062, "country": "Azerbaijan"}, {"name": "Lerik", "lat": 38.77388, "lon": 48.41497, "country": "Azerbaijan"}, {"name": "Hadrut", "lat": 39.52003, "lon": 47.0319, "country": "Azerbaijan"}, {"name": "Novyy Karanlug", "lat": 39.79496, "lon": 47.1117, "country": "Azerbaijan"}, {"name": "Qırmızı Bazar", "lat": 39.67669, "lon": 46.95123, "country": "Azerbaijan"}, {"name": "Boradigah", "lat": 38.93013, "lon": 48.7092, "country": "Azerbaijan"}, {"name": "Masally", "lat": 39.03532, "lon": 48.6654, "country": "Azerbaijan"}, {"name": "Mingelchaur", "lat": 40.76395, "lon": 47.05953, "country": "Azerbaijan"}, {"name": "Naftalan", "lat": 40.5061, "lon": 46.8244, "country": "Azerbaijan"}, {"name": "Nakhchivan", "lat": 39.20889, "lon": 45.41222, "country": "Azerbaijan"}, {"name": "Cahri", "lat": 39.34837, "lon": 45.41557, "country": "Azerbaijan"}, {"name": "Çalxanqala", "lat": 39.44167, "lon": 45.28333, "country": "Azerbaijan"}, {"name": "Culfa", "lat": 38.95397, "lon": 45.62961, "country": "Azerbaijan"}, {"name": "Deste", "lat": 38.88375, "lon": 45.90963, "country": "Azerbaijan"}, {"name": "Heydarabad", "lat": 39.72286, "lon": 44.84846, "country": "Azerbaijan"}, {"name": "Julfa Rayon", "lat": 39.16667, "lon": 45.66667, "country": "Azerbaijan"}, {"name": "Oğlanqala", "lat": 39.58694, "lon": 45.04611, "country": "Azerbaijan"}, {"name": "Ordubad", "lat": 38.90961, "lon": 46.02274, "country": "Azerbaijan"}, {"name": "Ordubad Rayon", "lat": 39.08333, "lon": 45.91667, "country": "Azerbaijan"}, {"name": "Qıvraq", "lat": 39.39939, "lon": 45.11513, "country": "Azerbaijan"}, {"name": "Şahbuz", "lat": 39.40722, "lon": 45.57389, "country": "Azerbaijan"}, {"name": "Sedarak", "lat": 39.71427, "lon": 44.88455, "country": "Azerbaijan"}, {"name": "Shahbuz Rayon", "lat": 39.41667, "lon": 45.58333, "country": "Azerbaijan"}, {"name": "Sharur City", "lat": 39.55298, "lon": 44.97993, "country": "Azerbaijan"}, {"name": "Sumbatan-diza", "lat": 38.94804, "lon": 45.82572, "country": "Azerbaijan"}, {"name": "Tazakend", "lat": 39.15459, "lon": 45.44282, "country": "Azerbaijan"}, {"name": "Yaycı", "lat": 38.94052, "lon": 45.73244, "country": "Azerbaijan"}, {"name": "Neftçala", "lat": 39.3768, "lon": 49.247, "country": "Azerbaijan"}, {"name": "Severo-Vostotchnyi Bank", "lat": 39.41117, "lon": 49.24792, "country": "Azerbaijan"}, {"name": "Sovetabad", "lat": 39.33667, "lon": 49.21414, "country": "Azerbaijan"}, {"name": "Xıllı", "lat": 39.43012, "lon": 49.10166, "country": "Azerbaijan"}, {"name": "Oğuz", "lat": 41.07128, "lon": 47.46528, "country": "Azerbaijan"}, {"name": "Qutqashen", "lat": 40.98247, "lon": 47.84909, "country": "Azerbaijan"}, {"name": "Çinarlı", "lat": 41.46965, "lon": 46.91582, "country": "Azerbaijan"}, {"name": "Qax", "lat": 41.41826, "lon": 46.92043, "country": "Azerbaijan"}, {"name": "Qax İngiloy", "lat": 41.42412, "lon": 46.93859, "country": "Azerbaijan"}, {"name": "Qaxbaş", "lat": 41.43254, "lon": 46.9646, "country": "Azerbaijan"}, {"name": "Qazax", "lat": 41.09246, "lon": 45.36561, "country": "Azerbaijan"}, {"name": "Hacıhüseynli", "lat": 41.45639, "lon": 48.64889, "country": "Azerbaijan"}, {"name": "Quba", "lat": 41.36108, "lon": 48.51341, "country": "Azerbaijan"}, {"name": "Qubadlı", "lat": 39.34441, "lon": 46.58183, "country": "Azerbaijan"}, {"name": "Qusar", "lat": 41.4275, "lon": 48.4302, "country": "Azerbaijan"}, {"name": "Samur", "lat": 41.63671, "lon": 48.43028, "country": "Azerbaijan"}, {"name": "Əhmədbəyli", "lat": 39.88074, "lon": 48.39158, "country": "Azerbaijan"}, {"name": "Saatlı", "lat": 39.93214, "lon": 48.36892, "country": "Azerbaijan"}, {"name": "Sabirabad", "lat": 40.00869, "lon": 48.47701, "country": "Azerbaijan"}, {"name": "Qaraçala", "lat": 39.81614, "lon": 48.93792, "country": "Azerbaijan"}, {"name": "Salyan", "lat": 39.59621, "lon": 48.98479, "country": "Azerbaijan"}, {"name": "Qarayeri", "lat": 40.78674, "lon": 46.31365, "country": "Azerbaijan"}, {"name": "Qırmızı Samux", "lat": 40.93972, "lon": 46.37889, "country": "Azerbaijan"}, {"name": "Samux", "lat": 40.76485, "lon": 46.40868, "country": "Azerbaijan"}, {"name": "Divichibazar", "lat": 41.20117, "lon": 48.98712, "country": "Azerbaijan"}, {"name": "Sheki", "lat": 41.19194, "lon": 47.17056, "country": "Azerbaijan"}, {"name": "Baş Göynük", "lat": 41.32582, "lon": 47.11357, "country": "Azerbaijan"}, {"name": "Shamakhi", "lat": 40.63141, "lon": 48.64137, "country": "Azerbaijan"}, {"name": "Dolyar", "lat": 40.86278, "lon": 46.03493, "country": "Azerbaijan"}, {"name": "Dzagam", "lat": 40.9033, "lon": 45.88564, "country": "Azerbaijan"}, {"name": "Qasım İsmayılov", "lat": 40.81243, "lon": 46.25938, "country": "Azerbaijan"}, {"name": "Shamkhor", "lat": 40.82975, "lon": 46.0178, "country": "Azerbaijan"}, {"name": "Şirvan", "lat": 39.93778, "lon": 48.929, "country": "Azerbaijan"}, {"name": "Shushi", "lat": 39.76006, "lon": 46.74989, "country": "Azerbaijan"}, {"name": "Gilgilçay", "lat": 41.13932, "lon": 49.09038, "country": "Azerbaijan"}, {"name": "Kyzyl-Burun", "lat": 41.07811, "lon": 49.11564, "country": "Azerbaijan"}, {"name": "Corat", "lat": 40.57176, "lon": 49.70509, "country": "Azerbaijan"}, {"name": "Hacı Zeynalabdin", "lat": 40.62333, "lon": 49.55861, "country": "Azerbaijan"}, {"name": "Sumqayıt", "lat": 40.58972, "lon": 49.66861, "country": "Azerbaijan"}, {"name": "Martakert", "lat": 40.21127, "lon": 46.82135, "country": "Azerbaijan"}, {"name": "Terter", "lat": 40.34201, "lon": 46.93161, "country": "Azerbaijan"}, {"name": "Çatax", "lat": 40.72622, "lon": 45.55919, "country": "Azerbaijan"}, {"name": "Çobansığnaq", "lat": 40.75244, "lon": 45.70645, "country": "Azerbaijan"}, {"name": "Dondar Quşçu", "lat": 40.9539, "lon": 45.61942, "country": "Azerbaijan"}, {"name": "Qaraxanlı", "lat": 41.04358, "lon": 45.65527, "country": "Azerbaijan"}, {"name": "Tovuz", "lat": 40.99249, "lon": 45.62838, "country": "Azerbaijan"}, {"name": "Yanıqlı", "lat": 40.8432, "lon": 45.6803, "country": "Azerbaijan"}, {"name": "Ujar", "lat": 40.51902, "lon": 47.65423, "country": "Azerbaijan"}, {"name": "Yardımlı", "lat": 38.90771, "lon": 48.24052, "country": "Azerbaijan"}, {"name": "Aran", "lat": 40.62528, "lon": 46.97556, "country": "Azerbaijan"}, {"name": "Qaramanlı", "lat": 40.48135, "lon": 46.99339, "country": "Azerbaijan"}, {"name": "Yevlakh", "lat": 40.61832, "lon": 47.15014, "country": "Azerbaijan"}, {"name": "Mincivan", "lat": 39.03023, "lon": 46.72329, "country": "Azerbaijan"}, {"name": "Zangilan", "lat": 39.08371, "lon": 46.65988, "country": "Azerbaijan"}, {"name": "Aliabad", "lat": 41.4829, "lon": 46.63483, "country": "Azerbaijan"}, {"name": "Faldarlı", "lat": 41.46868, "lon": 46.51579, "country": "Azerbaijan"}, {"name": "Mamrux", "lat": 41.54243, "lon": 46.767, "country": "Azerbaijan"}, {"name": "Qandax", "lat": 41.47546, "lon": 46.54128, "country": "Azerbaijan"}, {"name": "Zaqatala", "lat": 41.6316, "lon": 46.64479, "country": "Azerbaijan"}, {"name": "Zardob", "lat": 40.2184, "lon": 47.71214, "country": "Azerbaijan"}, {"name": "Bich’vinta", "lat": 43.16197, "lon": 40.34102, "country": "Georgia"}, {"name": "Dranda", "lat": 42.87167, "lon": 41.15333, "country": "Georgia"}, {"name": "Gagra", "lat": 43.27858, "lon": 40.27124, "country": "Georgia"}, {"name": "Gali", "lat": 42.62655, "lon": 41.73808, "country": "Georgia"}, {"name": "Gantiadi", "lat": 43.38111, "lon": 40.07944, "country": "Georgia"}, {"name": "Gudauta", "lat": 43.10547, "lon": 40.62067, "country": "Georgia"}, {"name": "Kelasuri", "lat": 42.97877, "lon": 41.07067, "country": "Georgia"}, {"name": "Och’amch’ire", "lat": 42.71232, "lon": 41.46863, "country": "Georgia"}, {"name": "P’rimorsk’oe", "lat": 43.09236, "lon": 40.6965, "country": "Georgia"}, {"name": "Sokhumi", "lat": 43.00697, "lon": 40.9893, "country": "Georgia"}, {"name": "Stantsiya Novyy Afon", "lat": 43.08056, "lon": 40.83833, "country": "Georgia"}, {"name": "Tqvarch'eli", "lat": 42.84035, "lon": 41.68007, "country": "Georgia"}, {"name": "Akhaldaba", "lat": 41.65395, "lon": 42.15163, "country": "Georgia"}, {"name": "Batumi", "lat": 41.64228, "lon": 41.63392, "country": "Georgia"}, {"name": "Chakvi", "lat": 41.72528, "lon": 41.73278, "country": "Georgia"}, {"name": "Dioknisi", "lat": 41.62933, "lon": 42.39171, "country": "Georgia"}, {"name": "Khelvachauri", "lat": 41.58556, "lon": 41.66889, "country": "Georgia"}, {"name": "Khulo", "lat": 41.64353, "lon": 42.30397, "country": "Georgia"}, {"name": "Kobuleti", "lat": 41.82143, "lon": 41.77921, "country": "Georgia"}, {"name": "Makhinjauri", "lat": 41.67385, "lon": 41.69401, "country": "Georgia"}, {"name": "Ochkhamuri", "lat": 41.85975, "lon": 41.85309, "country": "Georgia"}, {"name": "Shuakhevi", "lat": 41.63, "lon": 42.19083, "country": "Georgia"}, {"name": "Tsikhisdziri", "lat": 41.76659, "lon": 41.75517, "country": "Georgia"}, {"name": "Lanchkhuti", "lat": 42.09027, "lon": 42.03239, "country": "Georgia"}, {"name": "Naruja", "lat": 41.90694, "lon": 41.95417, "country": "Georgia"}, {"name": "Ozurgeti", "lat": 41.92442, "lon": 42.00682, "country": "Georgia"}, {"name": "Urek’i", "lat": 41.99556, "lon": 41.77861, "country": "Georgia"}, {"name": "Baghdatis Munitsip’alit’et’i", "lat": 42.0, "lon": 42.9, "country": "Georgia"}, {"name": "Chiat’ura", "lat": 42.29806, "lon": 43.29889, "country": "Georgia"}, {"name": "K’alak’i Chiat’ura", "lat": 42.28333, "lon": 43.25, "country": "Georgia"}, {"name": "K’ulashi", "lat": 42.20405, "lon": 42.34289, "country": "Georgia"}, {"name": "Kharagauli", "lat": 42.02137, "lon": 43.19773, "country": "Georgia"}, {"name": "Khoni", "lat": 42.3226, "lon": 42.42061, "country": "Georgia"}, {"name": "Kutaisi", "lat": 42.26791, "lon": 42.69459, "country": "Georgia"}, {"name": "Sach’khere", "lat": 42.34528, "lon": 43.41944, "country": "Georgia"}, {"name": "Samtredia", "lat": 42.1537, "lon": 42.33517, "country": "Georgia"}, {"name": "Shorapani", "lat": 42.0898, "lon": 43.08662, "country": "Georgia"}, {"name": "Tqibuli", "lat": 42.35121, "lon": 42.99874, "country": "Georgia"}, {"name": "Tsqaltubo", "lat": 42.34129, "lon": 42.5976, "country": "Georgia"}, {"name": "Vani", "lat": 42.0832, "lon": 42.52163, "country": "Georgia"}, {"name": "Zestap’oni", "lat": 42.11, "lon": 43.0525, "country": "Georgia"}, {"name": "Akhmeta", "lat": 42.03111, "lon": 45.2075, "country": "Georgia"}, {"name": "Gurjaani", "lat": 41.74292, "lon": 45.80111, "country": "Georgia"}, {"name": "Lagodekhi", "lat": 41.82681, "lon": 46.27667, "country": "Georgia"}, {"name": "Qvareli", "lat": 41.95493, "lon": 45.81716, "country": "Georgia"}, {"name": "Sagarejo", "lat": 41.73397, "lon": 45.33149, "country": "Georgia"}, {"name": "Sighnaghi", "lat": 41.62046, "lon": 45.92198, "country": "Georgia"}, {"name": "Telavi", "lat": 41.91978, "lon": 45.47315, "country": "Georgia"}, {"name": "Tsinandali", "lat": 41.89315, "lon": 45.57129, "country": "Georgia"}, {"name": "Tsnori", "lat": 41.62088, "lon": 45.96943, "country": "Georgia"}, {"name": "Bolnisi", "lat": 41.44794, "lon": 44.53838, "country": "Georgia"}, {"name": "Bolnisis Munitsip’alit’et’i", "lat": 41.36667, "lon": 44.51667, "country": "Georgia"}, {"name": "Didi Lilo", "lat": 41.73611, "lon": 44.96472, "country": "Georgia"}, {"name": "Dmanisis Munitsip’alit’et’i", "lat": 41.35, "lon": 44.13333, "country": "Georgia"}, {"name": "Gardabani", "lat": 41.46054, "lon": 45.09283, "country": "Georgia"}, {"name": "Gardabnis Munitsip’alit’et’i", "lat": 41.61667, "lon": 45.0, "country": "Georgia"}, {"name": "Manglisi", "lat": 41.69698, "lon": 44.38448, "country": "Georgia"}, {"name": "Marneuli", "lat": 41.47588, "lon": 44.80895, "country": "Georgia"}, {"name": "Marneulis Munitsip’alit’et’i", "lat": 41.38333, "lon": 44.85, "country": "Georgia"}, {"name": "Naghvarevi", "lat": 41.35272, "lon": 44.76178, "country": "Georgia"}, {"name": "Rust’avi", "lat": 41.54949, "lon": 44.99323, "country": "Georgia"}, {"name": "T’et’ri Tsqaro", "lat": 41.54448, "lon": 44.46153, "country": "Georgia"}, {"name": "Tetrits’q’alos Munitsip’alit’et’i", "lat": 41.6, "lon": 44.5, "country": "Georgia"}, {"name": "Ts’alk’is Munitsip’alit’et’i", "lat": 41.63333, "lon": 43.96667, "country": "Georgia"}, {"name": "Tsalka", "lat": 41.5946, "lon": 44.08909, "country": "Georgia"}, {"name": "Akhalgori", "lat": 42.12597, "lon": 44.48333, "country": "Georgia"}, {"name": "Dzegvi", "lat": 41.84569, "lon": 44.60097, "country": "Georgia"}, {"name": "Gudauri", "lat": 42.47797, "lon": 44.47616, "country": "Georgia"}, {"name": "Java", "lat": 42.39972, "lon": 43.93667, "country": "Georgia"}, {"name": "Mtskheta", "lat": 41.84514, "lon": 44.71875, "country": "Georgia"}, {"name": "P’asanauri", "lat": 42.3506, "lon": 44.68912, "country": "Georgia"}, {"name": "Step’antsminda", "lat": 42.65667, "lon": 44.64333, "country": "Georgia"}, {"name": "Zhinvali", "lat": 42.13181, "lon": 44.77264, "country": "Georgia"}, {"name": "Ambrolauri", "lat": 42.52111, "lon": 43.16222, "country": "Georgia"}, {"name": "Ambrolauris Munitsip’alit’et’i", "lat": 42.56667, "lon": 43.1, "country": "Georgia"}, {"name": "Lent’ekhi", "lat": 42.78893, "lon": 42.72226, "country": "Georgia"}, {"name": "Oni", "lat": 42.57944, "lon": 43.4425, "country": "Georgia"}, {"name": "Abasha", "lat": 42.2049284, "lon": 42.2033321, "country": "Georgia"}, {"name": "Jvari", "lat": 42.71693, "lon": 42.052, "country": "Georgia"}, {"name": "Khobi", "lat": 42.31558, "lon": 41.89871, "country": "Georgia"}, {"name": "Kveda Chkhorots’q’u", "lat": 42.48103, "lon": 42.09661, "country": "Georgia"}, {"name": "Mart’vili", "lat": 42.41436, "lon": 42.37924, "country": "Georgia"}, {"name": "Mest’ia", "lat": 43.04581, "lon": 42.7278, "country": "Georgia"}, {"name": "Mest’iis Munitsip’alit’et’i", "lat": 43.05, "lon": 42.55, "country": "Georgia"}, {"name": "Orsant’ia", "lat": 42.46777, "lon": 41.67377, "country": "Georgia"}, {"name": "P’ot’i", "lat": 42.14616, "lon": 41.67197, "country": "Georgia"}, {"name": "Senak’i", "lat": 42.27042, "lon": 42.0675, "country": "Georgia"}, {"name": "Tsalenjikha", "lat": 42.60444, "lon": 42.06825, "country": "Georgia"}, {"name": "Zugdidi", "lat": 42.5088, "lon": 41.87088, "country": "Georgia"}, {"name": "Adigeni", "lat": 41.68191, "lon": 42.69867, "country": "Georgia"}, {"name": "Adigeni Municipality", "lat": 41.71667, "lon": 42.73333, "country": "Georgia"}, {"name": "Akhaldaba", "lat": 41.92945, "lon": 43.48762, "country": "Georgia"}, {"name": "Akhalk’alak’i", "lat": 41.40514, "lon": 43.48629, "country": "Georgia"}, {"name": "Akhaltsikhe", "lat": 41.63901, "lon": 42.98262, "country": "Georgia"}, {"name": "Akhaltsikhis Munitsip’alit’et’i", "lat": 41.63333, "lon": 43.0, "country": "Georgia"}, {"name": "Asp’indzis Munitsip’alit’et’i", "lat": 41.5, "lon": 43.25, "country": "Georgia"}, {"name": "Aspindza", "lat": 41.57389, "lon": 43.24826, "country": "Georgia"}, {"name": "Bakuriani", "lat": 41.74972, "lon": 43.5325, "country": "Georgia"}, {"name": "Borjomi", "lat": 41.85272, "lon": 43.41284, "country": "Georgia"}, {"name": "Ninotsminda", "lat": 41.26458, "lon": 43.59161, "country": "Georgia"}, {"name": "Tsaghveri", "lat": 41.80365, "lon": 43.48194, "country": "Georgia"}, {"name": "Vale", "lat": 41.61558, "lon": 42.87224, "country": "Georgia"}, {"name": "Agara", "lat": 42.03761, "lon": 43.82382, "country": "Georgia"}, {"name": "Gori", "lat": 41.98422, "lon": 44.11578, "country": "Georgia"}, {"name": "Goris Munitsip’alit’et’i", "lat": 42.06667, "lon": 44.11667, "country": "Georgia"}, {"name": "Kaspi", "lat": 41.9252, "lon": 44.42568, "country": "Georgia"}, {"name": "Khashuri", "lat": 41.99414, "lon": 43.59994, "country": "Georgia"}, {"name": "Surami", "lat": 42.02431, "lon": 43.55556, "country": "Georgia"}, {"name": "Ts’khinvali", "lat": 42.22764, "lon": 43.96861, "country": "Georgia"}, {"name": "Tbilisi", "lat": 41.69411, "lon": 44.83368, "country": "Georgia"}, {"name": "Vingt Cinq", "lat": -10.38803, "lon": 56.61795, "country": "Mauritius"}, {"name": "Albion", "lat": -20.20814, "lon": 57.40766, "country": "Mauritius"}, {"name": "Bambous", "lat": -20.25667, "lon": 57.40611, "country": "Mauritius"}, {"name": "Black River", "lat": -20.320479, "lon": 57.403725, "country": "Mauritius"}, {"name": "Cascavelle", "lat": -20.28694, "lon": 57.40722, "country": "Mauritius"}, {"name": "Case Noyale", "lat": -20.413704, "lon": 57.369065, "country": "Mauritius"}, {"name": "Chamarel", "lat": -20.425236, "lon": 57.391165, "country": "Mauritius"}, {"name": "Flic en Flac", "lat": -20.27417, "lon": 57.36306, "country": "Mauritius"}, {"name": "Grande Rivière Noire", "lat": -20.36028, "lon": 57.36611, "country": "Mauritius"}, {"name": "Gros Cailloux", "lat": -20.20722, "lon": 57.43, "country": "Mauritius"}, {"name": "La Gaulette", "lat": -20.429388, "lon": 57.358841, "country": "Mauritius"}, {"name": "Le Morne", "lat": -20.444174, "lon": 57.330315, "country": "Mauritius"}, {"name": "Petite Case Noyale", "lat": -20.39306, "lon": 57.365, "country": "Mauritius"}, {"name": "Petite Rivière", "lat": -20.19551, "lon": 57.44592, "country": "Mauritius"}, {"name": "Richelieu", "lat": -20.190849, "lon": 57.461299, "country": "Mauritius"}, {"name": "Tamarin", "lat": -20.32556, "lon": 57.37056, "country": "Mauritius"}, {"name": "Bel Air", "lat": -20.258493, "lon": 57.754987, "country": "Mauritius"}, {"name": "Bel Air Rivière Sèche", "lat": -20.25777, "lon": 57.74976, "country": "Mauritius"}, {"name": "Bon Accueil", "lat": -20.17083, "lon": 57.65639, "country": "Mauritius"}, {"name": "Bramsthan", "lat": -20.212979, "lon": 57.73768, "country": "Mauritius"}, {"name": "Brisée Verdière", "lat": -20.16389, "lon": 57.64667, "country": "Mauritius"}, {"name": "Camp de Masque", "lat": -20.23694, "lon": 57.66333, "country": "Mauritius"}, {"name": "Camp De Masque Pave", "lat": -20.250063, "lon": 57.67997, "country": "Mauritius"}, {"name": "Camp Ithier", "lat": -20.21583, "lon": 57.74556, "country": "Mauritius"}, {"name": "Centre de Flacq", "lat": -20.18972, "lon": 57.71444, "country": "Mauritius"}, {"name": "Clémencia", "lat": -20.26389, "lon": 57.70611, "country": "Mauritius"}, {"name": "Ecroignard", "lat": -20.22611, "lon": 57.73611, "country": "Mauritius"}, {"name": "Grande Retraite", "lat": -20.165077, "lon": 57.694616, "country": "Mauritius"}, {"name": "Grande Rivière Sud Est", "lat": -20.28611, "lon": 57.77583, "country": "Mauritius"}, {"name": "Lalmatie", "lat": -20.18972, "lon": 57.66111, "country": "Mauritius"}, {"name": "Laventure", "lat": -20.14583, "lon": 57.67667, "country": "Mauritius"}, {"name": "Mare La Chaux", "lat": -20.19806, "lon": 57.74944, "country": "Mauritius"}, {"name": "Medine Camp De Masque", "lat": -20.243958, "lon": 57.647035, "country": "Mauritius"}, {"name": "Olivia", "lat": -20.28778, "lon": 57.73097, "country": "Mauritius"}, {"name": "Poste de Flacq", "lat": -20.16306, "lon": 57.73056, "country": "Mauritius"}, {"name": "Quatre Cocos", "lat": -20.20151, "lon": 57.77448, "country": "Mauritius"}, {"name": "Quatre Soeurs", "lat": -20.29917, "lon": 57.77056, "country": "Mauritius"}, {"name": "Queen Victoria", "lat": -20.22, "lon": 57.7075, "country": "Mauritius"}, {"name": "Saint Julien", "lat": -20.22639, "lon": 57.63639, "country": "Mauritius"}, {"name": "Sebastopol", "lat": -20.2907, "lon": 57.68779, "country": "Mauritius"}, {"name": "Trou D'Eau Douce", "lat": -20.234586, "lon": 57.794861, "country": "Mauritius"}, {"name": "Bambous Virieux", "lat": -20.34278, "lon": 57.7575, "country": "Mauritius"}, {"name": "Beau Vallon", "lat": -20.41889, "lon": 57.69528, "country": "Mauritius"}, {"name": "Bois des Amourettes", "lat": -20.36306, "lon": 57.73111, "country": "Mauritius"}, {"name": "Camp Carol", "lat": -20.461785, "lon": 57.678456, "country": "Mauritius"}, {"name": "Cluny", "lat": -20.36694, "lon": 57.60389, "country": "Mauritius"}, {"name": "Grand Bel Air", "lat": -20.409124, "lon": 57.681742, "country": "Mauritius"}, {"name": "Grand Sable", "lat": -20.31417, "lon": 57.76444, "country": "Mauritius"}, {"name": "Mahébourg", "lat": -20.40806, "lon": 57.7, "country": "Mauritius"}, {"name": "Mare D'Albert", "lat": -20.420195, "lon": 57.627288, "country": "Mauritius"}, {"name": "Mare Tabac", "lat": -20.440358, "lon": 57.594215, "country": "Mauritius"}, {"name": "New Grove", "lat": -20.40861, "lon": 57.61361, "country": "Mauritius"}, {"name": "Nouvelle France", "lat": -20.37056, "lon": 57.56111, "country": "Mauritius"}, {"name": "Petit Bel Air", "lat": -20.399412, "lon": 57.692959, "country": "Mauritius"}, {"name": "Plaine Magnien", "lat": -20.42967, "lon": 57.66968, "country": "Mauritius"}, {"name": "Riviere Des Creoles", "lat": -20.39084, "lon": 57.69696, "country": "Mauritius"}, {"name": "Rose Belle", "lat": -20.40028, "lon": 57.59667, "country": "Mauritius"}, {"name": "Saint Hubert", "lat": -20.36417, "lon": 57.63833, "country": "Mauritius"}, {"name": "Seizieme Mille", "lat": -20.342111, "lon": 57.549244, "country": "Mauritius"}, {"name": "Trois Boutiques", "lat": -20.450461, "lon": 57.646829, "country": "Mauritius"}, {"name": "Union Park", "lat": -20.386294, "lon": 57.58068, "country": "Mauritius"}, {"name": "Vieux Grand Port", "lat": -20.374066, "lon": 57.716077, "country": "Mauritius"}, {"name": "Camp Thorel", "lat": -20.21472, "lon": 57.61611, "country": "Mauritius"}, {"name": "Dagotière", "lat": -20.24476, "lon": 57.56188, "country": "Mauritius"}, {"name": "Dubreuil", "lat": -20.30132, "lon": 57.59861, "country": "Mauritius"}, {"name": "L'Avenir", "lat": -20.217142, "lon": 57.550482, "country": "Mauritius"}, {"name": "L'Esperance", "lat": -20.230413, "lon": 57.595268, "country": "Mauritius"}, {"name": "La Laura-Malenga", "lat": -20.203861, "lon": 57.549915, "country": "Mauritius"}, {"name": "Melrose", "lat": -20.26972, "lon": 57.63194, "country": "Mauritius"}, {"name": "Moka", "lat": -20.21889, "lon": 57.49583, "country": "Mauritius"}, {"name": "Montagne Blanche", "lat": -20.28592, "lon": 57.657746, "country": "Mauritius"}, {"name": "Nouvelle Découverte", "lat": -20.186, "lon": 57.590797, "country": "Mauritius"}, {"name": "Pailles", "lat": -20.19271, "lon": 57.48826, "country": "Mauritius"}, {"name": "Providence", "lat": -20.24472, "lon": 57.61222, "country": "Mauritius"}, {"name": "Quartier Militaire", "lat": -20.2479, "lon": 57.59737, "country": "Mauritius"}, {"name": "Ripailles", "lat": -20.194725, "lon": 57.580596, "country": "Mauritius"}, {"name": "Saint Julien D'Hotman", "lat": -20.23067, "lon": 57.640378, "country": "Mauritius"}, {"name": "Saint Pierre", "lat": -20.2175, "lon": 57.52083, "country": "Mauritius"}, {"name": "Verdun", "lat": -20.23417, "lon": 57.55476, "country": "Mauritius"}, {"name": "Arsenal", "lat": -20.10556, "lon": 57.53528, "country": "Mauritius"}, {"name": "Calebasses", "lat": -20.11167, "lon": 57.55389, "country": "Mauritius"}, {"name": "Congomah", "lat": -20.14889, "lon": 57.59083, "country": "Mauritius"}, {"name": "Crève Coeur", "lat": -20.19111, "lon": 57.55722, "country": "Mauritius"}, {"name": "D'Epinay", "lat": -20.130211, "lon": 57.595838, "country": "Mauritius"}, {"name": "Fond du Sac", "lat": -20.04732, "lon": 57.584, "country": "Mauritius"}, {"name": "Le Hochet", "lat": -20.135, "lon": 57.52111, "country": "Mauritius"}, {"name": "Long Mountain", "lat": -20.14306, "lon": 57.56222, "country": "Mauritius"}, {"name": "Morcellement Saint André", "lat": -20.07199, "lon": 57.56833, "country": "Mauritius"}, {"name": "Notre Dame", "lat": -20.14056, "lon": 57.55306, "country": "Mauritius"}, {"name": "Pamplemousses", "lat": -20.10389, "lon": 57.57028, "country": "Mauritius"}, {"name": "Plaine des Papayes", "lat": -20.065, "lon": 57.5725, "country": "Mauritius"}, {"name": "Pointe aux Piments", "lat": -20.06494, "lon": 57.52347, "country": "Mauritius"}, {"name": "Terre Rouge", "lat": -20.12611, "lon": 57.52444, "country": "Mauritius"}, {"name": "Tombeau Bay", "lat": -20.123451, "lon": 57.502184, "country": "Mauritius"}, {"name": "Triolet", "lat": -20.0576, "lon": 57.55025, "country": "Mauritius"}, {"name": "Trou Aux Biches", "lat": -20.031235, "lon": 57.551897, "country": "Mauritius"}, {"name": "Ville Bague", "lat": -20.146045, "lon": 57.624149, "country": "Mauritius"}, {"name": "Beau Bassin", "lat": -20.225387, "lon": 57.471455, "country": "Mauritius"}, {"name": "Beau Bassin-Rose Hill", "lat": -20.23325, "lon": 57.46609, "country": "Mauritius"}, {"name": "Belle Terre", "lat": -20.2694837, "lon": 57.5165553, "country": "Mauritius"}, {"name": "Camp Fouqueraux", "lat": -20.2856863, "lon": 57.5171827, "country": "Mauritius"}, {"name": "Chebel", "lat": -20.2137319, "lon": 57.4607545, "country": "Mauritius"}, {"name": "Coromandel", "lat": -20.1952292, "lon": 57.4456534, "country": "Mauritius"}, {"name": "Curepipe", "lat": -20.31628, "lon": 57.52594, "country": "Mauritius"}, {"name": "Eau Coulee", "lat": -20.303366, "lon": 57.527788, "country": "Mauritius"}, {"name": "Ebene", "lat": -20.24494, "lon": 57.49163, "country": "Mauritius"}, {"name": "Floreal", "lat": -20.311214, "lon": 57.507263, "country": "Mauritius"}, {"name": "Forest Side", "lat": -20.329521, "lon": 57.538981, "country": "Mauritius"}, {"name": "Glen Park", "lat": -20.3244068, "lon": 57.4753188, "country": "Mauritius"}, {"name": "Henrietta", "lat": -20.2720048, "lon": 57.5289887, "country": "Mauritius"}, {"name": "Hermitage", "lat": -20.2768508, "lon": 57.5347137, "country": "Mauritius"}, {"name": "Highlands", "lat": -20.2782748, "lon": 57.5135041, "country": "Mauritius"}, {"name": "Midlands", "lat": -20.31907, "lon": 57.57016, "country": "Mauritius"}, {"name": "Phoenix", "lat": -20.2858446, "lon": 57.5029186, "country": "Mauritius"}, {"name": "Quatre Bornes", "lat": -20.26381, "lon": 57.4791, "country": "Mauritius"}, {"name": "Rose Hill", "lat": -20.243478, "lon": 57.469855, "country": "Mauritius"}, {"name": "Vacoas", "lat": -20.29806, "lon": 57.47833, "country": "Mauritius"}, {"name": "Bell Village", "lat": -20.170497, "lon": 57.486184, "country": "Mauritius"}, {"name": "Caudan Waterfront", "lat": -20.1608988, "lon": 57.4977256, "country": "Mauritius"}, {"name": "China Town", "lat": -20.158797, "lon": 57.506789, "country": "Mauritius"}, {"name": "Les Pailles", "lat": -20.193527, "lon": 57.489629, "country": "Mauritius"}, {"name": "Les Salines", "lat": -20.160168, "lon": 57.489041, "country": "Mauritius"}, {"name": "Plaine Verte", "lat": -20.15841, "lon": 57.514215, "country": "Mauritius"}, {"name": "Pointe aux Sables", "lat": -20.171687, "lon": 57.453893, "country": "Mauritius"}, {"name": "Port Louis", "lat": -20.16194, "lon": 57.49889, "country": "Mauritius"}, {"name": "Soreze", "lat": -20.208561, "lon": 57.486382, "country": "Mauritius"}, {"name": "Tour Koenig", "lat": -20.178646, "lon": 57.468721, "country": "Mauritius"}, {"name": "Tranquebar", "lat": -20.176816, "lon": 57.511329, "country": "Mauritius"}, {"name": "Vallée des Prêtres", "lat": -20.165147, "lon": 57.534039, "country": "Mauritius"}, {"name": "Vallee Pitot", "lat": -20.1692, "lon": 57.51997, "country": "Mauritius"}, {"name": "Amaury", "lat": -20.13083, "lon": 57.65917, "country": "Mauritius"}, {"name": "Amitié Gokoola", "lat": -20.106883, "lon": 57.654728, "country": "Mauritius"}, {"name": "Cap Malheureux", "lat": -19.98417, "lon": 57.61417, "country": "Mauritius"}, {"name": "Cottage", "lat": -20.05972, "lon": 57.62917, "country": "Mauritius"}, {"name": "Espérance Trébuchet", "lat": -20.06972, "lon": 57.64194, "country": "Mauritius"}, {"name": "Goodlands", "lat": -20.03841, "lon": 57.65055, "country": "Mauritius"}, {"name": "Grand Baie", "lat": -20.01816, "lon": 57.58015, "country": "Mauritius"}, {"name": "Grand Gaube", "lat": -20.00639, "lon": 57.66083, "country": "Mauritius"}, {"name": "Mapou", "lat": -20.07583, "lon": 57.60139, "country": "Mauritius"}, {"name": "Petit Raffray", "lat": -20.02022, "lon": 57.62296, "country": "Mauritius"}, {"name": "Piton", "lat": -20.09028, "lon": 57.63028, "country": "Mauritius"}, {"name": "Plaines des Roches", "lat": -20.11167, "lon": 57.69083, "country": "Mauritius"}, {"name": "Poudre D'Or", "lat": -20.061627, "lon": 57.682971, "country": "Mauritius"}, {"name": "Poudre D'Or Hamlet", "lat": -20.081024, "lon": 57.652726, "country": "Mauritius"}, {"name": "Rivière du Rempart", "lat": -20.10306, "lon": 57.68472, "country": "Mauritius"}, {"name": "Roche Terre", "lat": -20.01861, "lon": 57.64472, "country": "Mauritius"}, {"name": "Roches Noire", "lat": -20.11111, "lon": 57.71222, "country": "Mauritius"}, {"name": "The Vale", "lat": -20.03018, "lon": 57.60219, "country": "Mauritius"}, {"name": "Baie aux Huîtres", "lat": -19.69444, "lon": 63.40833, "country": "Mauritius"}, {"name": "Port Mathurin", "lat": -19.68333, "lon": 63.41667, "country": "Mauritius"}, {"name": "Cargados Carajos", "lat": -16.60329, "lon": 59.65851, "country": "Mauritius"}, {"name": "Baie Du Cap", "lat": -20.486644, "lon": 57.378815, "country": "Mauritius"}, {"name": "Bel Ombre", "lat": -20.501919, "lon": 57.425507, "country": "Mauritius"}, {"name": "Benares", "lat": -20.484407, "lon": 57.588717, "country": "Mauritius"}, {"name": "Bois Cheri", "lat": -20.426671, "lon": 57.534252, "country": "Mauritius"}, {"name": "Britannia", "lat": -20.448655, "lon": 57.563407, "country": "Mauritius"}, {"name": "Camp Diable", "lat": -20.46278, "lon": 57.57889, "country": "Mauritius"}, {"name": "Chamouny", "lat": -20.48222, "lon": 57.46611, "country": "Mauritius"}, {"name": "Chemin Grenier", "lat": -20.48722, "lon": 57.46556, "country": "Mauritius"}, {"name": "Grand Bois", "lat": -20.41889, "lon": 57.54417, "country": "Mauritius"}, {"name": "L'Escalier", "lat": -20.473335, "lon": 57.618676, "country": "Mauritius"}, {"name": "La Flora", "lat": -20.410005, "lon": 57.560487, "country": "Mauritius"}, {"name": "Rivière des Anguilles", "lat": -20.48528, "lon": 57.55083, "country": "Mauritius"}, {"name": "Rivière Du Poste", "lat": -20.428662, "lon": 57.573681, "country": "Mauritius"}, {"name": "Saint Aubin", "lat": -20.496, "lon": 57.55, "country": "Mauritius"}, {"name": "Souillac", "lat": -20.51667, "lon": 57.51667, "country": "Mauritius"}, {"name": "St Aubin", "lat": -20.494446, "lon": 57.550335, "country": "Mauritius"}, {"name": "Surinam", "lat": -20.50972, "lon": 57.50528, "country": "Mauritius"}, {"name": "Adam", "lat": 22.37934, "lon": 57.52718, "country": "Oman"}, {"name": "Bahlā’", "lat": 22.97886, "lon": 57.3047, "country": "Oman"}, {"name": "Bidbid", "lat": 23.40787, "lon": 58.1283, "country": "Oman"}, {"name": "Izkī", "lat": 22.93333, "lon": 57.76667, "country": "Oman"}, {"name": "Nizwá", "lat": 22.93333, "lon": 57.53333, "country": "Oman"}, {"name": "Sufālat Samā’il", "lat": 23.31667, "lon": 58.01667, "country": "Oman"}, {"name": "‘Ibrī", "lat": 23.22573, "lon": 56.51572, "country": "Oman"}, {"name": "Yanqul", "lat": 23.58645, "lon": 56.53969, "country": "Oman"}, {"name": "Al Khābūrah", "lat": 23.97144, "lon": 57.09313, "country": "Oman"}, {"name": "As Suwayq", "lat": 23.84944, "lon": 57.43861, "country": "Oman"}, {"name": "Liwá", "lat": 24.53077, "lon": 56.563, "country": "Oman"}, {"name": "Şaḩam", "lat": 24.17222, "lon": 56.88861, "country": "Oman"}, {"name": "Shināş", "lat": 24.7426, "lon": 56.46698, "country": "Oman"}, {"name": "Sohar", "lat": 24.34745, "lon": 56.70937, "country": "Oman"}, {"name": "Barkā’", "lat": 23.67872, "lon": 57.88605, "country": "Oman"}, {"name": "Bayt al ‘Awābī", "lat": 23.30324, "lon": 57.52459, "country": "Oman"}, {"name": "Oman Smart Future City", "lat": 23.6527, "lon": 57.59926, "country": "Oman"}, {"name": "Rustaq", "lat": 23.39083, "lon": 57.42444, "country": "Oman"}, {"name": "Al Buraymī", "lat": 24.25088, "lon": 55.79312, "country": "Oman"}, {"name": "Haymā’", "lat": 19.95931, "lon": 56.27575, "country": "Oman"}, {"name": "Sur", "lat": 22.56667, "lon": 59.52889, "country": "Oman"}, {"name": "Şalālah", "lat": 17.01505, "lon": 54.09237, "country": "Oman"}, {"name": "Dib Dibba", "lat": 26.19778, "lon": 56.25778, "country": "Oman"}, {"name": "Khasab", "lat": 26.17993, "lon": 56.24774, "country": "Oman"}, {"name": "Madḩā’ al Jadīdah", "lat": 25.28345, "lon": 56.3328, "country": "Oman"}, {"name": "Bawshar", "lat": 23.57769, "lon": 58.39982, "country": "Oman"}, {"name": "Muscat", "lat": 23.58413, "lon": 58.40778, "country": "Oman"}, {"name": "Seeb", "lat": 23.67027, "lon": 58.18911, "country": "Oman"}, {"name": "Bras-Panon", "lat": -21.0315816, "lon": 55.5441634, "country": "Reunion"}, {"name": "La Plaine-des-Palmistes", "lat": -21.1529507, "lon": 55.5618014, "country": "Reunion"}, {"name": "Saint-André", "lat": -20.9567727, "lon": 55.5548674, "country": "Reunion"}, {"name": "Saint-Benoît", "lat": -21.0885946, "lon": 55.4664076, "country": "Reunion"}, {"name": "Sainte-Rose", "lat": -21.1778289, "lon": 55.6593981, "country": "Reunion"}, {"name": "Salazie", "lat": -21.0524097, "lon": 55.4321337, "country": "Reunion"}, {"name": "Saint-Denis", "lat": -20.9645672, "lon": 55.418353, "country": "Reunion"}, {"name": "Sainte-Marie", "lat": -20.9462842, "lon": 55.4409587, "country": "Reunion"}, {"name": "Sainte-Suzanne", "lat": -20.9506379, "lon": 55.5111475, "country": "Reunion"}, {"name": "La Possession", "lat": -20.9966715, "lon": 55.3094196, "country": "Reunion"}, {"name": "Le Port", "lat": -20.9459981, "lon": 55.2625839, "country": "Reunion"}, {"name": "Les Trois-Bassins", "lat": -21.1138065, "lon": 55.2553467, "country": "Reunion"}, {"name": "Saint-Leu", "lat": -21.1815374, "lon": 55.2607553, "country": "Reunion"}, {"name": "Saint-Paul", "lat": -21.0365634, "lon": 55.1754223, "country": "Reunion"}, {"name": "Cilaos", "lat": -21.1402675, "lon": 55.3731415, "country": "Reunion"}, {"name": "Entre-Deux", "lat": -21.2107387, "lon": 55.4112594, "country": "Reunion"}, {"name": "L'Étang-Salé", "lat": -21.2347408, "lon": 55.3163686, "country": "Reunion"}, {"name": "Le Tampon", "lat": -21.2250092, "lon": 55.4876541, "country": "Reunion"}, {"name": "Les Avirons", "lat": -21.2018683, "lon": 55.3216609, "country": "Reunion"}, {"name": "Petite-Île", "lat": -21.3329678, "lon": 55.5294205, "country": "Reunion"}, {"name": "Saint-Joseph", "lat": -21.2921186, "lon": 55.5616173, "country": "Reunion"}, {"name": "Saint-Louis", "lat": -21.2254829, "lon": 55.340044, "country": "Reunion"}, {"name": "Saint-Philippe", "lat": -21.308375, "lon": 55.6611834, "country": "Reunion"}, {"name": "Saint-Pierre", "lat": -21.3089303, "lon": 55.3395313, "country": "Reunion"}, {"name": "Aksarayskiy", "lat": 46.79244, "lon": 48.01188, "country": "Russia"}, {"name": "Astrakhan", "lat": 46.34968, "lon": 48.04076, "country": "Russia"}, {"name": "Chyorny Yar", "lat": 48.06242, "lon": 46.10911, "country": "Russia"}, {"name": "Ikryanoye", "lat": 46.09323, "lon": 47.73078, "country": "Russia"}, {"name": "Kapustin Yar", "lat": 48.58175, "lon": 45.74481, "country": "Russia"}, {"name": "Karalat", "lat": 45.91555, "lon": 48.30683, "country": "Russia"}, {"name": "Kirovskiy", "lat": 45.84639, "lon": 48.12472, "country": "Russia"}, {"name": "Krasnyy Yar", "lat": 46.53314, "lon": 48.34559, "country": "Russia"}, {"name": "Krasnyye Barrikady", "lat": 46.2045, "lon": 47.8535, "country": "Russia"}, {"name": "Liman", "lat": 45.78457, "lon": 47.22405, "country": "Russia"}, {"name": "Marfino", "lat": 46.40852, "lon": 48.71398, "country": "Russia"}, {"name": "Mumra", "lat": 45.77251, "lon": 47.65398, "country": "Russia"}, {"name": "Narimanov", "lat": 46.6927, "lon": 47.8498, "country": "Russia"}, {"name": "Nizhniy Baskunchak", "lat": 48.21978, "lon": 46.83105, "country": "Russia"}, {"name": "Oranzherei", "lat": 45.84756, "lon": 47.56635, "country": "Russia"}, {"name": "Poldnëvoye", "lat": 45.85568, "lon": 47.95241, "country": "Russia"}, {"name": "Sasykoli", "lat": 47.55153, "lon": 46.99679, "country": "Russia"}, {"name": "Sizyy Bugor", "lat": 46.21343, "lon": 48.50462, "country": "Russia"}, {"name": "Solyanka", "lat": 46.3889, "lon": 48.01755, "country": "Russia"}, {"name": "Starokucherganovka", "lat": 46.32476, "lon": 47.9555, "country": "Russia"}, {"name": "Tambovka", "lat": 47.31528, "lon": 47.37773, "country": "Russia"}, {"name": "Trudfront", "lat": 45.9346, "lon": 47.66929, "country": "Russia"}, {"name": "Tumak", "lat": 46.23436, "lon": 48.50627, "country": "Russia"}, {"name": "Uvary", "lat": 46.04575, "lon": 48.03558, "country": "Russia"}, {"name": "Verkhniy Baskunchak", "lat": 48.22564, "lon": 46.72169, "country": "Russia"}, {"name": "Volgo-Kaspiyskiy", "lat": 46.20306, "lon": 47.91869, "country": "Russia"}, {"name": "Volodarskiy", "lat": 46.40134, "lon": 48.54093, "country": "Russia"}, {"name": "Yaksatovo", "lat": 46.24343, "lon": 48.01514, "country": "Russia"}, {"name": "Yandyki", "lat": 45.76913, "lon": 47.12577, "country": "Russia"}, {"name": "Yenotayevka", "lat": 47.24559, "lon": 47.02814, "country": "Russia"}, {"name": "Zenzeli", "lat": 45.92407, "lon": 47.04739, "country": "Russia"}, {"name": "Znamensk", "lat": 48.5842, "lon": 45.7338, "country": "Russia"}, {"name": "Bakhilovo", "lat": 53.4011, "lon": 49.636, "country": "Russia"}, {"name": "Balasheyka", "lat": 53.2841, "lon": 48.0851, "country": "Russia"}, {"name": "Berëza", "lat": 53.51833, "lon": 50.13967, "country": "Russia"}, {"name": "Bezenchuk", "lat": 52.982, "lon": 49.4333, "country": "Russia"}, {"name": "Chapayevsk", "lat": 52.9771, "lon": 49.7086, "country": "Russia"}, {"name": "Chelno-Vershiny", "lat": 54.4148, "lon": 51.08594, "country": "Russia"}, {"name": "Dubovyy Umët", "lat": 52.97629, "lon": 50.28569, "country": "Russia"}, {"name": "Georgiyevka", "lat": 53.27438, "lon": 50.99848, "country": "Russia"}, {"name": "Kamyshla", "lat": 54.11693, "lon": 52.14262, "country": "Russia"}, {"name": "Khryashchevka", "lat": 53.8119, "lon": 49.0916, "country": "Russia"}, {"name": "Khvorostyanka", "lat": 52.6096, "lon": 48.9597, "country": "Russia"}, {"name": "Klyavlino", "lat": 54.26491, "lon": 52.02674, "country": "Russia"}, {"name": "Koshki", "lat": 54.20914, "lon": 50.46767, "country": "Russia"}, {"name": "Krasnoarmeyskoye", "lat": 52.71994, "lon": 50.03122, "country": "Russia"}, {"name": "Krasnyy Yar", "lat": 53.49988, "lon": 50.39312, "country": "Russia"}, {"name": "Krotovka", "lat": 53.2858, "lon": 51.1686, "country": "Russia"}, {"name": "Kurumoch", "lat": 53.48963, "lon": 50.03748, "country": "Russia"}, {"name": "Mayskoye", "lat": 52.27244, "lon": 50.03383, "country": "Russia"}, {"name": "Mezhdurechensk", "lat": 53.2665, "lon": 49.1116, "country": "Russia"}, {"name": "Mirnyy", "lat": 53.50642, "lon": 50.27658, "country": "Russia"}, {"name": "Neftegorsk", "lat": 52.802, "lon": 51.166, "country": "Russia"}, {"name": "Novosemeykino", "lat": 53.37056, "lon": 50.35428, "country": "Russia"}, {"name": "Novyy Buyan", "lat": 53.68611, "lon": 50.04691, "country": "Russia"}, {"name": "Obsharovka", "lat": 53.125, "lon": 48.85306, "country": "Russia"}, {"name": "Osinki", "lat": 52.8432, "lon": 49.5132, "country": "Russia"}, {"name": "Otradnyy", "lat": 53.37596, "lon": 51.3452, "country": "Russia"}, {"name": "Perevoloki", "lat": 53.2458, "lon": 49.1793, "country": "Russia"}, {"name": "Petra-Dubrava", "lat": 53.29613, "lon": 50.36554, "country": "Russia"}, {"name": "Podsolnechnoye", "lat": 53.15, "lon": 52.0191, "country": "Russia"}, {"name": "Podstepki", "lat": 53.5151, "lon": 49.1355, "country": "Russia"}, {"name": "Pokhvistnevo", "lat": 53.65237, "lon": 52.12738, "country": "Russia"}, {"name": "Povolzhskiy", "lat": 53.5854, "lon": 49.7629, "country": "Russia"}, {"name": "Pribrezhnyy", "lat": 53.48662, "lon": 49.85836, "country": "Russia"}, {"name": "Roschinskiy", "lat": 53.05111, "lon": 50.49667, "country": "Russia"}, {"name": "Rozhdestveno", "lat": 53.23745, "lon": 50.05971, "country": "Russia"}, {"name": "Sernovodsk", "lat": 53.92293, "lon": 51.25704, "country": "Russia"}, {"name": "Smyshlyayevka", "lat": 53.23913, "lon": 50.39072, "country": "Russia"}, {"name": "Spiridonovka", "lat": 53.09248, "lon": 50.64621, "country": "Russia"}, {"name": "Sukhodol", "lat": 53.90063, "lon": 51.2117, "country": "Russia"}, {"name": "Surgut", "lat": 53.92498, "lon": 51.20348, "country": "Russia"}, {"name": "Syzran’", "lat": 53.1585, "lon": 48.4681, "country": "Russia"}, {"name": "Tol’yatti", "lat": 53.5303, "lon": 49.3461, "country": "Russia"}, {"name": "Utevka", "lat": 52.9035, "lon": 50.9495, "country": "Russia"}, {"name": "Varlamovo", "lat": 53.1897, "lon": 48.4226, "country": "Russia"}, {"name": "Volzhskiy", "lat": 53.43058, "lon": 50.119, "country": "Russia"}, {"name": "Yelkhovka", "lat": 53.86668, "lon": 50.28319, "country": "Russia"}, {"name": "Zhiguli", "lat": 53.3579, "lon": 49.301, "country": "Russia"}, {"name": "Zol’noye", "lat": 53.4421, "lon": 49.7978, "country": "Russia"}, {"name": "Aleksandrov Gay", "lat": 50.14704, "lon": 48.57037, "country": "Russia"}, {"name": "Alekseyevka", "lat": 52.30583, "lon": 48.02611, "country": "Russia"}, {"name": "Atkarsk", "lat": 51.87185, "lon": 45.00775, "country": "Russia"}, {"name": "Baltay", "lat": 52.46525, "lon": 46.63081, "country": "Russia"}, {"name": "Bol’shoy Karay", "lat": 51.60542, "lon": 42.69006, "country": "Russia"}, {"name": "Cherkasskoye", "lat": 52.42895, "lon": 47.21048, "country": "Russia"}, {"name": "Dergachi", "lat": 51.2328, "lon": 48.7659, "country": "Russia"}, {"name": "Engel’s", "lat": 51.48389, "lon": 46.10528, "country": "Russia"}, {"name": "Ivanteyevka", "lat": 52.2667, "lon": 49.1055, "country": "Russia"}, {"name": "Kalininsk", "lat": 51.5, "lon": 44.4758, "country": "Russia"}, {"name": "Kamenskiy", "lat": 50.88547, "lon": 45.48801, "country": "Russia"}, {"name": "Khvalynsk", "lat": 52.4906, "lon": 48.1058, "country": "Russia"}, {"name": "Khvatovka", "lat": 52.35236, "lon": 46.56282, "country": "Russia"}, {"name": "Kormëzhka", "lat": 51.9005, "lon": 48.0163, "country": "Russia"}, {"name": "Krasnoarmeysk", "lat": 51.02389, "lon": 45.69694, "country": "Russia"}, {"name": "Krasnyy Oktyabr’", "lat": 51.54018, "lon": 45.70382, "country": "Russia"}, {"name": "Krasnyy Yar", "lat": 51.62917, "lon": 46.42167, "country": "Russia"}, {"name": "Lysyye Gory", "lat": 51.55063, "lon": 44.84144, "country": "Russia"}, {"name": "Mokrous", "lat": 51.2373, "lon": 47.5137, "country": "Russia"}, {"name": "Novouzensk", "lat": 50.45917, "lon": 48.14306, "country": "Russia"}, {"name": "Perelyub", "lat": 51.86292, "lon": 50.35412, "country": "Russia"}, {"name": "Pinerovka", "lat": 51.562, "lon": 43.0689, "country": "Russia"}, {"name": "Podlesnoye", "lat": 51.8161, "lon": 47.009, "country": "Russia"}, {"name": "Privolzhskiy", "lat": 51.40944, "lon": 46.04833, "country": "Russia"}, {"name": "Privolzhskoye", "lat": 51.69194, "lon": 46.72361, "country": "Russia"}, {"name": "Pushkino", "lat": 51.235, "lon": 46.97417, "country": "Russia"}, {"name": "Repnoye", "lat": 51.5921, "lon": 43.1861, "country": "Russia"}, {"name": "Romanovka", "lat": 51.74427, "lon": 42.7527, "country": "Russia"}, {"name": "Rovnoye", "lat": 50.7765, "lon": 46.05085, "country": "Russia"}, {"name": "Rtishchevo", "lat": 52.26041, "lon": 43.78745, "country": "Russia"}, {"name": "Samoylovka", "lat": 51.184, "lon": 43.7081, "country": "Russia"}, {"name": "Sennoy", "lat": 52.1509, "lon": 46.96309, "country": "Russia"}, {"name": "Shikhany", "lat": 52.11776, "lon": 47.1986, "country": "Russia"}, {"name": "Shumeyka", "lat": 51.56361, "lon": 46.24833, "country": "Russia"}, {"name": "Sinodskoye", "lat": 51.9918, "lon": 46.67009, "country": "Russia"}, {"name": "Sokolovyy", "lat": 51.56857, "lon": 45.83312, "country": "Russia"}, {"name": "Sovetskoye", "lat": 51.44255, "lon": 46.7424, "country": "Russia"}, {"name": "Staryye Ozinki", "lat": 51.1786, "lon": 49.6769, "country": "Russia"}, {"name": "Stepnoye", "lat": 51.37972, "lon": 46.84917, "country": "Russia"}, {"name": "Svetlyy", "lat": 51.6737, "lon": 45.63054, "country": "Russia"}, {"name": "Svobodnyy", "lat": 52.33039, "lon": 46.37122, "country": "Russia"}, {"name": "Tersa", "lat": 52.08671, "lon": 47.53936, "country": "Russia"}, {"name": "Turki", "lat": 51.98703, "lon": 43.2731, "country": "Russia"}, {"name": "Voskresenskoye", "lat": 51.82478, "lon": 46.93508, "country": "Russia"}, {"name": "Yekaterinovka", "lat": 52.05083, "lon": 44.34515, "country": "Russia"}, {"name": "Yelshanka", "lat": 51.81389, "lon": 46.39972, "country": "Russia"}, {"name": "Alnashi", "lat": 56.18738, "lon": 52.47919, "country": "Russia"}, {"name": "Balezino", "lat": 57.9787, "lon": 53.0138, "country": "Russia"}, {"name": "Debesy", "lat": 57.6515, "lon": 53.8089, "country": "Russia"}, {"name": "Fakel", "lat": 57.631, "lon": 53.0251, "country": "Russia"}, {"name": "Grakhovo", "lat": 56.05017, "lon": 51.96758, "country": "Russia"}, {"name": "Igra", "lat": 57.5549, "lon": 53.0544, "country": "Russia"}, {"name": "Kama", "lat": 56.30512, "lon": 54.09361, "country": "Russia"}, {"name": "Kambarka", "lat": 56.2666, "lon": 54.2056, "country": "Russia"}, {"name": "Karakulino", "lat": 56.012, "lon": 53.70669, "country": "Russia"}, {"name": "Kez", "lat": 57.8957, "lon": 53.7132, "country": "Russia"}, {"name": "Khokhryaki", "lat": 56.91561, "lon": 53.3221, "country": "Russia"}, {"name": "Kiyasovo", "lat": 56.34907, "lon": 53.12439, "country": "Russia"}, {"name": "Kizner", "lat": 56.27489, "lon": 51.508, "country": "Russia"}, {"name": "Krasnogorskoye", "lat": 57.7047, "lon": 52.4999, "country": "Russia"}, {"name": "Malaya Purga", "lat": 56.55666, "lon": 53.00434, "country": "Russia"}, {"name": "Pirogovo", "lat": 56.77959, "lon": 53.14954, "country": "Russia"}, {"name": "Pudem", "lat": 58.3047, "lon": 52.1673, "country": "Russia"}, {"name": "Pychas", "lat": 56.50332, "lon": 52.44088, "country": "Russia"}, {"name": "Sarapul", "lat": 56.47633, "lon": 53.79782, "country": "Russia"}, {"name": "Selty", "lat": 57.3132, "lon": 52.1345, "country": "Russia"}, {"name": "Sharkan", "lat": 57.29885, "lon": 53.87122, "country": "Russia"}, {"name": "Sigayevo", "lat": 56.42163, "lon": 53.77566, "country": "Russia"}, {"name": "Syumsi", "lat": 57.11108, "lon": 51.61494, "country": "Russia"}, {"name": "Uva", "lat": 56.99081, "lon": 52.18517, "country": "Russia"}, {"name": "Vavozh", "lat": 56.77513, "lon": 51.93098, "country": "Russia"}, {"name": "Votkinsk", "lat": 57.04865, "lon": 53.98717, "country": "Russia"}, {"name": "Yar", "lat": 58.2458, "lon": 52.1054, "country": "Russia"}, {"name": "Yukamenskoye", "lat": 57.8878, "lon": 52.245, "country": "Russia"}, {"name": "Cherdakly", "lat": 54.3594, "lon": 48.84497, "country": "Russia"}, {"name": "Chufarovo", "lat": 54.0963, "lon": 47.3367, "country": "Russia"}, {"name": "Dimitrovgrad", "lat": 54.21386, "lon": 49.61838, "country": "Russia"}, {"name": "Glotovka", "lat": 53.94906, "lon": 46.70422, "country": "Russia"}, {"name": "Ignatovka", "lat": 53.94787, "lon": 47.6536, "country": "Russia"}, {"name": "Imeni Vladimira Il’icha Lenina", "lat": 53.56422, "lon": 46.9801, "country": "Russia"}, {"name": "Izmaylovo", "lat": 53.72114, "lon": 47.24581, "country": "Russia"}, {"name": "Kanadey", "lat": 53.16786, "lon": 47.52644, "country": "Russia"}, {"name": "Krasnyy Gulyay", "lat": 54.02821, "lon": 48.33327, "country": "Russia"}, {"name": "Kuzovatovo", "lat": 53.54681, "lon": 47.68659, "country": "Russia"}, {"name": "Mirnyy", "lat": 54.36607, "lon": 48.72939, "country": "Russia"}, {"name": "Mullovka", "lat": 54.2, "lon": 49.4, "country": "Russia"}, {"name": "Novaya Mayna", "lat": 54.15, "lon": 49.75, "country": "Russia"}, {"name": "Novocheremshansk", "lat": 54.35714, "lon": 50.16662, "country": "Russia"}, {"name": "Pavlovka", "lat": 52.68966, "lon": 47.14046, "country": "Russia"}, {"name": "Sengiley", "lat": 53.96222, "lon": 48.79444, "country": "Russia"}, {"name": "Silikatnyy", "lat": 53.98957, "lon": 48.32749, "country": "Russia"}, {"name": "Starotimoshkino", "lat": 53.71908, "lon": 47.53116, "country": "Russia"}, {"name": "Surskoye", "lat": 54.4821, "lon": 46.7214, "country": "Russia"}, {"name": "Tsil’na", "lat": 54.59533, "lon": 48.1414, "country": "Russia"}, {"name": "Ulyanovsk", "lat": 54.32824, "lon": 48.38657, "country": "Russia"}, {"name": "Undory", "lat": 54.60849, "lon": 48.39276, "country": "Russia"}, {"name": "Yazykovo", "lat": 54.2922, "lon": 47.3891, "country": "Russia"}, {"name": "Zhadovka", "lat": 53.57464, "lon": 46.94985, "country": "Russia"}, {"name": "Anse Boileau", "lat": -4.71667, "lon": 55.48333, "country": "Seychelles"}, {"name": "Anse Etoile", "lat": -4.59166667, "lon": 55.45, "country": "Seychelles"}, {"name": "Anse Royale", "lat": -4.73333, "lon": 55.51667, "country": "Seychelles"}, {"name": "Beau Vallon", "lat": -4.62091, "lon": 55.43015, "country": "Seychelles"}, {"name": "Bel Ombre", "lat": -4.61667, "lon": 55.41667, "country": "Seychelles"}, {"name": "Cascade", "lat": -4.66667, "lon": 55.5, "country": "Seychelles"}, {"name": "Victoria", "lat": -4.62001, "lon": 55.45501, "country": "Seychelles"}, {"name": "Port Glaud", "lat": -4.66667, "lon": 55.41667, "country": "Seychelles"}, {"name": "Takamaka", "lat": -4.76667, "lon": 55.5, "country": "Seychelles"}, {"name": "Abu Dhabi", "lat": 24.41361, "lon": 54.43295, "country": "United Arab Emirates"}, {"name": "Al Ain City", "lat": 24.19167, "lon": 55.76056, "country": "United Arab Emirates"}, {"name": "Al Dhafra", "lat": 23.65745, "lon": 53.72225, "country": "United Arab Emirates"}, {"name": "Bani Yas City", "lat": 24.30978, "lon": 54.62944, "country": "United Arab Emirates"}, {"name": "Ghayathi", "lat": 23.9045342, "lon": 52.5871026, "country": "United Arab Emirates"}, {"name": "Khalifa City", "lat": 24.42588, "lon": 54.605, "country": "United Arab Emirates"}, {"name": "Liwa Oasis", "lat": 22.8697255, "lon": 53.2408608, "country": "United Arab Emirates"}, {"name": "Mussafah", "lat": 24.35893, "lon": 54.48267, "country": "United Arab Emirates"}, {"name": "Muzayri‘", "lat": 23.14355, "lon": 53.7881, "country": "United Arab Emirates"}, {"name": "Ruwais", "lat": 24.11028, "lon": 52.73056, "country": "United Arab Emirates"}, {"name": "Zayed City", "lat": 23.65416, "lon": 53.70522, "country": "United Arab Emirates"}, {"name": "Ajman", "lat": 25.40328, "lon": 55.52341, "country": "United Arab Emirates"}, {"name": "Manama", "lat": 25.32568, "lon": 56.00259, "country": "United Arab Emirates"}, {"name": "Masfut", "lat": 24.83982, "lon": 56.05158, "country": "United Arab Emirates"}, {"name": "Dubai", "lat": 25.0657, "lon": 55.17128, "country": "United Arab Emirates"}, {"name": "Dibba Al Fujairah", "lat": 25.5858, "lon": 56.24792, "country": "United Arab Emirates"}, {"name": "Dibba Al-Fujairah", "lat": 25.59246, "lon": 56.26176, "country": "United Arab Emirates"}, {"name": "Dibba Al-Hisn", "lat": 25.61955, "lon": 56.27291, "country": "United Arab Emirates"}, {"name": "Fujairah", "lat": 25.11641, "lon": 56.34141, "country": "United Arab Emirates"}, {"name": "Ras Al Khaimah", "lat": 25.46116, "lon": 56.04058, "country": "United Arab Emirates"}, {"name": "Al Batayih", "lat": 25.22317, "lon": 55.74272, "country": "United Arab Emirates"}, {"name": "Al Dhaid", "lat": 25.28812, "lon": 55.88157, "country": "United Arab Emirates"}, {"name": "Al Hamriyah", "lat": 25.46121, "lon": 55.54813, "country": "United Arab Emirates"}, {"name": "Al Madam", "lat": 24.95536, "lon": 55.7682, "country": "United Arab Emirates"}, {"name": "Kalba", "lat": 24.99816, "lon": 56.27207, "country": "United Arab Emirates"}, {"name": "Khor Fakkan", "lat": 25.33966, "lon": 56.3028, "country": "United Arab Emirates"}, {"name": "Milehah", "lat": 25.10097, "lon": 55.91282, "country": "United Arab Emirates"}, {"name": "Murbaḩ", "lat": 25.27623, "lon": 56.36256, "country": "United Arab Emirates"}, {"name": "Sharjah", "lat": 25.33737, "lon": 55.41206, "country": "United Arab Emirates"}, {"name": "Umm AL Quwain", "lat": 25.49326, "lon": 55.7352, "country": "United Arab Emirates"}]