[{"name": "Bamboo Flat", "lat": 11.7, "lon": 92.71667}, {"name": "Nicobar", "lat": 7.03002, "lon": 93.79028}, {"name": "Port Blair", "lat": 11.66613, "lon": 92.74635}, {"name": "South Andaman", "lat": 10.75776, "lon": 92.52136}, {"name": "Addanki", "lat": 15.81061, "lon": 79.97338}, {"name": "Adoni", "lat": 15.62788, "lon": 77.27495}, {"name": "Akasahebpet", "lat": 17.50455, "lon": 82.56597}, {"name": "Akividu", "lat": 16.58225, "lon": 81.38112}, {"name": "Akkarampalle", "lat": 13.65, "lon": 79.42}, {"name": "Amalapuram", "lat": 16.57868, "lon": 82.00609}, {"name": "Amudalavalasa", "lat": 18.41025, "lon": 83.90295}, {"name": "Anakapalle", "lat": 17.69134, "lon": 83.00395}, {"name": "Anantapur", "lat": 14.55, "lon": 77.41667}, {"name": "Atmakur", "lat": 15.88109, "lon": 78.58704}, {"name": "Attili", "lat": 16.7, "lon": 81.6}, {"name": "Avanigadda", "lat": 16.02148, "lon": 80.91808}, {"name": "Badvel", "lat": 14.7451, "lon": 79.06288}, {"name": "Banganapalle", "lat": 15.31771, "lon": 78.22669}, {"name": "Bapatla", "lat": 15.90422, "lon": 80.46743}, {"name": "Betamcherla", "lat": 15.45144, "lon": 78.14797}, {"name": "Bhattiprolu", "lat": 16.1026, "lon": 80.78074}, {"name": "Bhimavaram", "lat": 16.54078, "lon": 81.52322}, {"name": "Bhimunipatnam", "lat": 17.89017, "lon": 83.45203}, {"name": "Bobbili", "lat": 18.57366, "lon": 83.35925}, {"name": "Challapalle", "lat": 16.11756, "lon": 80.93139}, {"name": "Chemmumiahpet", "lat": 15.89794, "lon": 79.32129}, {"name": "Chilakalurupet", "lat": 16.08987, "lon": 80.16705}, {"name": "Chinnachowk", "lat": 14.47516, "lon": 78.8354}, {"name": "Chipurupalle", "lat": 18.31142, "lon": 83.56846}, {"name": "Chirala", "lat": 15.82385, "lon": 80.35219}, {"name": "Chittoor", "lat": 13.41667, "lon": 79.0}, {"name": "Chodavaram", "lat": 17.82884, "lon": 82.93526}, {"name": "Cuddapah", "lat": 14.41667, "lon": 78.75}, {"name": "Cumbum", "lat": 15.58171, "lon": 79.11059}, {"name": "Darsi", "lat": 15.76978, "lon": 79.67939}, {"name": "Dharmavaram", "lat": 14.41435, "lon": 77.72035}, {"name": "Dhone", "lat": 15.3952, "lon": 77.8715}, {"name": "Diguvametta", "lat": 15.39507, "lon": 78.8293}, {"name": "East Godavari", "lat": 17.83333, "lon": 81.83333}, {"name": "Elamanchili", "lat": 17.54907, "lon": 82.85749}, {"name": "Ellore", "lat": 16.71311, "lon": 81.10437}, {"name": "Emmiganur", "lat": 15.77203, "lon": 77.48345}, {"name": "Erraguntla", "lat": 14.63853, "lon": 78.53974}, {"name": "Etikoppaka", "lat": 17.5, "lon": 82.73333}, {"name": "Gajuwaka", "lat": 17.7, "lon": 83.21667}, {"name": "Ganguvada", "lat": 18.66667, "lon": 84.11667}, {"name": "Gannavaram", "lat": 16.54092, "lon": 80.80213}, {"name": "Giddalur", "lat": 15.37439, "lon": 78.92609}, {"name": "Gokavaram", "lat": 17.25823, "lon": 81.84985}, {"name": "Gorantla", "lat": 13.98411, "lon": 77.77224}, {"name": "GovindapuramChilakaluripetGuntur", "lat": 16.15477, "lon": 80.10279}, {"name": "Gudivada", "lat": 16.43547, "lon": 80.99555}, {"name": "Gudlavalleru", "lat": 16.35, "lon": 81.05}, {"name": "Gudur", "lat": 14.15093, "lon": 79.8521}, {"name": "Guntakal Junction", "lat": 15.17112, "lon": 77.36244}, {"name": "Guntur", "lat": 16.29974, "lon": 80.45729}, {"name": "Hindupur", "lat": 13.82807, "lon": 77.49143}, {"name": "Ichchapuram", "lat": 19.11393, "lon": 84.68721}, {"name": "Jaggayyapeta", "lat": 16.8938, "lon": 80.09807}, {"name": "Jammalamadugu", "lat": 14.84677, "lon": 78.38314}, {"name": "Kadiri", "lat": 14.11168, "lon": 78.15982}, {"name": "Kaikalur", "lat": 16.55154, "lon": 81.214}, {"name": "Kakinada", "lat": 16.96036, "lon": 82.23809}, {"name": "Kalyandurg", "lat": 14.54519, "lon": 77.10552}, {"name": "Kamalapuram", "lat": 14.5983, "lon": 78.66948}, {"name": "Kandukur", "lat": 15.21542, "lon": 79.9039}, {"name": "Kanigiri", "lat": 15.40555, "lon": 79.50694}, {"name": "Kankipadu", "lat": 16.4353, "lon": 80.76715}, {"name": "Kanuru", "lat": 16.28584, "lon": 81.25464}, {"name": "Kavali", "lat": 14.9163, "lon": 79.99449}, {"name": "Kolanukonda", "lat": 16.45392, "lon": 80.61046}, {"name": "Kondapalle", "lat": 16.61989, "lon": 80.54244}, {"name": "Korukollu", "lat": 16.5, "lon": 81.25}, {"name": "Kosigi", "lat": 15.8551, "lon": 77.24463}, {"name": "Kovvur", "lat": 17.0162, "lon": 81.72934}, {"name": "Krishna", "lat": 16.66667, "lon": 81.0}, {"name": "Kuppam", "lat": 12.74931, "lon": 78.34189}, {"name": "Kurnool", "lat": 15.58333, "lon": 78.33333}, {"name": "Macherla", "lat": 16.47635, "lon": 79.43533}, {"name": "Machilipatnam", "lat": 16.18747, "lon": 81.13888}, {"name": "Madanapalle", "lat": 13.5503, "lon": 78.50288}, {"name": "Madugula", "lat": 17.91589, "lon": 82.81578}, {"name": "Mandapeta", "lat": 16.86254, "lon": 81.92921}, {"name": "Mandasa", "lat": 18.8683, "lon": 84.46296}, {"name": "Mangalagiri", "lat": 16.43083, "lon": 80.56815}, {"name": "Markapur", "lat": 15.73534, "lon": 79.26848}, {"name": "Nagari", "lat": 13.32139, "lon": 79.58557}, {"name": "Nagireddipalli", "lat": 14.27005, "lon": 79.10131}, {"name": "Nandigama", "lat": 16.7717, "lon": 80.28596}, {"name": "Nandikotkur", "lat": 15.85668, "lon": 78.26569}, {"name": "Nandyal", "lat": 15.47799, "lon": 78.4836}, {"name": "Narasannapeta", "lat": 18.41428, "lon": 84.04463}, {"name": "Narasapur", "lat": 16.43425, "lon": 81.69845}, {"name": "Narasaraopet", "lat": 16.23488, "lon": 80.04927}, {"name": "Narasingapuram", "lat": 13.60759, "lon": 79.31652}, {"name": "Narayanavanam", "lat": 13.42565, "lon": 79.58881}, {"name": "Narsipatnam", "lat": 17.66709, "lon": 82.61245}, {"name": "Nayudupet", "lat": 13.90742, "lon": 79.89465}, {"name": "Nellore", "lat": 14.08333, "lon": 79.58333}, {"name": "Nidadavole", "lat": 16.90572, "lon": 81.67222}, {"name": "Nuzvid", "lat": 16.78854, "lon": 80.84593}, {"name": "Ongole", "lat": 15.50357, "lon": 80.04454}, {"name": "Pakala", "lat": 13.44903, "lon": 79.11493}, {"name": "Palakollu", "lat": 16.5167, "lon": 81.73}, {"name": "Palasa", "lat": 18.77257, "lon": 84.41012}, {"name": "Palkonda", "lat": 18.60374, "lon": 83.75568}, {"name": "Pallevada", "lat": 16.5779, "lon": 81.29463}, {"name": "Palmaner", "lat": 13.2, "lon": 78.74725}, {"name": "Parlakimidi", "lat": 18.78113, "lon": 84.08836}, {"name": "Parvatipuram", "lat": 18.78392, "lon": 83.42569}, {"name": "Pavuluru", "lat": 15.85292, "lon": 80.16468}, {"name": "Pedana", "lat": 16.25582, "lon": 81.14378}, {"name": "pedda nakkalapalem", "lat": 15.8668, "lon": 80.16202}, {"name": "Peddapuram", "lat": 17.07701, "lon": 82.13836}, {"name": "Penugonda", "lat": 16.65363, "lon": 81.7455}, {"name": "Penukonda", "lat": 14.08286, "lon": 77.59473}, {"name": "Phirangipuram", "lat": 16.29078, "lon": 80.26233}, {"name": "Pippara", "lat": 16.71667, "lon": 81.55}, {"name": "Pithapuram", "lat": 17.1168, "lon": 82.25284}, {"name": "Polavaram", "lat": 17.24754, "lon": 81.64372}, {"name": "Ponnur", "lat": 16.07114, "lon": 80.54944}, {"name": "Ponnuru", "lat": 16.06547, "lon": 80.55203}, {"name": "Prakasam", "lat": 15.5, "lon": 79.5}, {"name": "Proddatur", "lat": 14.7502, "lon": 78.54813}, {"name": "Pulivendla", "lat": 14.42139, "lon": 78.22502}, {"name": "Punganuru", "lat": 13.36672, "lon": 78.57186}, {"name": "Puttaparthi", "lat": 14.1652, "lon": 77.8117}, {"name": "Puttur", "lat": 13.44189, "lon": 79.55314}, {"name": "Rajahmundry", "lat": 17.00517, "lon": 81.77784}, {"name": "Ramachandrapuram", "lat": 16.83636, "lon": 82.02871}, {"name": "Ramanayyapeta", "lat": 16.94516, "lon": 82.2385}, {"name": "Ramapuram", "lat": 15.28749, "lon": 77.86722}, {"name": "Rampachodavaram", "lat": 17.44088, "lon": 81.77558}, {"name": "Rayachoti", "lat": 14.05723, "lon": 78.75056}, {"name": "Rayadrug", "lat": 14.69971, "lon": 76.85241}, {"name": "Razam", "lat": 18.44909, "lon": 83.65957}, {"name": "Razampeta", "lat": 14.19544, "lon": 79.15896}, {"name": "Razole", "lat": 16.47608, "lon": 81.83912}, {"name": "Renigunta", "lat": 13.65143, "lon": 79.51256}, {"name": "Repalle", "lat": 16.0184, "lon": 80.82958}, {"name": "Salur", "lat": 18.51716, "lon": 83.20548}, {"name": "Samalkot", "lat": 17.05675, "lon": 82.17639}, {"name": "Sattenapalle", "lat": 16.39381, "lon": 80.15221}, {"name": "Singarayakonda", "lat": 15.23046, "lon": 80.02794}, {"name": "Sompeta", "lat": 18.94419, "lon": 84.58449}, {"name": "Srikakulam", "lat": 18.2989, "lon": 83.89751}, {"name": "Srisailain", "lat": 16.07217, "lon": 78.86816}, {"name": "Suluru", "lat": 13.7, "lon": 80.01667}, {"name": "Tadepalle", "lat": 16.48333, "lon": 80.6}, {"name": "Tadepallegudem", "lat": 16.81467, "lon": 81.52717}, {"name": "Tadpatri", "lat": 14.90832, "lon": 78.01031}, {"name": "Tanuku", "lat": 16.75438, "lon": 81.68143}, {"name": "Tekkali", "lat": 18.6057, "lon": 84.23546}, {"name": "Tirumala", "lat": 13.68333, "lon": 79.35}, {"name": "Tirupati", "lat": 13.63551, "lon": 79.41989}, {"name": "Tuni", "lat": 17.35905, "lon": 82.54607}, {"name": "Uravakonda", "lat": 14.94348, "lon": 77.25494}, {"name": "vadlamuru", "lat": 17.09545, "lon": 82.16565}, {"name": "Vadlapudi", "lat": 14.31119, "lon": 79.8043}, {"name": "Venkatagiri", "lat": 13.96005, "lon": 79.58032}, {"name": "Vepagunta", "lat": 17.77844, "lon": 83.21577}, {"name": "Vetapalem", "lat": 15.78502, "lon": 80.30663}, {"name": "Vijayawada", "lat": 16.50745, "lon": 80.6466}, {"name": "Vinukonda", "lat": 16.0531, "lon": 79.73964}, {"name": "Visakhapatnam", "lat": 17.68009, "lon": 83.20161}, {"name": "Vizianagaram", "lat": 18.11692, "lon": 83.41148}, {"name": "Vizianagaram District", "lat": 18.41102, "lon": 83.37677}, {"name": "Vuyyuru", "lat": 16.36307, "lon": 80.84406}, {"name": "West Godavari", "lat": 17.0, "lon": 81.16667}, {"name": "Yanam", "lat": 16.73308, "lon": 82.21364}, {"name": "Yanamalakuduru", "lat": 16.48531, "lon": 80.66746}, {"name": "Yarada", "lat": 17.65872, "lon": 83.27419}, {"name": "Along", "lat": 28.16951, "lon": 94.8006}, {"name": "Anjaw", "lat": 28.06549, "lon": 96.82878}, {"name": "Basar", "lat": 27.99008, "lon": 94.69451}, {"name": "Bomdila", "lat": 27.26475, "lon": 92.42472}, {"name": "Changlang", "lat": 27.36265, "lon": 96.34518}, {"name": "Dibang Valley", "lat": 28.7, "lon": 95.7}, {"name": "East Kameng", "lat": 27.3, "lon": 93.05}, {"name": "East Siang", "lat": 28.12379, "lon": 95.16339}, {"name": "Hayuliang", "lat": 28.07301, "lon": 96.54305}, {"name": "Itanagar", "lat": 27.08694, "lon": 93.60987}, {"name": "Khonsa", "lat": 27.01667, "lon": 95.56667}, {"name": "Kurung Kumey", "lat": 27.99983, "lon": 93.3924}, {"name": "Lohit", "lat": 27.84012, "lon": 96.19521}, {"name": "Lower Dibang Valley", "lat": 28.37258, "lon": 95.8804}, {"name": "Lower Subansiri", "lat": 27.62554, "lon": 93.93908}, {"name": "Margherita", "lat": 27.28482, "lon": 95.66796}, {"name": "Naharlagun", "lat": 27.10467, "lon": 93.69518}, {"name": "Pasighat", "lat": 28.06631, "lon": 95.32678}, {"name": "Tawang", "lat": 27.57417, "lon": 91.92437}, {"name": "Tezu", "lat": 27.91256, "lon": 96.12882}, {"name": "Tirap", "lat": 27.01917, "lon": 95.51788}, {"name": "Upper Siang", "lat": 28.83355, "lon": 94.91806}, {"name": "Upper Subansiri", "lat": 28.3, "lon": 94.0}, {"name": "West Kameng", "lat": 27.4, "lon": 92.35}, {"name": "West Siang", "lat": 28.4, "lon": 94.55}, {"name": "Ziro", "lat": 27.59497, "lon": 93.83854}, {"name": "Abhayapuri", "lat": 26.32255, "lon": 90.68526}, {"name": "Amguri", "lat": 26.81482, "lon": 94.52614}, {"name": "Badarpur", "lat": 24.86852, "lon": 92.59606}, {"name": "Baksa", "lat": 26.69804, "lon": 91.15142}, {"name": "Barpathar", "lat": 26.28709, "lon": 93.88844}, {"name": "Barpeta", "lat": 26.47104, "lon": 91.0308}, {"name": "Barpeta Road", "lat": 26.50284, "lon": 90.96937}, {"name": "Basugaon", "lat": 26.46742, "lon": 90.41951}, {"name": "Bihpuriagaon", "lat": 27.01718, "lon": 93.91673}, {"name": "Bijni", "lat": 26.49588, "lon": 90.70298}, {"name": "Bilasipara", "lat": 26.23285, "lon": 90.2341}, {"name": "Bokajan", "lat": 26.02131, "lon": 93.77945}, {"name": "Bokakhat", "lat": 26.64018, "lon": 93.60052}, {"name": "Bongaigaon", "lat": 26.4603, "lon": 90.6464}, {"name": "Cachar", "lat": 24.78213, "lon": 92.85771}, {"name": "Chabua", "lat": 27.48253, "lon": 95.17451}, {"name": "Chapar", "lat": 26.27266, "lon": 90.44556}, {"name": "Chirang", "lat": 26.52527, "lon": 90.49066}, {"name": "Darrang", "lat": 26.51195, "lon": 92.16843}, {"name": "Dergaon", "lat": 26.7, "lon": 93.96667}, {"name": "Dhekiajuli", "lat": 26.70367, "lon": 92.47808}, {"name": "Dhemaji", "lat": 27.6091, "lon": 94.7942}, {"name": "Dhing", "lat": 26.46793, "lon": 92.47336}, {"name": "Dhubri", "lat": 26.06749, "lon": 90.02238}, {"name": "Dibrugarh", "lat": 27.5, "lon": 95.0}, {"name": "Digboi", "lat": 27.39321, "lon": 95.61839}, {"name": "Dima Hasao", "lat": 25.5, "lon": 93.0}, {"name": "Diphu", "lat": 25.84341, "lon": 93.43116}, {"name": "Dispur", "lat": 26.13564, "lon": 91.80069}, {"name": "Duliagaon", "lat": 27.37227, "lon": 95.30754}, {"name": "Dum Duma", "lat": 27.56884, "lon": 95.55664}, {"name": "Gauripur", "lat": 26.08334, "lon": 89.96118}, {"name": "Goalpara", "lat": 26.12791, "lon": 90.60974}, {"name": "Gohpur", "lat": 26.88184, "lon": 93.6156}, {"name": "Golaghat", "lat": 26.4092, "lon": 93.91193}, {"name": "Golakganj", "lat": 26.10216, "lon": 89.82275}, {"name": "Goshaingaon", "lat": 26.43946, "lon": 89.96307}, {"name": "Guwahati", "lat": 26.1844, "lon": 91.7458}, {"name": "Haflong", "lat": 25.16478, "lon": 93.01744}, {"name": "Hailakandi", "lat": 24.5017, "lon": 92.60069}, {"name": "Hajo", "lat": 26.2452, "lon": 91.52525}, {"name": "Hojai", "lat": 26.00281, "lon": 92.85605}, {"name": "Howli", "lat": 26.42237, "lon": 90.98004}, {"name": "Jogighopa", "lat": 26.22646, "lon": 90.57247}, {"name": "Jorhat", "lat": 26.8, "lon": 94.26}, {"name": "Kamrup", "lat": 26.22322, "lon": 91.65344}, {"name": "Kamrup Metropolitan", "lat": 26.05375, "lon": 92.00763}, {"name": "Karbi Anglong", "lat": 26.0, "lon": 93.5}, {"name": "Karimganj", "lat": 24.6, "lon": 92.4}, {"name": "Kharupatia", "lat": 26.51839, "lon": 92.14722}, {"name": "Kokrajhar", "lat": 26.6, "lon": 90.2}, {"name": "Lakhimpur", "lat": 27.35, "lon": 94.25}, {"name": "Lakhipur", "lat": 24.79281, "lon": 93.0091}, {"name": "Lala", "lat": 24.55418, "lon": 92.61592}, {"name": "Lumding Railway Colony", "lat": 25.74903, "lon": 93.16998}, {"name": "Mahur", "lat": 25.18305, "lon": 93.11342}, {"name": "Maibong", "lat": 25.30125, "lon": 93.13811}, {"name": "Makum", "lat": 27.48652, "lon": 95.43646}, {"name": "Mangaldai", "lat": 26.44212, "lon": 92.03047}, {"name": "Mariani", "lat": 26.65725, "lon": 94.31529}, {"name": "Moranha", "lat": 27.18735, "lon": 94.91557}, {"name": "Morigaon", "lat": 26.25213, "lon": 92.34238}, {"name": "Nagaon", "lat": 26.35037, "lon": 92.69225}, {"name": "Nahorkatiya", "lat": 27.28912, "lon": 95.3418}, {"name": "Nalbari", "lat": 26.5, "lon": 91.4}, {"name": "Namrup", "lat": 27.19395, "lon": 95.31929}, {"name": "Nazira", "lat": 26.91649, "lon": 94.73611}, {"name": "North Guwahati", "lat": 26.19749, "lon": 91.7202}, {"name": "North Lakhimpur", "lat": 27.23517, "lon": 94.10357}, {"name": "Numaligarh", "lat": 26.62249, "lon": 93.72225}, {"name": "Palasbari", "lat": 26.12388, "lon": 91.53974}, {"name": "Raha", "lat": 26.23333, "lon": 92.51667}, {"name": "Rangapara", "lat": 26.83772, "lon": 92.66876}, {"name": "Rangia", "lat": 26.44931, "lon": 91.61356}, {"name": "Sapatgram", "lat": 26.33732, "lon": 90.1236}, {"name": "Sarupathar", "lat": 26.206, "lon": 96.81}, {"name": "Sibsagar", "lat": 26.98427, "lon": 94.63784}, {"name": "Silapathar", "lat": 27.59441, "lon": 94.72402}, {"name": "Silchar", "lat": 24.82733, "lon": 92.79787}, {"name": "Soalkuchi", "lat": 26.16806, "lon": 91.57111}, {"name": "Sonari", "lat": 27.02462, "lon": 95.01629}, {"name": "Sonitpur", "lat": 26.76748, "lon": 92.96425}, {"name": "Sorbhog", "lat": 26.48612, "lon": 90.8859}, {"name": "Tezpur", "lat": 26.63333, "lon": 92.8}, {"name": "Tinsukia", "lat": 27.6, "lon": 95.6}, {"name": "Titabar", "lat": 26.6014, "lon": 94.20386}, {"name": "Udalguri", "lat": 26.75367, "lon": 92.10215}, {"name": "Amarpur", "lat": 25.03967, "lon": 86.90247}, {"name": "Araria", "lat": 26.2, "lon": 87.4}, {"name": "Arrah", "lat": 25.55629, "lon": 84.66335}, {"name": "Arwal", "lat": 25.16158, "lon": 84.6904}, {"name": "Asarganj", "lat": 25.15046, "lon": 86.68639}, {"name": "Aurangabad", "lat": 24.75204, "lon": 84.3742}, {"name": "Bagaha", "lat": 27.09918, "lon": 84.09003}, {"name": "Bahadurganj", "lat": 26.26172, "lon": 87.82443}, {"name": "Bairagnia", "lat": 26.74063, "lon": 85.27323}, {"name": "Baisi", "lat": 25.86302, "lon": 87.74487}, {"name": "Bakhtiyarpur", "lat": 25.46179, "lon": 85.53179}, {"name": "Bangaon", "lat": 25.86728, "lon": 86.51152}, {"name": "Banka", "lat": 24.89214, "lon": 86.98425}, {"name": "Banmankhi", "lat": 25.88857, "lon": 87.19421}, {"name": "Bar Bigha", "lat": 25.21855, "lon": 85.7332}, {"name": "Barauli", "lat": 26.38109, "lon": 84.58648}, {"name": "Barh", "lat": 25.48339, "lon": 85.70928}, {"name": "Barhiya", "lat": 25.28814, "lon": 86.02055}, {"name": "Bariarpur", "lat": 25.28791, "lon": 86.57643}, {"name": "Baruni", "lat": 25.47509, "lon": 85.96813}, {"name": "Begusarai", "lat": 25.41853, "lon": 86.13389}, {"name": "Belsand", "lat": 26.44365, "lon": 85.40076}, {"name": "Bettiah", "lat": 26.80229, "lon": 84.50311}, {"name": "Bhabhua", "lat": 25.04049, "lon": 83.60749}, {"name": "Bhagalpur", "lat": 25.29023, "lon": 87.06665}, {"name": "Bhagirathpur", "lat": 26.2695, "lon": 86.06346}, {"name": "Bhawanipur", "lat": 26.45352, "lon": 87.02744}, {"name": "Bhojpur", "lat": 25.30886, "lon": 84.44504}, {"name": "Bihar Sharif", "lat": 25.20084, "lon": 85.52389}, {"name": "Bihariganj", "lat": 25.73415, "lon": 86.98837}, {"name": "Bikramganj", "lat": 25.21073, "lon": 84.25508}, {"name": "Birpur", "lat": 26.50823, "lon": 87.01194}, {"name": "Bodh Gaya", "lat": 24.69808, "lon": 84.9869}, {"name": "Buxar", "lat": 25.5, "lon": 84.1}, {"name": "Chakia", "lat": 26.41598, "lon": 85.04665}, {"name": "Chapra", "lat": 25.78031, "lon": 84.74709}, {"name": "Chhatapur", "lat": 26.21965, "lon": 87.00479}, {"name": "Colgong", "lat": 25.26328, "lon": 87.23264}, {"name": "Dalsingh Sarai", "lat": 25.66795, "lon": 85.83636}, {"name": "Darbhanga", "lat": 26.0, "lon": 86.0}, {"name": "Daudnagar", "lat": 25.03473, "lon": 84.40095}, {"name": "Dehri", "lat": 24.90247, "lon": 84.18217}, {"name": "Dhaka", "lat": 26.67479, "lon": 85.16698}, {"name": "Dighwara", "lat": 25.74434, "lon": 85.01003}, {"name": "Dinapore", "lat": 25.63705, "lon": 85.04794}, {"name": "Dumra", "lat": 26.56708, "lon": 85.5204}, {"name": "Dumraon", "lat": 25.55265, "lon": 84.15149}, {"name": "Fatwa", "lat": 25.50958, "lon": 85.30504}, {"name": "Forbesganj", "lat": 26.30253, "lon": 87.26556}, {"name": "Gaya", "lat": 24.79686, "lon": 85.00385}, {"name": "Ghoga", "lat": 25.21738, "lon": 87.1571}, {"name": "Gopalganj", "lat": 26.5, "lon": 84.33333}, {"name": "Hajipur", "lat": 25.68544, "lon": 85.20981}, {"name": "Hilsa", "lat": 25.31642, "lon": 85.28234}, {"name": "Hisua", "lat": 24.8336, "lon": 85.41729}, {"name": "Islampur", "lat": 25.14075, "lon": 85.20587}, {"name": "Jagdispur", "lat": 25.46811, "lon": 84.41939}, {"name": "Jahanabad", "lat": 25.21368, "lon": 84.9871}, {"name": "Jamalpur", "lat": 25.31258, "lon": 86.48888}, {"name": "Jamui", "lat": 24.92082, "lon": 86.17538}, {"name": "Jaynagar", "lat": 26.59048, "lon": 86.13791}, {"name": "Jehanabad", "lat": 25.20701, "lon": 84.99573}, {"name": "Jha-Jha", "lat": 24.77107, "lon": 86.37888}, {"name": "Jhanjharpur", "lat": 26.26467, "lon": 86.27993}, {"name": "Jogbani", "lat": 26.39905, "lon": 87.26525}, {"name": "Kaimur", "lat": 25.05077, "lon": 83.58261}, {"name": "Kasba", "lat": 25.85643, "lon": 87.53836}, {"name": "Katihar", "lat": 25.5, "lon": 87.6}, {"name": "Khagaria", "lat": 25.5022, "lon": 86.46708}, {"name": "Khagaul", "lat": 25.57898, "lon": 85.04564}, {"name": "Kharagpur", "lat": 25.12446, "lon": 86.55578}, {"name": "Khusropur", "lat": 25.48174, "lon": 85.38492}, {"name": "Kishanganj", "lat": 26.3, "lon": 88.0}, {"name": "Koath", "lat": 25.32643, "lon": 84.25983}, {"name": "Koelwar", "lat": 25.58055, "lon": 84.79751}, {"name": "Lakhisarai", "lat": 25.2, "lon": 86.2}, {"name": "Lalganj", "lat": 25.86894, "lon": 85.17394}, {"name": "Luckeesarai", "lat": 25.1765, "lon": 86.0947}, {"name": "Madhepura", "lat": 25.8, "lon": 87.0}, {"name": "Madhubani", "lat": 26.35367, "lon": 86.07169}, {"name": "Maharajgani", "lat": 26.11017, "lon": 84.50365}, {"name": "Mairwa", "lat": 26.23218, "lon": 84.16349}, {"name": "Maner", "lat": 25.64602, "lon": 84.87291}, {"name": "Manihari", "lat": 25.33891, "lon": 87.61998}, {"name": "Marhaura", "lat": 25.97349, "lon": 84.86796}, {"name": "Masaurhi Buzurg", "lat": 25.35417, "lon": 85.03195}, {"name": "Mohiuddi nagar", "lat": 25.57374, "lon": 85.66944}, {"name": "Mokameh", "lat": 25.39662, "lon": 85.9219}, {"name": "Monghyr", "lat": 25.37459, "lon": 86.47455}, {"name": "Mothihari", "lat": 26.64862, "lon": 84.91656}, {"name": "Munger", "lat": 25.36099, "lon": 86.46515}, {"name": "Murliganj", "lat": 25.8969, "lon": 86.99577}, {"name": "Muzaffarpur", "lat": 26.16667, "lon": 85.41667}, {"name": "Nabinagar", "lat": 24.60681, "lon": 84.12624}, {"name": "Nalanda", "lat": 25.25, "lon": 85.58333}, {"name": "Nasriganj", "lat": 25.0514, "lon": 84.32839}, {"name": "Naugachhia", "lat": 25.38807, "lon": 87.09906}, {"name": "Nawada", "lat": 24.75, "lon": 85.5}, {"name": "Nirmali", "lat": 26.31397, "lon": 86.58537}, {"name": "Pashchim Champaran", "lat": 27.0, "lon": 84.5}, {"name": "Patna", "lat": 25.41667, "lon": 85.16667}, {"name": "Piro", "lat": 25.33218, "lon": 84.40454}, {"name": "Pupri", "lat": 26.47079, "lon": 85.70311}, {"name": "Purba Champaran", "lat": 26.58333, "lon": 84.83333}, {"name": "Purnia", "lat": 25.81614, "lon": 87.40708}, {"name": "Rafiganj", "lat": 24.81757, "lon": 84.63445}, {"name": "Raghunathpur", "lat": 25.64492, "lon": 87.91762}, {"name": "Rajgir", "lat": 25.02828, "lon": 85.42079}, {"name": "Ramnagar", "lat": 27.16371, "lon": 84.32342}, {"name": "Raxaul", "lat": 26.97982, "lon": 84.85065}, {"name": "Revelganj", "lat": 25.78976, "lon": 84.63596}, {"name": "Rohtas", "lat": 24.97941, "lon": 84.02774}, {"name": "Rusera", "lat": 25.75355, "lon": 86.02597}, {"name": "Sagauli", "lat": 26.7639, "lon": 84.74341}, {"name": "Saharsa", "lat": 25.87498, "lon": 86.59611}, {"name": "Samastipur", "lat": 25.75, "lon": 85.91667}, {"name": "Saran", "lat": 25.91667, "lon": 84.75}, {"name": "Shahbazpur", "lat": 26.30511, "lon": 87.28865}, {"name": "Shahpur", "lat": 25.60293, "lon": 84.40412}, {"name": "Sheikhpura", "lat": 25.13073, "lon": 85.78176}, {"name": "Sheohar", "lat": 26.5, "lon": 85.3}, {"name": "Sherghati", "lat": 24.5595, "lon": 84.79162}, {"name": "Silao", "lat": 25.08358, "lon": 85.42804}, {"name": "Sitamarhi", "lat": 26.66667, "lon": 85.5}, {"name": "Siwan", "lat": 26.22096, "lon": 84.35609}, {"name": "Supaul", "lat": 26.25, "lon": 86.8}, {"name": "Teghra", "lat": 25.49043, "lon": 85.94001}, {"name": "Tekari", "lat": 24.94253, "lon": 84.84265}, {"name": "Thakurganj", "lat": 26.42742, "lon": 88.13112}, {"name": "Vaishali", "lat": 25.75, "lon": 85.41667}, {"name": "Waris Aliganj", "lat": 25.0172, "lon": 85.64047}, {"name": "Chandigarh", "lat": 30.73629, "lon": 76.7884}, {"name": "Akaltara", "lat": 22.02463, "lon": 82.42641}, {"name": "Ambagarh Chauki", "lat": 20.77644, "lon": 80.74608}, {"name": "Ambikapur", "lat": 23.11892, "lon": 83.19537}, {"name": "Arang", "lat": 21.19639, "lon": 81.96912}, {"name": "Baikunthpur", "lat": 23.26206, "lon": 82.56051}, {"name": "Balod", "lat": 20.73081, "lon": 81.20578}, {"name": "Baloda", "lat": 22.1389, "lon": 82.48171}, {"name": "Baloda Bazar", "lat": 21.65678, "lon": 82.16062}, {"name": "Basna", "lat": 21.27885, "lon": 82.8267}, {"name": "Bastar", "lat": 19.26794, "lon": 81.73828}, {"name": "Bemetara", "lat": 21.71556, "lon": 81.53423}, {"name": "Bhanpuri", "lat": 21.0919, "lon": 80.93218}, {"name": "Bhatapara", "lat": 21.735, "lon": 81.94711}, {"name": "Bhatgaon", "lat": 21.15, "lon": 81.7}, {"name": "Bhilai", "lat": 21.20919, "lon": 81.4285}, {"name": "Bijapur", "lat": 18.84322, "lon": 80.7761}, {"name": "Bilaspur", "lat": 22.38333, "lon": 82.13333}, {"name": "Champa", "lat": 22.03532, "lon": 82.64234}, {"name": "Chhuikhadan", "lat": 21.52316, "lon": 80.99788}, {"name": "Dantewada", "lat": 18.899848, "lon": 81.3386752}, {"name": "Deori", "lat": 21.45, "lon": 82.61667}, {"name": "Dhamtari", "lat": 20.70718, "lon": 81.54874}, {"name": "Dongargaon", "lat": 20.97172, "lon": 80.85077}, {"name": "Dongargarh", "lat": 21.18893, "lon": 80.75459}, {"name": "Durg", "lat": 21.15, "lon": 81.4}, {"name": "Gandai", "lat": 21.66667, "lon": 81.10013}, {"name": "Gariaband", "lat": 20.63323, "lon": 82.06221}, {"name": "Gaurela", "lat": 22.75449, "lon": 81.90107}, {"name": "Gharghoda", "lat": 22.17427, "lon": 83.3517}, {"name": "Gidam", "lat": 18.97431, "lon": 81.39894}, {"name": "Jagdalpur", "lat": 19.08136, "lon": 82.02131}, {"name": "Janjgir", "lat": 22.00922, "lon": 82.5778}, {"name": "Janjgir-Champa", "lat": 21.9, "lon": 82.7}, {"name": "Jashpur", "lat": 22.78495, "lon": 83.84573}, {"name": "Jashpurnagar", "lat": 22.88783, "lon": 84.13864}, {"name": "Junagarh", "lat": 19.85993, "lon": 82.93385}, {"name": "Kabeerdham", "lat": 22.1, "lon": 81.2}, {"name": "Kanker", "lat": 20.27193, "lon": 81.49177}, {"name": "Katghora", "lat": 22.50247, "lon": 82.54279}, {"name": "Kawardha", "lat": 22.00853, "lon": 81.23148}, {"name": "Khairagarh", "lat": 21.41859, "lon": 80.97942}, {"name": "Khamharia", "lat": 20.976, "lon": 82.25116}, {"name": "Kharod", "lat": 21.7442, "lon": 82.5788}, {"name": "Kharsia", "lat": 21.98953, "lon": 83.10476}, {"name": "Kirandul", "lat": 18.63649, "lon": 81.25827}, {"name": "Kondagaon", "lat": 19.59083, "lon": 81.664}, {"name": "Korba", "lat": 22.5, "lon": 82.6}, {"name": "Koria", "lat": 23.48326, "lon": 82.15037}, {"name": "Kota", "lat": 22.29507, "lon": 82.02366}, {"name": "Kotaparh", "lat": 19.14256, "lon": 82.32536}, {"name": "Kumhari", "lat": 21.26667, "lon": 81.51667}, {"name": "Kurud", "lat": 20.83073, "lon": 81.72212}, {"name": "Lormi", "lat": 22.27434, "lon": 81.70181}, {"name": "Mahasamund", "lat": 21.2, "lon": 82.5}, {"name": "Mungeli", "lat": 22.06566, "lon": 81.68543}, {"name": "Narayanpur", "lat": 19.60426, "lon": 81.08119}, {"name": "Narharpur", "lat": 20.44892, "lon": 81.62004}, {"name": "Pandaria", "lat": 22.22495, "lon": 81.40994}, {"name": "Pandatarai", "lat": 22.18714, "lon": 81.32815}, {"name": "Pasan", "lat": 22.84412, "lon": 82.19823}, {"name": "Patan", "lat": 21.03333, "lon": 81.53333}, {"name": "Pathalgaon", "lat": 22.55656, "lon": 83.46355}, {"name": "Pendra", "lat": 22.77548, "lon": 81.95968}, {"name": "Pithora", "lat": 21.25021, "lon": 82.51707}, {"name": "Raigarh", "lat": 22.08582, "lon": 83.30603}, {"name": "Raipur", "lat": 21.25621, "lon": 81.69022}, {"name": "Raj Nandgaon", "lat": 21.16667, "lon": 81.0}, {"name": "Ramanuj Ganj", "lat": 23.80637, "lon": 83.69981}, {"name": "Ratanpur", "lat": 22.2866, "lon": 82.16823}, {"name": "Sakti", "lat": 22.02662, "lon": 82.96091}, {"name": "Saraipali", "lat": 21.3153, "lon": 83.00629}, {"name": "Sarangarh", "lat": 21.58614, "lon": 83.0785}, {"name": "Seorinarayan", "lat": 21.72055, "lon": 82.59344}, {"name": "Simga", "lat": 21.6281, "lon": 81.70376}, {"name": "Surguja", "lat": 22.89624, "lon": 83.09631}, {"name": "Takhatpur", "lat": 22.12915, "lon": 81.86959}, {"name": "Umarkot", "lat": 19.66529, "lon": 82.20629}, {"name": "Uttar Bastar Kanker", "lat": 20.2, "lon": 81.1}, {"name": "Amli", "lat": 20.28333, "lon": 73.01667}, {"name": "Dadra", "lat": 20.32504, "lon": 72.96618}, {"name": "Dadra & Nagar Haveli", "lat": 20.20651, "lon": 73.00811}, {"name": "Daman", "lat": 20.41431, "lon": 72.83236}, {"name": "Diu", "lat": 20.72081, "lon": 70.93989}, {"name": "Silvassa", "lat": 20.27386, "lon": 72.99673}, {"name": "Alipur", "lat": 28.79862, "lon": 77.13314}, {"name": "Bawana", "lat": 28.7982, "lon": 77.03431}, {"name": "Central Delhi", "lat": 28.64857, "lon": 77.21895}, {"name": "Delhi", "lat": 28.65195, "lon": 77.23149}, {"name": "Deoli", "lat": 28.50254, "lon": 77.23117}, {"name": "East Delhi", "lat": 28.66242, "lon": 77.29122}, {"name": "Karol Bagh", "lat": 28.65136, "lon": 77.19072}, {"name": "Najafgarh", "lat": 28.60922, "lon": 76.97982}, {"name": "Nangloi Jat", "lat": 28.67957, "lon": 77.06799}, {"name": "Narela", "lat": 28.85267, "lon": 77.09288}, {"name": "New Delhi", "lat": 28.63576, "lon": 77.22445}, {"name": "North Delhi", "lat": 28.6692, "lon": 77.22273}, {"name": "North East Delhi", "lat": 28.6869, "lon": 77.30195}, {"name": "North West Delhi", "lat": 28.70113, "lon": 77.10154}, {"name": "Pitampura", "lat": 28.68964, "lon": 77.13126}, {"name": "Rohini", "lat": 28.74322, "lon": 77.06778}, {"name": "South Delhi", "lat": 28.53009, "lon": 77.25174}, {"name": "South West Delhi", "lat": 28.5806, "lon": 77.0672}, {"name": "West Delhi", "lat": 28.65655, "lon": 77.10068}, {"name": "Aldona", "lat": 15.59337, "lon": 73.87482}, {"name": "Arambol", "lat": 15.68681, "lon": 73.70449}, {"name": "Baga", "lat": 15.56517, "lon": 73.75517}, {"name": "Bambolim", "lat": 15.46361, "lon": 73.8531}, {"name": "Bandora", "lat": 15.40823, "lon": 73.98129}, {"name": "Benaulim", "lat": 15.26435, "lon": 73.92812}, {"name": "Calangute", "lat": 15.5439, "lon": 73.7553}, {"name": "Candolim", "lat": 15.51807, "lon": 73.76259}, {"name": "Carapur", "lat": 15.56588, "lon": 73.98713}, {"name": "Cavelossim", "lat": 15.17255, "lon": 73.94194}, {"name": "Chicalim", "lat": 15.39835, "lon": 73.84216}, {"name": "Chinchinim", "lat": 15.21447, "lon": 73.97555}, {"name": "Colovale", "lat": 15.63522, "lon": 73.82426}, {"name": "Colva", "lat": 15.27976, "lon": 73.92285}, {"name": "Cortalim", "lat": 15.40247, "lon": 73.90881}, {"name": "Cuncolim", "lat": 15.1773, "lon": 73.99392}, {"name": "Curchorem", "lat": 15.26349, "lon": 74.10875}, {"name": "Curti", "lat": 15.41667, "lon": 74.01667}, {"name": "Davorlim", "lat": 15.27221, "lon": 73.99242}, {"name": "Dicholi", "lat": 15.59319, "lon": 73.94571}, {"name": "Goa Velha", "lat": 15.44384, "lon": 73.88572}, {"name": "Guirim", "lat": 15.57552, "lon": 73.80722}, {"name": "Jua", "lat": 15.5307, "lon": 73.95047}, {"name": "Kankon", "lat": 15.02698, "lon": 74.04617}, {"name": "Madgaon", "lat": 15.27501, "lon": 73.95786}, {"name": "Mapuca", "lat": 15.59154, "lon": 73.80898}, {"name": "Morjim", "lat": 15.63097, "lon": 73.73903}, {"name": "Mormugao", "lat": 15.38914, "lon": 73.81491}, {"name": "Navelim", "lat": 15.53333, "lon": 73.98333}, {"name": "North Goa", "lat": 15.53397, "lon": 73.96408}, {"name": "Palle", "lat": 15.46667, "lon": 74.08333}, {"name": "Panaji", "lat": 15.49574, "lon": 73.82624}, {"name": "Pernem", "lat": 15.723, "lon": 73.79511}, {"name": "Ponda", "lat": 15.40341, "lon": 74.01519}, {"name": "Quepem", "lat": 15.2128, "lon": 74.0772}, {"name": "Queula", "lat": 15.39011, "lon": 73.98557}, {"name": "Raia", "lat": 15.30499, "lon": 73.97096}, {"name": "Saligao", "lat": 15.55359, "lon": 73.79036}, {"name": "Sancoale", "lat": 15.37794, "lon": 73.90352}, {"name": "Sanguem", "lat": 15.22901, "lon": 74.15149}, {"name": "Sanquelim", "lat": 15.56422, "lon": 74.00799}, {"name": "Sanvordem", "lat": 15.26269, "lon": 74.11965}, {"name": "Serula", "lat": 15.54774, "lon": 73.84329}, {"name": "Solim", "lat": 15.61521, "lon": 73.7674}, {"name": "South Goa", "lat": 15.20425, "lon": 74.16733}, {"name": "Taleigao", "lat": 15.46915, "lon": 73.83285}, {"name": "Vagator", "lat": 15.59766, "lon": 73.74496}, {"name": "Valpoy", "lat": 15.53239, "lon": 74.13671}, {"name": "Varca", "lat": 15.23237, "lon": 73.94311}, {"name": "Vasco da Gama", "lat": 15.39585, "lon": 73.81568}, {"name": "Abrama", "lat": 20.85865, "lon": 72.90648}, {"name": "Adalaj", "lat": 23.16453, "lon": 72.58107}, {"name": "Agol", "lat": 23.15, "lon": 72.26666667}, {"name": "Ahmedabad", "lat": 23.02579, "lon": 72.58727}, {"name": "Ahwa", "lat": 20.75718, "lon": 73.68626}, {"name": "Akrund", "lat": 23.28333333, "lon": 73.11666667}, {"name": "Amod", "lat": 21.99317, "lon": 72.87047}, {"name": "Amreli", "lat": 21.50789, "lon": 71.18323}, {"name": "Amroli", "lat": 21.25084, "lon": 72.83878}, {"name": "Anand", "lat": 22.4, "lon": 72.75}, {"name": "Anjar", "lat": 23.11316, "lon": 70.02671}, {"name": "Ankleshwar", "lat": 21.63236, "lon": 72.99001}, {"name": "Babra", "lat": 21.84577, "lon": 71.30544}, {"name": "Bagasara", "lat": 21.48333333, "lon": 70.95}, {"name": "Bagasra", "lat": 21.48719, "lon": 70.95516}, {"name": "Bakharla", "lat": 21.731517, "lon": 69.635296}, {"name": "Balagam", "lat": 21.36666667, "lon": 70.1}, {"name": "Balasinor", "lat": 22.955891, "lon": 73.336499}, {"name": "Balisana", "lat": 23.816436, "lon": 72.257536}, {"name": "Bamanbore", "lat": 22.41666667, "lon": 71.01666667}, {"name": "Banas Kantha", "lat": 24.25, "lon": 72.5}, {"name": "Bandia", "lat": 23.39604, "lon": 69.01155}, {"name": "Bantva", "lat": 21.48815, "lon": 70.07576}, {"name": "Bardoli", "lat": 21.12297, "lon": 73.11151}, {"name": "Bavla", "lat": 22.83672406, "lon": 72.36277938}, {"name": "Bedi", "lat": 22.50143, "lon": 70.04363}, {"name": "Bhachau", "lat": 23.29858, "lon": 70.34279}, {"name": "Bhadran", "lat": 22.3593, "lon": 72.9005}, {"name": "Bhandu", "lat": 23.7, "lon": 72.36666667}, {"name": "Bhanvad", "lat": 21.93053, "lon": 69.78081}, {"name": "Bharuch", "lat": 21.69482, "lon": 72.9805}, {"name": "Bhatha", "lat": 21.18333333, "lon": 72.76666667}, {"name": "Bhavnagar", "lat": 21.76287, "lon": 72.15331}, {"name": "Bhayavadar", "lat": 21.85523, "lon": 70.24791}, {"name": "Bhildi", "lat": 24.18333333, "lon": 72.03333333}, {"name": "Bhojpur Dharampur", "lat": 23.25, "lon": 69.67}, {"name": "Bhuj", "lat": 23.25397, "lon": 69.66928}, {"name": "Bilimora", "lat": 20.76957, "lon": 72.96134}, {"name": "Bilkha", "lat": 21.4415, "lon": 70.60063}, {"name": "Borsad", "lat": 22.40788, "lon": 72.89817}, {"name": "Botad", "lat": 22.16917, "lon": 71.66671}, {"name": "Chaklasi", "lat": 22.6532, "lon": 72.94497}, {"name": "Chalala", "lat": 21.41073, "lon": 71.16621}, {"name": "Chaloda", "lat": 22.8, "lon": 72.45}, {"name": "Champaner", "lat": 22.4859, "lon": 73.5371}, {"name": "Chanasma", "lat": 23.71472, "lon": 72.11279}, {"name": "Chhala", "lat": 23.30779, "lon": 72.77404}, {"name": "Chhota Udepur", "lat": 22.30401, "lon": 74.0158}, {"name": "Chikhli", "lat": 20.75751, "lon": 73.06268}, {"name": "Chotila", "lat": 22.42347, "lon": 71.19641}, {"name": "Chuda", "lat": 22.48333333, "lon": 71.68333333}, {"name": "Dabhoda", "lat": 23.16666667, "lon": 72.73333333}, {"name": "Dabhoi", "lat": 22.18333, "lon": 73.43333}, {"name": "Dahegam", "lat": 23.16903, "lon": 72.82161}, {"name": "Dahod", "lat": 22.52, "lon": 74.15}, {"name": "Dakor", "lat": 22.75268, "lon": 73.14967}, {"name": "Damnagar", "lat": 21.69232, "lon": 71.51747}, {"name": "Dandi", "lat": 21.32988, "lon": 72.62484}, {"name": "Danta", "lat": 24.18861111, "lon": 72.76583333}, {"name": "Dayapar", "lat": 23.63371, "lon": 68.90192}, {"name": "Delvada", "lat": 20.77544, "lon": 71.04646}, {"name": "Delwada", "lat": 20.7833, "lon": 71.05}, {"name": "Detroj", "lat": 23.33333333, "lon": 72.18333333}, {"name": "Devbhumi Dwarka", "lat": 22.20253, "lon": 69.65498}, {"name": "Devgadh Bariya", "lat": 22.70517, "lon": 73.90882}, {"name": "Dhandhuka", "lat": 22.38185, "lon": 71.98664}, {"name": "Dhanera", "lat": 24.50967, "lon": 72.02343}, {"name": "Dhansura", "lat": 23.35, "lon": 73.2}, {"name": "Dharampur", "lat": 20.53693, "lon": 73.17368}, {"name": "Dharasana", "lat": 20.68333333, "lon": 72.91666667}, {"name": "Dhari", "lat": 21.32855, "lon": 71.02645}, {"name": "Dhasa", "lat": 21.8, "lon": 71.51666667}, {"name": "Dhola", "lat": 21.88129, "lon": 71.77269}, {"name": "Dholera", "lat": 22.248, "lon": 72.195}, {"name": "Dholka", "lat": 22.72732, "lon": 72.44128}, {"name": "Dhoraji", "lat": 21.73359, "lon": 70.45004}, {"name": "Dhrangadhra", "lat": 22.99167, "lon": 71.46793}, {"name": "Dhrol", "lat": 22.567, "lon": 70.41769}, {"name": "Dhuwaran", "lat": 22.23779, "lon": 72.7591}, {"name": "Disa", "lat": 24.25612, "lon": 72.17928}, {"name": "Dohad", "lat": 22.9, "lon": 74.0}, {"name": "Dumkhal", "lat": 21.7396, "lon": 73.8449}, {"name": "Dungarpur", "lat": 21.28777, "lon": 71.7556}, {"name": "Dwarka", "lat": 22.23944, "lon": 68.96778}, {"name": "Gadhada", "lat": 21.96957, "lon": 71.57828}, {"name": "Gandevi", "lat": 20.81214, "lon": 72.99811}, {"name": "Gandhidham", "lat": 23.08333, "lon": 70.13333}, {"name": "Gandhinagar", "lat": 23.21667, "lon": 72.68333}, {"name": "Gariadhar", "lat": 21.53889, "lon": 71.57737}, {"name": "Ghodasar", "lat": 24.45, "lon": 71.85}, {"name": "Ghogha", "lat": 21.68813, "lon": 72.2763}, {"name": "Gir Somnath", "lat": 20.91287, "lon": 70.3671}, {"name": "Godhra", "lat": 22.77547, "lon": 73.61488}, {"name": "Gondal", "lat": 21.96074, "lon": 70.80255}, {"name": "Gorwa", "lat": 22.3301, "lon": 73.1611}, {"name": "Halenda", "lat": 22.088185, "lon": 71.05171}, {"name": "Halol", "lat": 22.50321, "lon": 73.47242}, {"name": "Halvad", "lat": 23.01516, "lon": 71.18029}, {"name": "Hansot", "lat": 21.58496, "lon": 72.80764}, {"name": "Harij", "lat": 23.69356, "lon": 71.907}, {"name": "Harsol", "lat": 23.36, "lon": 73.02}, {"name": "Hathuran", "lat": 21.5, "lon": 72.97}, {"name": "Himatnagar", "lat": 23.59893, "lon": 72.96602}, {"name": "Idar", "lat": 23.83, "lon": 73.0}, {"name": "Jakhau", "lat": 23.21861111, "lon": 68.71694444}, {"name": "Jalalpore", "lat": 20.9491, "lon": 72.9136}, {"name": "Jalalpur", "lat": 20.94896, "lon": 72.89829}, {"name": "Jalia", "lat": 21.8, "lon": 70.25}, {"name": "Jambuda", "lat": 22.51666667, "lon": 70.21666667}, {"name": "Jambusar", "lat": 22.05236, "lon": 72.80074}, {"name": "Jamnagar", "lat": 22.47292, "lon": 70.06673}, {"name": "Jarod", "lat": 22.433, "lon": 73.333}, {"name": "Jasdan", "lat": 22.03709, "lon": 71.20794}, {"name": "Jetalpur", "lat": 22.88333333, "lon": 72.6}, {"name": "Jetalsar", "lat": 21.70891, "lon": 70.57695}, {"name": "Jetpur", "lat": 21.7543725, "lon": 70.6189391}, {"name": "Jhalod", "lat": 23.10027778, "lon": 74.15611111}, {"name": "Jhulasan", "lat": 23.3286, "lon": 72.47314}, {"name": "Jodhpur", "lat": 21.90174, "lon": 70.0327}, {"name": "Jodhpur (Ahmedabad)", "lat": 21.88, "lon": 70.03}, {"name": "Junagadh", "lat": 21.25, "lon": 70.33333}, {"name": "Kachchh", "lat": 23.58333, "lon": 70.0}, {"name": "Kachholi", "lat": 20.83333333, "lon": 72.96666667}, {"name": "Kadi", "lat": 23.29908, "lon": 72.33362}, {"name": "Kadod", "lat": 21.21717, "lon": 73.21972}, {"name": "Kalavad", "lat": 22.20789, "lon": 70.38343}, {"name": "Kalol", "lat": 22.60777, "lon": 73.46272}, {"name": "Kandla", "lat": 23.03333, "lon": 70.21667}, {"name": "Kandla port", "lat": 23.03, "lon": 70.22}, {"name": "Kanodar", "lat": 24.08932, "lon": 72.39354}, {"name": "Kapadvanj", "lat": 23.02302, "lon": 73.07113}, {"name": "Karamsad", "lat": 22.54243, "lon": 72.90392}, {"name": "Kariana", "lat": 21.88333333, "lon": 71.35}, {"name": "Karjan", "lat": 22.05304167, "lon": 73.12351389}, {"name": "Kathor", "lat": 21.28854, "lon": 72.9407}, {"name": "Katpur", "lat": 21.05869, "lon": 71.79457}, {"name": "Kawant", "lat": 22.09282, "lon": 74.05078}, {"name": "Kayavarohan", "lat": 22.067, "lon": 73.25}, {"name": "Kerwada", "lat": 21.9, "lon": 72.85}, {"name": "Keshod", "lat": 21.30328, "lon": 70.24861}, {"name": "Khambhalia", "lat": 22.2, "lon": 69.65}, {"name": "Khambhat", "lat": 22.31744, "lon": 72.61916}, {"name": "Khavda", "lat": 23.85, "lon": 69.72}, {"name": "Kheda", "lat": 22.75, "lon": 72.83333}, {"name": "Khedbrahma", "lat": 24.0299, "lon": 73.04632}, {"name": "Khedoi", "lat": 23.05927778, "lon": 69.91895556}, {"name": "Kherali", "lat": 22.68333333, "lon": 71.6}, {"name": "Kheralu", "lat": 23.88534, "lon": 72.61869}, {"name": "Kodinar", "lat": 20.79393, "lon": 70.70216}, {"name": "Kosamba", "lat": 21.46202, "lon": 72.95842}, {"name": "Kothara", "lat": 23.133, "lon": 68.932}, {"name": "Kotharia", "lat": 22.23, "lon": 70.81}, {"name": "Kukarmunda", "lat": 21.51666667, "lon": 74.13333333}, {"name": "Kukma", "lat": 23.217822, "lon": 69.777922}, {"name": "Kundla", "lat": 21.34222, "lon": 71.30633}, {"name": "Kutch", "lat": 23.915, "lon": 70.367}, {"name": "Kutiyana", "lat": 21.6241, "lon": 69.98494}, {"name": "Ladol", "lat": 23.61666667, "lon": 72.73333333}, {"name": "Lakhpat", "lat": 23.82611111, "lon": 68.77694444}, {"name": "Lakhtar", "lat": 22.85683, "lon": 71.78844}, {"name": "Lalpur", "lat": 22.19073, "lon": 69.96351}, {"name": "Langhnaj", "lat": 23.45, "lon": 72.48333333}, {"name": "Lathi", "lat": 21.7231, "lon": 71.38843}, {"name": "Limbdi", "lat": 22.56507, "lon": 71.81076}, {"name": "Limkheda", "lat": 22.81666667, "lon": 73.98333333}, {"name": "Lunavada", "lat": 23.12841, "lon": 73.61043}, {"name": "Madhavpur Ghed", "lat": 21.29929167, "lon": 70.02513889}, {"name": "Madhi", "lat": 22.1, "lon": 69.1}, {"name": "Mahemdavad", "lat": 22.82359, "lon": 72.75551}, {"name": "Mahesana", "lat": 23.66667, "lon": 72.5}, {"name": "Mahisa", "lat": 22.85, "lon": 73.05}, {"name": "Mahudha", "lat": 22.82082, "lon": 72.94032}, {"name": "Mahuva", "lat": 21.0833, "lon": 71.8}, {"name": "Mahuva (Surat)", "lat": 21.02, "lon": 73.15}, {"name": "Malpur", "lat": 23.36035, "lon": 73.46595}, {"name": "Manavadar", "lat": 21.49813, "lon": 70.13775}, {"name": "Mandal", "lat": 23.28865, "lon": 71.91854}, {"name": "Mandvi", "lat": 22.83282, "lon": 69.35237}, {"name": "Mandvi (Surat)", "lat": 21.25526, "lon": 73.30412}, {"name": "Mangrol", "lat": 21.12268, "lon": 70.11484}, {"name": "Mangrol (Junagadh)", "lat": 21.12, "lon": 70.12}, {"name": "Mansa", "lat": 23.42564, "lon": 72.65739}, {"name": "Meghraj", "lat": 23.49805, "lon": 73.51352}, {"name": "Mehsana", "lat": 23.6, "lon": 72.4}, {"name": "Mendarda", "lat": 21.32112, "lon": 70.44078}, {"name": "Mithapur", "lat": 22.41, "lon": 69.0}, {"name": "Modasa", "lat": 23.46253, "lon": 73.29857}, {"name": "Morbi", "lat": 22.81731, "lon": 70.8377}, {"name": "Morva (Hadaf)", "lat": 22.9474014, "lon": 73.834839}, {"name": "Morwa", "lat": 22.9184516, "lon": 73.8426033}, {"name": "Mundra", "lat": 22.83918, "lon": 69.7219}, {"name": "Nadiad", "lat": 22.69385, "lon": 72.86157}, {"name": "Nagwa", "lat": 25.69621, "lon": 84.2359}, {"name": "Naldhara", "lat": 20.96666667, "lon": 73.16666667}, {"name": "Naliya", "lat": 23.26058, "lon": 68.82655}, {"name": "Nargol", "lat": 20.233, "lon": 72.75}, {"name": "Narmada", "lat": 21.87377, "lon": 73.49527}, {"name": "Naroda", "lat": 23.07041, "lon": 72.65702}, {"name": "Navsari", "lat": 20.95, "lon": 72.92}, {"name": "Nikora", "lat": 21.78586, "lon": 73.13968}, {"name": "Nizar", "lat": 21.47727, "lon": 74.19595}, {"name": "Odadar", "lat": 21.56666667, "lon": 69.66666667}, {"name": "Okha", "lat": 22.46756, "lon": 69.07002}, {"name": "Olpad", "lat": 21.33649, "lon": 72.75161}, {"name": "Paddhari", "lat": 22.43654, "lon": 70.60162}, {"name": "Padra", "lat": 22.2398, "lon": 73.08451}, {"name": "Palanpur", "lat": 24.17128, "lon": 72.43827}, {"name": "Palanswa", "lat": 23.46666667, "lon": 70.93333333}, {"name": "Palitana", "lat": 21.52519, "lon": 71.82309}, {"name": "Paliyad", "lat": 22.25757, "lon": 71.56024}, {"name": "Palsana", "lat": 21.08, "lon": 72.98}, {"name": "Panch Mahals", "lat": 23.0, "lon": 74.0}, {"name": "Panchmahal", "lat": 22.6978098, "lon": 73.5980682}, {"name": "Pardi", "lat": 20.5087, "lon": 72.94569}, {"name": "Parnera", "lat": 20.56101, "lon": 72.94846}, {"name": "Patan", "lat": 23.7, "lon": 71.8}, {"name": "Pavi Jetpur", "lat": 22.34472, "lon": 73.84093}, {"name": "Petlad", "lat": 22.47681, "lon": 72.79995}, {"name": "Pipavav", "lat": 20.96666667, "lon": 71.56666667}, {"name": "Piplod", "lat": 22.81666667, "lon": 73.9}, {"name": "Porbandar", "lat": 21.64219, "lon": 69.60929}, {"name": "Prabhas Patan", "lat": 20.88808, "lon": 70.40129}, {"name": "Prantij", "lat": 23.43841944, "lon": 72.85718056}, {"name": "Radhanpur", "lat": 23.83238, "lon": 71.6047}, {"name": "Rajkot", "lat": 22.33333, "lon": 70.83333}, {"name": "Rajpipla", "lat": 21.86667, "lon": 73.5}, {"name": "Rajula", "lat": 21.03854, "lon": 71.44345}, {"name": "Ranavav", "lat": 21.68734, "lon": 69.74485}, {"name": "Ranpur", "lat": 22.3667, "lon": 71.75}, {"name": "Rapar", "lat": 23.57267, "lon": 70.64718}, {"name": "Reha", "lat": 23.151725, "lon": 69.750086}, {"name": "Roha", "lat": 23.19646, "lon": 69.27076}, {"name": "Sabar Kantha", "lat": 23.62974, "lon": 73.00197}, {"name": "Sachin", "lat": 21.08718, "lon": 72.88153}, {"name": "Salaya", "lat": 22.31038, "lon": 69.60376}, {"name": "Samakhiali", "lat": 23.3034, "lon": 70.50688}, {"name": "Sanand", "lat": 22.99227, "lon": 72.38177}, {"name": "Sankheda", "lat": 22.17021, "lon": 73.5782}, {"name": "Sarbhon", "lat": 21.05, "lon": 73.0833}, {"name": "Sardoi", "lat": 23.5667, "lon": 73.2667}, {"name": "Sarkhej", "lat": 22.98297, "lon": 72.50196}, {"name": "Sathamba", "lat": 23.169125, "lon": 73.32661667}, {"name": "Savarkundla", "lat": 21.33726, "lon": 71.3035}, {"name": "Savli", "lat": 22.56666667, "lon": 73.21666667}, {"name": "Sayla", "lat": 22.54925, "lon": 71.48324}, {"name": "Shahpur", "lat": 22.15611, "lon": 70.77068}, {"name": "Shivrajpur", "lat": 22.42319, "lon": 73.60865}, {"name": "Siddhpur", "lat": 23.9167, "lon": 72.3833}, {"name": "Sihor", "lat": 21.71134, "lon": 71.96179}, {"name": "Sikka", "lat": 22.43218, "lon": 69.84158}, {"name": "Sinor", "lat": 21.91117, "lon": 73.33974}, {"name": "Sojitra", "lat": 22.53884, "lon": 72.71984}, {"name": "Songadh", "lat": 21.16966, "lon": 73.56357}, {"name": "Supedi", "lat": 21.762, "lon": 70.378}, {"name": "Surat", "lat": 21.17801, "lon": 72.81189}, {"name": "Surendranagar", "lat": 22.72706, "lon": 71.64856}, {"name": "Sutrapada", "lat": 20.8928, "lon": 70.465}, {"name": "Talaja", "lat": 21.3527, "lon": 72.03524}, {"name": "Tankara", "lat": 22.65622, "lon": 70.74945}, {"name": "Tapi", "lat": 21.12, "lon": 73.4}, {"name": "Than", "lat": 22.57422, "lon": 71.19942}, {"name": "Thangadh", "lat": 22.56666667, "lon": 71.18333333}, {"name": "Tharad", "lat": 24.39597, "lon": 71.62577}, {"name": "Thasra", "lat": 22.79831, "lon": 73.21174}, {"name": "The Dangs", "lat": 20.75, "lon": 73.75}, {"name": "Umarpada", "lat": 21.45, "lon": 73.5}, {"name": "Umrala", "lat": 21.84353, "lon": 71.80305}, {"name": "Umreth", "lat": 22.69881, "lon": 73.11561}, {"name": "Un", "lat": 23.88745, "lon": 71.76975}, {"name": "Una", "lat": 20.82318, "lon": 71.03795}, {"name": "Unjha", "lat": 23.80366, "lon": 72.39101}, {"name": "Upleta", "lat": 21.74015, "lon": 70.28256}, {"name": "Utran", "lat": 21.23333, "lon": 72.86667}, {"name": "Vadgam", "lat": 24.08333333, "lon": 72.48333333}, {"name": "Vadnagar", "lat": 23.78593, "lon": 72.63893}, {"name": "Vadodara", "lat": 22.29941, "lon": 73.20812}, {"name": "Vaghodia", "lat": 22.30505, "lon": 73.40016}, {"name": "Vaghodia INA", "lat": 22.3, "lon": 73.3833}, {"name": "Vallabh Vidyanagar", "lat": 22.53333, "lon": 72.9}, {"name": "Vallabhipur", "lat": 21.8878, "lon": 71.8795}, {"name": "Valsad", "lat": 20.5, "lon": 73.08333}, {"name": "Vanala", "lat": 22.45, "lon": 71.98333333}, {"name": "Vansda", "lat": 20.45, "lon": 73.22}, {"name": "Vanthli", "lat": 21.4833, "lon": 70.3333}, {"name": "Vapi", "lat": 20.37175, "lon": 72.90493}, {"name": "Vartej", "lat": 21.73947, "lon": 72.06553}, {"name": "Vasa", "lat": 23.8398349, "lon": 71.9301999}, {"name": "Vasavad", "lat": 21.82657, "lon": 71.02436}, {"name": "Vaso", "lat": 22.6609576, "lon": 72.7553379}, {"name": "Vataman", "lat": 22.53, "lon": 72.42}, {"name": "Vejalpur", "lat": 22.69021, "lon": 73.56299}, {"name": "Veraval", "lat": 20.9077, "lon": 70.36786}, {"name": "Vijapur", "lat": 23.5623, "lon": 72.74848}, {"name": "Vinchhiya", "lat": 22.21027, "lon": 71.37967}, {"name": "Viramgam", "lat": 23.12, "lon": 72.03}, {"name": "Virpur", "lat": 23.1892, "lon": 73.47987}, {"name": "Visavadar", "lat": 21.33954, "lon": 70.74966}, {"name": "Visnagar", "lat": 23.69855, "lon": 72.5521}, {"name": "Vyara", "lat": 21.11079, "lon": 73.39365}, {"name": "Wadhai", "lat": 20.76666667, "lon": 73.48333333}, {"name": "Wadhwan", "lat": 22.7, "lon": 71.68333333}, {"name": "Waghai", "lat": 20.77048, "lon": 73.50074}, {"name": "Wankaner", "lat": 22.61198, "lon": 70.94379}, {"name": "Ambala", "lat": 30.32854, "lon": 76.9422}, {"name": "Asandh", "lat": 29.52119, "lon": 76.60552}, {"name": "Ateli Mandi", "lat": 28.1008, "lon": 76.2598}, {"name": "Bahadurgarh", "lat": 28.69287, "lon": 76.93555}, {"name": "Bara Uchana", "lat": 29.46747, "lon": 76.17798}, {"name": "Barwala", "lat": 29.36747, "lon": 75.90809}, {"name": "Bawal", "lat": 28.07184, "lon": 76.58312}, {"name": "Beri Khas", "lat": 28.70146, "lon": 76.57708}, {"name": "Bhiwani", "lat": 28.75, "lon": 76.16667}, {"name": "Bilaspur", "lat": 30.3045, "lon": 77.30424}, {"name": "Buriya", "lat": 30.15911, "lon": 77.35814}, {"name": "Charkhi Dadri", "lat": 28.59166, "lon": 76.27161}, {"name": "Chhachhrauli", "lat": 30.24492, "lon": 77.36027}, {"name": "Dabwali", "lat": 29.94906, "lon": 74.73832}, {"name": "Dharuhera", "lat": 28.20553, "lon": 76.79691}, {"name": "Ellenabad", "lat": 29.45282, "lon": 74.66122}, {"name": "Faridabad", "lat": 28.41124, "lon": 77.31316}, {"name": "Farrukhnagar", "lat": 28.44745, "lon": 76.82391}, {"name": "Fatehabad", "lat": 29.51525, "lon": 75.45554}, {"name": "Firozpur Jhirka", "lat": 27.78853, "lon": 76.94496}, {"name": "Gharaunda", "lat": 29.53692, "lon": 76.97142}, {"name": "Gohana", "lat": 29.13777, "lon": 76.70247}, {"name": "Gorakhpur", "lat": 29.44768, "lon": 75.67206}, {"name": "Gurgaon", "lat": 28.43891, "lon": 77.00592}, {"name": "Hansi", "lat": 29.10239, "lon": 75.96253}, {"name": "Hasanpur", "lat": 27.96944, "lon": 77.49544}, {"name": "Hisar", "lat": 29.15394, "lon": 75.72294}, {"name": "Hodal", "lat": 27.89196, "lon": 77.36744}, {"name": "Inda Chhoi", "lat": 29.64042, "lon": 75.79041}, {"name": "Indri", "lat": 29.87999, "lon": 77.05972}, {"name": "Jagadhri", "lat": 30.16719, "lon": 77.30367}, {"name": "Jakhal", "lat": 29.79627, "lon": 75.82392}, {"name": "Jhajjar", "lat": 28.6063, "lon": 76.6565}, {"name": "Jind", "lat": 29.31577, "lon": 76.31502}, {"name": "Kaithal", "lat": 29.80153, "lon": 76.39959}, {"name": "Kalanaur", "lat": 28.82823, "lon": 76.3955}, {"name": "Kalanwali", "lat": 29.83573, "lon": 74.9717}, {"name": "Kanina Khas", "lat": 28.33093, "lon": 76.31099}, {"name": "Karnal", "lat": 29.66667, "lon": 76.83333}, {"name": "Kharkhauda", "lat": 28.8787, "lon": 76.91069}, {"name": "Kheri Sampla", "lat": 28.7781, "lon": 76.7756}, {"name": "Kurukshetra", "lat": 30.0, "lon": 76.75}, {"name": "Ladwa", "lat": 29.9935, "lon": 77.04563}, {"name": "Loharu", "lat": 28.42993, "lon": 75.80779}, {"name": "Maham", "lat": 28.96912, "lon": 76.29495}, {"name": "Mahendragarh", "lat": 28.25, "lon": 76.16667}, {"name": "Mandholi Kalan", "lat": 28.7085, "lon": 75.68296}, {"name": "Mustafabad", "lat": 30.2022, "lon": 77.14873}, {"name": "Narayangarh", "lat": 30.47798, "lon": 77.12804}, {"name": "Narnaul", "lat": 28.04444, "lon": 76.10833}, {"name": "Narnaund", "lat": 29.22047, "lon": 76.14278}, {"name": "Narwana", "lat": 29.59903, "lon": 76.11927}, {"name": "Nilokheri", "lat": 29.83671, "lon": 76.93191}, {"name": "Nuh", "lat": 28.10296, "lon": 77.00144}, {"name": "Palwal", "lat": 28.14469, "lon": 77.32546}, {"name": "Panchkula", "lat": 30.72883, "lon": 76.94716}, {"name": "Panipat", "lat": 29.33259, "lon": 76.92634}, {"name": "Pataudi", "lat": 28.32547, "lon": 76.77858}, {"name": "Pehowa", "lat": 29.97897, "lon": 76.58249}, {"name": "Pinjaur", "lat": 30.79873, "lon": 76.91822}, {"name": "Punahana", "lat": 27.86371, "lon": 77.20432}, {"name": "Pundri", "lat": 29.76096, "lon": 76.56034}, {"name": "Radaur", "lat": 30.02706, "lon": 77.15177}, {"name": "Rania", "lat": 29.52454, "lon": 74.83689}, {"name": "Ratia", "lat": 29.69029, "lon": 75.57688}, {"name": "Rewari", "lat": 28.199, "lon": 76.6183}, {"name": "Rohtak", "lat": 28.83333, "lon": 76.66667}, {"name": "Safidon", "lat": 29.40596, "lon": 76.67042}, {"name": "Samalkha", "lat": 29.23552, "lon": 77.01273}, {"name": "Shadipur Julana", "lat": 29.12368, "lon": 76.40516}, {"name": "Shahabad", "lat": 30.16776, "lon": 76.87046}, {"name": "Sirsa", "lat": 29.53489, "lon": 75.02898}, {"name": "Sohna", "lat": 28.24737, "lon": 77.06544}, {"name": "Sonipat", "lat": 29.0, "lon": 76.91667}, {"name": "Taoru", "lat": 28.21173, "lon": 76.94984}, {"name": "Thanesar", "lat": 29.97323, "lon": 76.83214}, {"name": "Tohana", "lat": 29.71332, "lon": 75.90441}, {"name": "Tosham", "lat": 28.86993, "lon": 75.9165}, {"name": "Uklana", "lat": 29.51124, "lon": 75.87823}, {"name": "Yamunanagar", "lat": 30.23644, "lon": 77.30498}, {"name": "Arki", "lat": 31.15196, "lon": 76.96675}, {"name": "Baddi", "lat": 30.95783, "lon": 76.79136}, {"name": "Banjar", "lat": 31.639, "lon": 77.34055}, {"name": "Bilaspur", "lat": 31.33027, "lon": 76.75663}, {"name": "Chamba", "lat": 32.57147, "lon": 76.10229}, {"name": "Chaupal", "lat": 30.94647, "lon": 77.5884}, {"name": "Chowari", "lat": 32.4319, "lon": 76.012}, {"name": "Chuari Khas", "lat": 32.43058, "lon": 76.01428}, {"name": "Dagshai", "lat": 30.88431, "lon": 77.05228}, {"name": "Dalhousie", "lat": 32.55219, "lon": 75.94663}, {"name": "Daulatpur", "lat": 31.78871, "lon": 75.99154}, {"name": "Dera Gopipur", "lat": 31.87919, "lon": 76.21871}, {"name": "Dharamsala", "lat": 32.22006, "lon": 76.32013}, {"name": "Gagret", "lat": 31.65846, "lon": 76.06144}, {"name": "Ghumarwin", "lat": 31.44166, "lon": 76.71509}, {"name": "Hamirpur", "lat": 31.75, "lon": 76.5}, {"name": "Jawala Mukhi", "lat": 31.87456, "lon": 76.32013}, {"name": "Jogindarnagar", "lat": 31.98727, "lon": 76.78906}, {"name": "Jubbal", "lat": 31.10923, "lon": 77.65085}, {"name": "Jutogh", "lat": 31.1, "lon": 77.11667}, {"name": "Kalka", "lat": 30.83982, "lon": 76.94065}, {"name": "Kangar", "lat": 32.09135, "lon": 76.26267}, {"name": "Kangra", "lat": 32.16667, "lon": 76.25}, {"name": "Kasauli", "lat": 30.89856, "lon": 76.96587}, {"name": "Kinnaur", "lat": 31.58333, "lon": 78.41667}, {"name": "Kotkhai", "lat": 31.11728, "lon": 77.53936}, {"name": "Kotla", "lat": 32.25, "lon": 76.03333}, {"name": "Kulu", "lat": 32.0, "lon": 77.25}, {"name": "Kyelang", "lat": 32.5717, "lon": 77.02448}, {"name": "Lahul and Spiti", "lat": 32.5, "lon": 77.83333}, {"name": "Manali", "lat": 32.2574, "lon": 77.17481}, {"name": "Mandi", "lat": 31.71194, "lon": 76.93273}, {"name": "Nadaun", "lat": 31.78303, "lon": 76.3431}, {"name": "Nagar", "lat": 32.13808, "lon": 77.17393}, {"name": "Nagrota", "lat": 32.0571, "lon": 76.09139}, {"name": "Nahan", "lat": 30.56029, "lon": 77.29426}, {"name": "Nalagarh", "lat": 31.04168, "lon": 76.72285}, {"name": "Palampur", "lat": 32.11453, "lon": 76.55681}, {"name": "Pandoh", "lat": 31.66902, "lon": 77.05359}, {"name": "Paonta Sahib", "lat": 30.43666, "lon": 77.62462}, {"name": "Parwanoo", "lat": 30.83716, "lon": 76.96143}, {"name": "Rajgarh", "lat": 30.85142, "lon": 77.30066}, {"name": "Rampur", "lat": 31.44943, "lon": 77.63087}, {"name": "Rohru", "lat": 31.20269, "lon": 77.75484}, {"name": "Sabathu", "lat": 30.97494, "lon": 76.99137}, {"name": "Santokhgarh", "lat": 31.35205, "lon": 76.31775}, {"name": "Sarahan", "lat": 31.50988, "lon": 77.79395}, {"name": "Sarka Ghat", "lat": 31.69887, "lon": 76.73529}, {"name": "Seoni", "lat": 31.24188, "lon": 77.12362}, {"name": "Shimla", "lat": 31.16667, "lon": 77.58333}, {"name": "Sirmaur", "lat": 30.75, "lon": 77.5}, {"name": "Solan", "lat": 31.08333, "lon": 76.83333}, {"name": "Sundarnagar", "lat": 31.53523, "lon": 76.905}, {"name": "Theog", "lat": 31.12155, "lon": 77.35838}, {"name": "Tira Sujanpur", "lat": 31.83364, "lon": 76.50539}, {"name": "Una", "lat": 31.46493, "lon": 76.26914}, {"name": "Yol", "lat": 32.16423, "lon": 76.19622}, {"name": "Akhnur", "lat": 32.86667, "lon": 74.73333}, {"name": "Anantnag", "lat": 33.73068, "lon": 75.15418}, {"name": "Awantipur", "lat": 33.91978, "lon": 75.01515}, {"name": "Badgam", "lat": 33.89001, "lon": 74.66297}, {"name": "Bandipore", "lat": 34.50404, "lon": 74.82832}, {"name": "Banihal", "lat": 33.43647, "lon": 75.19684}, {"name": "Baramula", "lat": 34.19287, "lon": 74.3692}, {"name": "Batoti", "lat": 33.11826, "lon": 75.30889}, {"name": "Bhadarwah", "lat": 32.97941, "lon": 75.71723}, {"name": "Bijbehara", "lat": 33.79378, "lon": 75.107}, {"name": "Bishnah", "lat": 32.6106, "lon": 74.85557}, {"name": "Doda", "lat": 33.14916, "lon": 75.54746}, {"name": "Ganderbal", "lat": 34.29467, "lon": 75.19996}, {"name": "Gho Brahmanan de", "lat": 32.5559, "lon": 74.9539}, {"name": "Hajan", "lat": 34.29895, "lon": 74.61681}, {"name": "Hiranagar", "lat": 32.45493, "lon": 75.27187}, {"name": "Jammu", "lat": 32.75, "lon": 74.83333}, {"name": "Jaurian", "lat": 32.83255, "lon": 74.57612}, {"name": "Kathua", "lat": 32.58333, "lon": 75.5}, {"name": "Katra", "lat": 32.99167, "lon": 74.93195}, {"name": "Khaur", "lat": 32.6027, "lon": 74.80918}, {"name": "Kishtwar", "lat": 33.52958, "lon": 76.01462}, {"name": "Kud", "lat": 33.07246, "lon": 75.28727}, {"name": "Kulgam", "lat": 33.64456, "lon": 75.01923}, {"name": "Kupwara", "lat": 34.53193, "lon": 74.26605}, {"name": "Ladakh", "lat": 34.33333, "lon": 77.41667}, {"name": "Magam", "lat": 34.09256, "lon": 74.59016}, {"name": "Nawanshahr", "lat": 32.76505, "lon": 74.52772}, {"name": "Noria", "lat": 32.52095, "lon": 74.79845}, {"name": "Padam", "lat": 33.46659, "lon": 76.88488}, {"name": "Pahlgam", "lat": 34.01592, "lon": 75.31899}, {"name": "Parol", "lat": 32.34598, "lon": 75.43441}, {"name": "Pattan", "lat": 34.16125, "lon": 74.55634}, {"name": "Pulwama", "lat": 33.87405, "lon": 74.89955}, {"name": "Punch", "lat": 33.70178, "lon": 74.19916}, {"name": "Qazigund", "lat": 33.63828, "lon": 75.14261}, {"name": "Rajaori", "lat": 33.37526, "lon": 74.3092}, {"name": "Rajauri", "lat": 33.25, "lon": 74.25}, {"name": "Ramban", "lat": 33.32301, "lon": 75.1861}, {"name": "Ramgarh", "lat": 33.40379, "lon": 74.22388}, {"name": "Ramnagar", "lat": 32.80728, "lon": 75.31119}, {"name": "Riasi", "lat": 33.08115, "lon": 74.83242}, {"name": "Samba", "lat": 32.57523, "lon": 75.10929}, {"name": "Shupiyan", "lat": 33.73067, "lon": 74.81869}, {"name": "Sopur", "lat": 34.28671, "lon": 74.47228}, {"name": "Soyibug", "lat": 34.07677, "lon": 74.7057}, {"name": "Srinagar", "lat": 34.08565, "lon": 74.80555}, {"name": "Sumbal", "lat": 34.23072, "lon": 74.6472}, {"name": "Thang", "lat": 34.9274, "lon": 76.79336}, {"name": "Thanna Mandi", "lat": 33.54204, "lon": 74.381}, {"name": "Tral", "lat": 33.92708, "lon": 75.11585}, {"name": "Tsrar Sharif", "lat": 33.86319, "lon": 74.76524}, {"name": "Udhampur", "lat": 33.0, "lon": 75.16667}, {"name": "Uri", "lat": 34.08064, "lon": 74.05088}, {"name": "Bagra", "lat": 23.73333, "lon": 86.31667}, {"name": "Barka Kana", "lat": 23.62118, "lon": 85.46748}, {"name": "Barki Saria", "lat": 24.17594, "lon": 85.88938}, {"name": "Barwadih", "lat": 23.8478, "lon": 84.11049}, {"name": "Bhojudih", "lat": 23.63962, "lon": 86.44105}, {"name": "Bokaro", "lat": 23.68562, "lon": 85.99026}, {"name": "Bundu", "lat": 23.16095, "lon": 85.59007}, {"name": "Chaibasa", "lat": 22.55038, "lon": 85.80249}, {"name": "Chakradharpur", "lat": 22.67611, "lon": 85.62892}, {"name": "Chakulia", "lat": 22.48301, "lon": 86.71793}, {"name": "Chandil", "lat": 22.95745, "lon": 86.05331}, {"name": "Chas", "lat": 23.63556, "lon": 86.16712}, {"name": "Chatra", "lat": 24.20645, "lon": 84.87085}, {"name": "Chiria", "lat": 22.31093, "lon": 85.27601}, {"name": "Daltonganj", "lat": 24.03971, "lon": 84.0658}, {"name": "Deogarh", "lat": 24.44382, "lon": 86.72607}, {"name": "Dhanbad", "lat": 23.80199, "lon": 86.44324}, {"name": "Dhanwar", "lat": 24.41074, "lon": 85.98183}, {"name": "Dugda", "lat": 23.74516, "lon": 86.17175}, {"name": "Dumka", "lat": 24.3, "lon": 87.25}, {"name": "Garhwa", "lat": 24.07494, "lon": 83.71023}, {"name": "Ghatsila", "lat": 22.58531, "lon": 86.47682}, {"name": "Giridih", "lat": 24.25, "lon": 85.91667}, {"name": "Gobindpur", "lat": 22.63393, "lon": 86.07162}, {"name": "Godda", "lat": 24.83333, "lon": 87.21667}, {"name": "Gomoh", "lat": 23.87355, "lon": 86.1516}, {"name": "Gopinathpur", "lat": 22.66301, "lon": 86.075}, {"name": "Gua", "lat": 22.21361, "lon": 85.38774}, {"name": "Gumia", "lat": 23.7975, "lon": 85.82523}, {"name": "Gumla", "lat": 23.08055, "lon": 84.53834}, {"name": "Hazaribag", "lat": 24.0, "lon": 85.25}, {"name": "Hazaribagh", "lat": 23.99241, "lon": 85.36162}, {"name": "Hesla", "lat": 24.06313, "lon": 85.87905}, {"name": "Husainabad", "lat": 24.52849, "lon": 84.0}, {"name": "Jagannathpur", "lat": 22.22115, "lon": 85.63917}, {"name": "Jamadoba", "lat": 23.71667, "lon": 86.4}, {"name": "Jamshedpur", "lat": 22.80278, "lon": 86.18545}, {"name": "Jamtara", "lat": 24.0, "lon": 86.85}, {"name": "Jasidih", "lat": 24.51379, "lon": 86.64576}, {"name": "Jharia", "lat": 23.74079, "lon": 86.41456}, {"name": "Jugsalai", "lat": 22.77668, "lon": 86.18351}, {"name": "Jumri Tilaiya", "lat": 24.4349, "lon": 85.52951}, {"name": "Kalikapur", "lat": 22.61662, "lon": 86.2881}, {"name": "Kandra", "lat": 22.8517, "lon": 86.05192}, {"name": "Kanke", "lat": 23.43478, "lon": 85.32059}, {"name": "Katras", "lat": 23.79752, "lon": 86.29834}, {"name": "Kenduadih", "lat": 23.77574, "lon": 86.37609}, {"name": "Kharsawan", "lat": 22.79093, "lon": 85.83102}, {"name": "Khunti", "lat": 23.07602, "lon": 85.27818}, {"name": "Kodarma", "lat": 24.46753, "lon": 85.59397}, {"name": "Kuju", "lat": 23.72536, "lon": 85.51023}, {"name": "Latehar", "lat": 23.75, "lon": 84.4}, {"name": "Lohardaga", "lat": 23.5, "lon": 84.6}, {"name": "Madhupur", "lat": 24.27419, "lon": 86.63929}, {"name": "Malkera", "lat": 23.78213, "lon": 86.28767}, {"name": "Manoharpur", "lat": 22.37456, "lon": 85.19234}, {"name": "Mugma", "lat": 23.77015, "lon": 86.72746}, {"name": "Mushabani", "lat": 22.51135, "lon": 86.45713}, {"name": "Neturhat", "lat": 23.47457, "lon": 84.2678}, {"name": "Nirsa", "lat": 23.78438, "lon": 86.70692}, {"name": "Noamundi", "lat": 22.16094, "lon": 85.50416}, {"name": "Pakur", "lat": 24.63925, "lon": 87.84239}, {"name": "Palamu", "lat": 23.91667, "lon": 84.08333}, {"name": "Pashchim Singhbhum", "lat": 22.5, "lon": 85.5}, {"name": "patamda", "lat": 24.3, "lon": 85.41667}, {"name": "Pathardih", "lat": 23.6658, "lon": 86.43166}, {"name": "Purba Singhbhum", "lat": 22.59238, "lon": 86.48341}, {"name": "Ramgarh", "lat": 23.63073, "lon": 85.56057}, {"name": "Ranchi", "lat": 23.34316, "lon": 85.3094}, {"name": "Ray", "lat": 23.6843, "lon": 85.05457}, {"name": "Sahibganj", "lat": 24.99354, "lon": 87.67333}, {"name": "Saraikela", "lat": 22.69963, "lon": 85.93126}, {"name": "Sarubera", "lat": 23.81813, "lon": 85.99628}, {"name": "Sijua", "lat": 23.77617, "lon": 86.33028}, {"name": "Simdega", "lat": 22.61523, "lon": 84.50208}, {"name": "Sini", "lat": 22.79325, "lon": 85.94543}, {"name": "Topchanchi", "lat": 23.90381, "lon": 86.19792}, {"name": "Afzalpur", "lat": 17.19986, "lon": 76.36018}, {"name": "Ajjampur", "lat": 13.72794, "lon": 76.0068}, {"name": "Aland", "lat": 17.56425, "lon": 76.56854}, {"name": "Alnavar", "lat": 15.42727, "lon": 74.74111}, {"name": "Alur", "lat": 12.97805, "lon": 75.99094}, {"name": "Anekal", "lat": 12.7111, "lon": 77.69557}, {"name": "Ankola", "lat": 14.66049, "lon": 74.3047}, {"name": "Annigeri", "lat": 15.42513, "lon": 75.4335}, {"name": "Arkalgud", "lat": 12.76171, "lon": 76.06035}, {"name": "Arsikere", "lat": 13.31446, "lon": 76.25704}, {"name": "Athni", "lat": 16.72613, "lon": 75.06421}, {"name": "Aurad", "lat": 18.25397, "lon": 77.41761}, {"name": "Badami", "lat": 15.91495, "lon": 75.67683}, {"name": "Bagalkot", "lat": 16.18, "lon": 75.69}, {"name": "Bagepalli", "lat": 13.78338, "lon": 77.79667}, {"name": "Bail-Hongal", "lat": 15.8137, "lon": 74.85895}, {"name": "Ballari", "lat": 15.15, "lon": 76.55}, {"name": "Banavar", "lat": 13.41029, "lon": 76.16314}, {"name": "Bangarapet", "lat": 12.99116, "lon": 78.17804}, {"name": "Bannur", "lat": 12.33295, "lon": 76.86201}, {"name": "Bantval", "lat": 12.8905, "lon": 75.03489}, {"name": "Basavakalyan", "lat": 17.87445, "lon": 76.94972}, {"name": "Basavana Bagevadi", "lat": 16.57278, "lon": 75.97252}, {"name": "Belagavi", "lat": 16.33333, "lon": 74.75}, {"name": "Belluru", "lat": 12.9814, "lon": 76.73308}, {"name": "Beltangadi", "lat": 13.98333, "lon": 75.3}, {"name": "Belur", "lat": 13.16558, "lon": 75.86519}, {"name": "Bengaluru", "lat": 12.97194, "lon": 77.59369}, {"name": "Bengaluru Rural", "lat": 13.22567, "lon": 77.57501}, {"name": "Bengaluru Urban", "lat": 13.0, "lon": 77.58333}, {"name": "Bhadravati", "lat": 13.84846, "lon": 75.70502}, {"name": "Bhalki", "lat": 18.04348, "lon": 77.206}, {"name": "Bhatkal", "lat": 13.98534, "lon": 74.55531}, {"name": "Bidar", "lat": 18.08333, "lon": 77.33333}, {"name": "Bilgi", "lat": 16.34714, "lon": 75.61804}, {"name": "Birur", "lat": 13.59723, "lon": 75.97167}, {"name": "Byadgi", "lat": 14.67325, "lon": 75.4868}, {"name": "Byndoor", "lat": 13.86667, "lon": 74.63333}, {"name": "Canacona", "lat": 14.9959, "lon": 74.05056}, {"name": "Challakere", "lat": 14.318, "lon": 76.65165}, {"name": "Chamrajnagar", "lat": 11.96, "lon": 77.09}, {"name": "Channagiri", "lat": 14.02399, "lon": 75.92577}, {"name": "Channapatna", "lat": 12.65143, "lon": 77.20672}, {"name": "Channarayapatna", "lat": 12.90642, "lon": 76.38775}, {"name": "Chik Ballapur", "lat": 13.43512, "lon": 77.72787}, {"name": "Chikkaballapur", "lat": 13.55, "lon": 77.87}, {"name": "Chikkamagaluru", "lat": 13.49, "lon": 75.73}, {"name": "Chiknayakanhalli", "lat": 13.41609, "lon": 76.62063}, {"name": "Chikodi", "lat": 16.42898, "lon": 74.58591}, {"name": "Chincholi", "lat": 17.46508, "lon": 77.41874}, {"name": "Chintamani", "lat": 13.40051, "lon": 78.05172}, {"name": "Chitapur", "lat": 17.12357, "lon": 77.0824}, {"name": "Chitradurga", "lat": 14.2, "lon": 76.5}, {"name": "Closepet", "lat": 12.72181, "lon": 77.28149}, {"name": "Coondapoor", "lat": 13.63126, "lon": 74.6902}, {"name": "Dakshina Kannada", "lat": 12.84, "lon": 75.29}, {"name": "Dandeli", "lat": 15.26667, "lon": 74.61667}, {"name": "Davanagere", "lat": 14.43, "lon": 75.9}, {"name": "Devanhalli", "lat": 13.24655, "lon": 77.71183}, {"name": "Dharwad", "lat": 15.37, "lon": 75.14}, {"name": "Dod Ballapur", "lat": 13.29452, "lon": 77.53777}, {"name": "French Rocks", "lat": 12.50094, "lon": 76.67416}, {"name": "Gadag", "lat": 15.49835, "lon": 75.65187}, {"name": "Gadag-Betageri", "lat": 15.4167, "lon": 75.6167}, {"name": "Gajendragarh", "lat": 15.73628, "lon": 75.96976}, {"name": "Gangawati", "lat": 15.4313, "lon": 76.52933}, {"name": "Gangolli", "lat": 13.65024, "lon": 74.67072}, {"name": "Gokak", "lat": 16.16901, "lon": 74.82393}, {"name": "Gokarna", "lat": 14.55, "lon": 74.31667}, {"name": "Goribidnur", "lat": 13.61072, "lon": 77.51738}, {"name": "Gorur", "lat": 12.82297, "lon": 76.06463}, {"name": "Gubbi", "lat": 13.31216, "lon": 76.94102}, {"name": "Gudibanda", "lat": 13.67099, "lon": 77.70414}, {"name": "Guledagudda", "lat": 16.05025, "lon": 75.78997}, {"name": "Gundlupet", "lat": 11.81004, "lon": 76.69027}, {"name": "Gurmatkal", "lat": 16.86773, "lon": 77.39088}, {"name": "Hadagalli", "lat": 15.02048, "lon": 75.93185}, {"name": "Haliyal", "lat": 15.32864, "lon": 74.75638}, {"name": "Hampi", "lat": 15.3352, "lon": 76.4603}, {"name": "Hangal", "lat": 14.76465, "lon": 75.1246}, {"name": "Harihar", "lat": 14.51288, "lon": 75.80716}, {"name": "Harpanahalli", "lat": 14.78766, "lon": 75.98863}, {"name": "Hassan", "lat": 12.95, "lon": 76.08333}, {"name": "Haveri", "lat": 14.73732, "lon": 75.41062}, {"name": "Heggadadevankote", "lat": 12.08809, "lon": 76.32957}, {"name": "Hirekerur", "lat": 14.45506, "lon": 75.3952}, {"name": "Hiriyur", "lat": 13.94455, "lon": 76.61723}, {"name": "Holalkere", "lat": 14.04295, "lon": 76.18496}, {"name": "Hole Narsipur", "lat": 12.78635, "lon": 76.24331}, {"name": "Homnabad", "lat": 17.77074, "lon": 77.12519}, {"name": "Honavar", "lat": 14.28088, "lon": 74.44497}, {"name": "Honnali", "lat": 14.23976, "lon": 75.64507}, {"name": "Hosanagara", "lat": 13.91387, "lon": 75.06503}, {"name": "Hosangadi", "lat": 13.69756, "lon": 74.95427}, {"name": "Hosdurga", "lat": 13.79631, "lon": 76.28408}, {"name": "Hoskote", "lat": 13.0707, "lon": 77.79814}, {"name": "Hospet", "lat": 15.26954, "lon": 76.3871}, {"name": "Hubballi", "lat": 15.34776, "lon": 75.13378}, {"name": "Hukeri", "lat": 16.23082, "lon": 74.60244}, {"name": "Hungund", "lat": 16.06213, "lon": 76.0586}, {"name": "Hunsur", "lat": 12.30359, "lon": 76.29275}, {"name": "Ilkal", "lat": 15.95923, "lon": 76.11351}, {"name": "Indi", "lat": 17.17735, "lon": 75.9526}, {"name": "Jagalur", "lat": 14.51957, "lon": 76.33915}, {"name": "Jamkhandi", "lat": 16.50461, "lon": 75.29146}, {"name": "Jevargi", "lat": 17.01394, "lon": 76.77317}, {"name": "Kadur", "lat": 13.55285, "lon": 76.01164}, {"name": "Kalaburgi", "lat": 17.16667, "lon": 77.08333}, {"name": "Kalghatgi", "lat": 15.18315, "lon": 74.97099}, {"name": "Kampli", "lat": 15.40626, "lon": 76.60013}, {"name": "Kanakpura", "lat": 12.5454089, "lon": 77.4132286}, {"name": "Kankanhalli", "lat": 12.54654, "lon": 77.42005}, {"name": "Karkala", "lat": 13.21428, "lon": 74.99234}, {"name": "Karwar", "lat": 14.81361, "lon": 74.12972}, {"name": "Kavalur", "lat": 15.28829, "lon": 75.9433}, {"name": "Kerur", "lat": 16.01384, "lon": 75.54631}, {"name": "Khanapur", "lat": 15.63969, "lon": 74.50847}, {"name": "Kodagu", "lat": 12.41667, "lon": 75.75}, {"name": "Kodigenahalli", "lat": 13.72136, "lon": 77.38629}, {"name": "Kodlipet", "lat": 12.80087, "lon": 75.88662}, {"name": "Kolar", "lat": 13.13, "lon": 78.23}, {"name": "Kollegal", "lat": 12.15449, "lon": 77.11051}, {"name": "Konanur", "lat": 12.63016, "lon": 76.05037}, {"name": "Konnur", "lat": 16.20138, "lon": 74.74886}, {"name": "Koppa", "lat": 13.53044, "lon": 75.36329}, {"name": "Koppal", "lat": 15.5, "lon": 76.2}, {"name": "Koratagere", "lat": 13.522, "lon": 77.2373}, {"name": "Kotturu", "lat": 14.82442, "lon": 76.22005}, {"name": "Krishnarajpet", "lat": 12.66621, "lon": 76.4877}, {"name": "Kudachi", "lat": 16.62784, "lon": 74.85408}, {"name": "Kudligi", "lat": 14.905, "lon": 76.38527}, {"name": "Kumsi", "lat": 14.05455, "lon": 75.39992}, {"name": "Kumta", "lat": 14.42853, "lon": 74.4189}, {"name": "Kundgol", "lat": 15.25612, "lon": 75.24735}, {"name": "Kunigal", "lat": 13.02319, "lon": 77.02518}, {"name": "Kurgunta", "lat": 17.19321, "lon": 77.35772}, {"name": "Kushalnagar", "lat": 12.45795, "lon": 75.95904}, {"name": "Kushtagi", "lat": 15.75623, "lon": 76.19112}, {"name": "Lakshmeshwar", "lat": 15.12689, "lon": 75.46935}, {"name": "Lingsugur", "lat": 16.15876, "lon": 76.52174}, {"name": "Londa", "lat": 15.46907, "lon": 74.51906}, {"name": "Maddagiri", "lat": 13.66035, "lon": 77.21239}, {"name": "Maddur", "lat": 12.58283, "lon": 77.04294}, {"name": "Madikeri", "lat": 12.42602, "lon": 75.7382}, {"name": "Magadi", "lat": 12.95706, "lon": 77.22374}, {"name": "Mahalingpur", "lat": 16.3888, "lon": 75.10873}, {"name": "Malavalli", "lat": 12.38556, "lon": 77.06045}, {"name": "Malpe", "lat": 13.34962, "lon": 74.70394}, {"name": "Malur", "lat": 13.00322, "lon": 77.93798}, {"name": "Mandya", "lat": 12.5223, "lon": 76.89746}, {"name": "Mangaluru", "lat": 12.91723, "lon": 74.85603}, {"name": "Manipal", "lat": 13.35, "lon": 74.78333}, {"name": "Manvi", "lat": 15.99126, "lon": 77.05034}, {"name": "Mayakonda", "lat": 14.28894, "lon": 76.08305}, {"name": "Melukote", "lat": 12.66258, "lon": 76.64861}, {"name": "Mudbidri", "lat": 13.06653, "lon": 74.99525}, {"name": "Muddebihal", "lat": 16.33782, "lon": 76.13173}, {"name": "Mudgal", "lat": 16.01191, "lon": 76.44203}, {"name": "Mudgere", "lat": 13.13353, "lon": 75.6416}, {"name": "Mudhol", "lat": 16.33354, "lon": 75.28305}, {"name": "Mulbagal", "lat": 13.16352, "lon": 78.39346}, {"name": "Mulgund", "lat": 15.2807, "lon": 75.52132}, {"name": "Mulki", "lat": 13.09101, "lon": 74.79353}, {"name": "Mundargi", "lat": 15.20677, "lon": 75.8839}, {"name": "Mundgod", "lat": 14.97144, "lon": 75.03658}, {"name": "Munirabad", "lat": 15.30928, "lon": 76.3383}, {"name": "Murudeshwara", "lat": 14.0943, "lon": 74.4845}, {"name": "Mysuru", "lat": 12.23, "lon": 76.42}, {"name": "Nagamangala", "lat": 12.81939, "lon": 76.75456}, {"name": "Nanjangud", "lat": 12.11764, "lon": 76.68397}, {"name": "Narasimharajapura", "lat": 13.61075, "lon": 75.512}, {"name": "Naregal", "lat": 15.57316, "lon": 75.80805}, {"name": "Nargund", "lat": 15.72299, "lon": 75.38666}, {"name": "Navalgund", "lat": 15.55877, "lon": 75.35305}, {"name": "Nelamangala", "lat": 13.09978, "lon": 77.39364}, {"name": "Nyamti", "lat": 14.14869, "lon": 75.57641}, {"name": "Pangala", "lat": 13.25, "lon": 74.75}, {"name": "Pavugada", "lat": 14.09953, "lon": 77.28018}, {"name": "Piriyapatna", "lat": 12.33497, "lon": 76.10073}, {"name": "Ponnampet", "lat": 12.14473, "lon": 75.94514}, {"name": "Puttur", "lat": 12.75975, "lon": 75.20169}, {"name": "Rabkavi", "lat": 16.47567, "lon": 75.1106}, {"name": "Raichur", "lat": 16.16, "lon": 76.91}, {"name": "Ramanagara", "lat": 12.65, "lon": 77.35}, {"name": "Ranibennur", "lat": 14.62239, "lon": 75.62951}, {"name": "Raybag", "lat": 16.49178, "lon": 74.77391}, {"name": "Robertsonpet", "lat": 12.95629, "lon": 78.27539}, {"name": "Ron", "lat": 15.69935, "lon": 75.73408}, {"name": "Sadalgi", "lat": 16.5587, "lon": 74.53211}, {"name": "Sagar", "lat": 14.16498, "lon": 75.02901}, {"name": "Sakleshpur", "lat": 12.94119, "lon": 75.78467}, {"name": "Sandur", "lat": 15.08613, "lon": 76.54692}, {"name": "Sanivarsante", "lat": 12.72824, "lon": 75.88669}, {"name": "Sankeshwar", "lat": 16.25649, "lon": 74.48195}, {"name": "Sargur", "lat": 11.99971, "lon": 76.39611}, {"name": "Saundatti", "lat": 15.76615, "lon": 75.11778}, {"name": "Savanur", "lat": 14.97335, "lon": 75.33724}, {"name": "Seram", "lat": 17.17859, "lon": 77.28998}, {"name": "Shahabad", "lat": 17.1307, "lon": 76.94361}, {"name": "Shahpur", "lat": 16.69605, "lon": 76.8422}, {"name": "Shiggaon", "lat": 14.99053, "lon": 75.22499}, {"name": "Shikarpur", "lat": 14.2698, "lon": 75.35643}, {"name": "Shimoga", "lat": 14.05, "lon": 75.16}, {"name": "Shirhatti", "lat": 15.23352, "lon": 75.57996}, {"name": "Shorapur", "lat": 16.521, "lon": 76.75738}, {"name": "Shrirangapattana", "lat": 12.42264, "lon": 76.68439}, {"name": "Siddapur", "lat": 14.34322, "lon": 74.894}, {"name": "Sidlaghatta", "lat": 13.38896, "lon": 77.86444}, {"name": "Sindgi", "lat": 16.91883, "lon": 76.23368}, {"name": "Sindhnur", "lat": 15.76983, "lon": 76.75581}, {"name": "Sira", "lat": 13.74155, "lon": 76.9043}, {"name": "Sirsi", "lat": 14.62072, "lon": 74.83554}, {"name": "Siruguppa", "lat": 15.63, "lon": 76.89217}, {"name": "Someshwar", "lat": 13.49112, "lon": 75.06646}, {"name": "Somvarpet", "lat": 12.59698, "lon": 75.84957}, {"name": "Sorab", "lat": 14.38144, "lon": 75.09183}, {"name": "Sravana Belgola", "lat": 12.85737, "lon": 76.48886}, {"name": "Sringeri", "lat": 13.41698, "lon": 75.25271}, {"name": "Srinivaspur", "lat": 13.33914, "lon": 78.21175}, {"name": "Sulya", "lat": 12.561, "lon": 75.38741}, {"name": "Suntikoppa", "lat": 12.45594, "lon": 75.8297}, {"name": "Talikota", "lat": 16.47311, "lon": 76.31085}, {"name": "Tarikere", "lat": 13.70954, "lon": 75.81382}, {"name": "Tekkalakote", "lat": 15.53444, "lon": 76.87703}, {"name": "Terdal", "lat": 16.49379, "lon": 75.04667}, {"name": "Tiptur", "lat": 13.2563, "lon": 76.47768}, {"name": "Tirthahalli", "lat": 13.68835, "lon": 75.24548}, {"name": "Tirumakudal Narsipur", "lat": 12.21207, "lon": 76.9018}, {"name": "Tumakuru", "lat": 13.5, "lon": 77.0}, {"name": "Turuvekere", "lat": 13.16374, "lon": 76.66641}, {"name": "Udupi", "lat": 13.5, "lon": 74.87}, {"name": "Ullal", "lat": 12.80569, "lon": 74.86058}, {"name": "Uttar Kannada", "lat": 14.88333, "lon": 74.58333}, {"name": "Vadigenhalli", "lat": 13.29724, "lon": 77.80184}, {"name": "Vijayapura", "lat": 16.82442, "lon": 75.71537}, {"name": "Virarajendrapet", "lat": 12.19644, "lon": 75.80512}, {"name": "Wadi", "lat": 17.05183, "lon": 76.99048}, {"name": "Yadgir", "lat": 16.73, "lon": 76.94}, {"name": "Yelahanka", "lat": 13.10073, "lon": 77.59632}, {"name": "Yelandur", "lat": 12.04629, "lon": 77.03034}, {"name": "Yelbarga", "lat": 15.61545, "lon": 76.01184}, {"name": "Yellapur", "lat": 14.9637, "lon": 74.70929}, {"name": "Adoor", "lat": 9.15595, "lon": 76.73192}, {"name": "Alappuzha", "lat": 9.49004, "lon": 76.3264}, {"name": "Aluva", "lat": 10.10764, "lon": 76.35158}, {"name": "Alwaye", "lat": 10.10649, "lon": 76.35484}, {"name": "Angamali", "lat": 10.19055, "lon": 76.38789}, {"name": "Aroor", "lat": 9.8694, "lon": 76.30498}, {"name": "Arukutti", "lat": 9.86667, "lon": 76.35}, {"name": "Attingal", "lat": 8.69609, "lon": 76.81507}, {"name": "Avanoor", "lat": 10.60826, "lon": 76.1762}, {"name": "Azhikkal", "lat": 11.91524, "lon": 75.34761}, {"name": "Beypore", "lat": 11.17151, "lon": 75.80611}, {"name": "Changanacheri", "lat": 9.44203, "lon": 76.53604}, {"name": "Chelakara", "lat": 10.69289, "lon": 76.34387}, {"name": "Chengannur", "lat": 9.31575, "lon": 76.61513}, {"name": "Cherpulassery", "lat": 10.87655, "lon": 76.30932}, {"name": "Cherthala", "lat": 9.68444, "lon": 76.33558}, {"name": "Chetwayi", "lat": 10.52885, "lon": 76.04793}, {"name": "Chittur", "lat": 10.69967, "lon": 76.7471}, {"name": "Cochin", "lat": 9.93988, "lon": 76.26022}, {"name": "Dharmadom", "lat": 11.77538, "lon": 75.46459}, {"name": "Edakkulam", "lat": 10.6102, "lon": 76.18352}, {"name": "Elur", "lat": 10.06667, "lon": 76.28333}, {"name": "Erattupetta", "lat": 9.68747, "lon": 76.77891}, {"name": "Ernakulam", "lat": 10.0, "lon": 76.5}, {"name": "Ferokh", "lat": 11.17989, "lon": 75.84141}, {"name": "Guruvayur", "lat": 10.5943, "lon": 76.0411}, {"name": "Idukki", "lat": 10.0, "lon": 77.0}, {"name": "Iringal", "lat": 11.55929, "lon": 75.61663}, {"name": "Irinjalakuda", "lat": 10.34238, "lon": 76.21124}, {"name": "Kadakkavoor", "lat": 8.67921, "lon": 76.76714}, {"name": "Kalamassery", "lat": 10.0614, "lon": 76.32631}, {"name": "Kalavoor", "lat": 9.57046, "lon": 76.32756}, {"name": "Kalpetta", "lat": 11.60871, "lon": 76.08343}, {"name": "Kanhangad", "lat": 12.30814, "lon": 75.10632}, {"name": "Kannavam", "lat": 11.8445, "lon": 75.66266}, {"name": "Kannur", "lat": 12.16667, "lon": 75.33333}, {"name": "Kasaragod", "lat": 12.49838, "lon": 74.98959}, {"name": "Kattanam", "lat": 9.17614, "lon": 76.56325}, {"name": "Kayankulam", "lat": 9.18173, "lon": 76.50093}, {"name": "Kizhake Chalakudi", "lat": 10.30067, "lon": 76.33763}, {"name": "Kodungallur", "lat": 10.23263, "lon": 76.19513}, {"name": "Kollam", "lat": 8.88113, "lon": 76.58469}, {"name": "Kotamangalam", "lat": 10.06435, "lon": 76.62843}, {"name": "Kottayam", "lat": 9.66667, "lon": 76.66667}, {"name": "Kovalam", "lat": 8.36667, "lon": 76.99667}, {"name": "Kozhikode", "lat": 11.5, "lon": 76.0}, {"name": "Kumbalam", "lat": 9.9063, "lon": 76.31127}, {"name": "Kunnamangalam", "lat": 11.30459, "lon": 75.87772}, {"name": "Kunnamkulam", "lat": 10.64667, "lon": 76.06695}, {"name": "Kunnumma", "lat": 9.35672, "lon": 76.41343}, {"name": "Kutiatodu", "lat": 9.8, "lon": 76.33333}, {"name": "Kuttampuzha", "lat": 10.15033, "lon": 76.73544}, {"name": "Lalam", "lat": 9.71667, "lon": 76.7}, {"name": "Mahe", "lat": 11.70172, "lon": 75.53474}, {"name": "Malappuram", "lat": 11.0, "lon": 76.16667}, {"name": "Manjeri", "lat": 11.12018, "lon": 76.11996}, {"name": "Manjeshwaram", "lat": 12.71287, "lon": 74.88857}, {"name": "Mannarakkat", "lat": 10.99223, "lon": 76.46418}, {"name": "Marayur", "lat": 10.27641, "lon": 77.16205}, {"name": "Mattanur", "lat": 11.93018, "lon": 75.57152}, {"name": "Mavelikara", "lat": 9.25929, "lon": 76.55642}, {"name": "Mavoor", "lat": 11.26667, "lon": 75.91667}, {"name": "Muluppilagadu", "lat": 11.79788, "lon": 75.45111}, {"name": "Munnar", "lat": 10.08818, "lon": 77.06239}, {"name": "Muvattupula", "lat": 9.98493, "lon": 76.57728}, {"name": "Muvattupuzha", "lat": 9.97985, "lon": 76.57381}, {"name": "Nadapuram", "lat": 11.68465, "lon": 75.65493}, {"name": "Naduvannur", "lat": 11.48772, "lon": 75.77511}, {"name": "Nedumangad", "lat": 8.60267, "lon": 77.00139}, {"name": "Neyyattinkara", "lat": 8.39854, "lon": 77.08586}, {"name": "Nileshwar", "lat": 12.25953, "lon": 75.1352}, {"name": "Ottappalam", "lat": 10.7735, "lon": 76.37758}, {"name": "Palackattumala", "lat": 9.74356, "lon": 76.6294}, {"name": "Palakkad", "lat": 10.775, "lon": 76.651}, {"name": "Palghat", "lat": 10.77319, "lon": 76.65366}, {"name": "Panamaram", "lat": 11.74014, "lon": 76.07369}, {"name": "Pappinissheri", "lat": 11.95655, "lon": 75.34034}, {"name": "Paravur Tekkumbhagam", "lat": 8.7947, "lon": 76.66798}, {"name": "Pariyapuram", "lat": 11.01667, "lon": 75.86667}, {"name": "Pathanamthitta", "lat": 9.26667, "lon": 76.78333}, {"name": "Pattanamtitta", "lat": 9.28068, "lon": 76.86967}, {"name": "Payyanur", "lat": 12.0935, "lon": 75.20249}, {"name": "Perinthalmanna", "lat": 10.97768, "lon": 76.228508}, {"name": "Perumbavoor", "lat": 10.10695, "lon": 76.47366}, {"name": "Perumpavur", "lat": 10.11544, "lon": 76.47611}, {"name": "Perya", "lat": 11.83334, "lon": 75.85408}, {"name": "Piravam", "lat": 9.86667, "lon": 76.5}, {"name": "Ponmana", "lat": 9.00798, "lon": 76.52023}, {"name": "Ponnani", "lat": 10.76695, "lon": 75.92523}, {"name": "Punalur", "lat": 9.01956, "lon": 76.92261}, {"name": "Ramamangalam", "lat": 9.93333, "lon": 76.5}, {"name": "Shertallai", "lat": 9.68581, "lon": 76.33996}, {"name": "Shoranur", "lat": 10.76181, "lon": 76.27078}, {"name": "Taliparamba", "lat": 12.04161, "lon": 75.35927}, {"name": "Thalassery", "lat": 11.74811, "lon": 75.4929}, {"name": "Thanniyam", "lat": 10.41667, "lon": 76.13333}, {"name": "Thiruvananthapuram", "lat": 8.60399, "lon": 76.98574}, {"name": "Thrissur", "lat": 10.51667, "lon": 76.21667}, {"name": "Tirur", "lat": 10.91368, "lon": 75.92118}, {"name": "Tiruvalla", "lat": 9.3816, "lon": 76.57489}, {"name": "Vaikam", "lat": 9.74858, "lon": 76.39637}, {"name": "Varkala", "lat": 8.7333, "lon": 76.7167}, {"name": "Vatakara", "lat": 11.59776, "lon": 75.58142}, {"name": "Vayalar", "lat": 9.71158, "lon": 76.33888}, {"name": "Vettur", "lat": 8.71742, "lon": 76.72582}, {"name": "Wayanad", "lat": 11.605, "lon": 76.083}, {"name": "Kargil", "lat": 34.55765, "lon": 76.12622}, {"name": "Leh", "lat": 34.16504, "lon": 77.58402}, {"name": "Kavaratti", "lat": 10.56688, "lon": 72.64203}, {"name": "Lakshadweep", "lat": 11.27333, "lon": 74.04582}, {"name": "Agar", "lat": 23.71177, "lon": 76.01571}, {"name": "Ajaigarh", "lat": 24.89879, "lon": 80.25921}, {"name": "Akodia", "lat": 23.38027, "lon": 76.59875}, {"name": "Alampur", "lat": 26.02514, "lon": 78.79697}, {"name": "Alirajpur", "lat": 22.31384, "lon": 74.36452}, {"name": "Alot", "lat": 23.76336, "lon": 75.55662}, {"name": "Amanganj", "lat": 24.42664, "lon": 80.03579}, {"name": "Amarkantak", "lat": 22.67486, "lon": 81.75908}, {"name": "Amarpatan", "lat": 24.31371, "lon": 80.97703}, {"name": "Amarwara", "lat": 22.2978, "lon": 79.16943}, {"name": "Ambah", "lat": 26.70423, "lon": 78.22678}, {"name": "Amla", "lat": 21.92485, "lon": 78.12786}, {"name": "Anjad", "lat": 22.04171, "lon": 75.05519}, {"name": "Antri", "lat": 26.05804, "lon": 78.21027}, {"name": "Anuppur", "lat": 23.05674, "lon": 81.68399}, {"name": "Aron", "lat": 24.38109, "lon": 77.41739}, {"name": "Ashoknagar", "lat": 24.58, "lon": 77.73}, {"name": "Ashta", "lat": 23.01754, "lon": 76.72208}, {"name": "Babai", "lat": 22.70256, "lon": 77.93494}, {"name": "Badarwas", "lat": 24.97516, "lon": 77.5649}, {"name": "Badnawar", "lat": 23.02181, "lon": 75.23268}, {"name": "Bagh", "lat": 22.35905, "lon": 74.79052}, {"name": "Bagli", "lat": 22.64124, "lon": 76.34877}, {"name": "Baihar", "lat": 22.10133, "lon": 80.54967}, {"name": "Baikunthpur", "lat": 24.72768, "lon": 81.40975}, {"name": "Bakshwaha", "lat": 24.25106, "lon": 79.28618}, {"name": "Balaghat", "lat": 21.96667, "lon": 80.33333}, {"name": "Baldeogarh", "lat": 24.75619, "lon": 79.06715}, {"name": "Bamna", "lat": 23.09454, "lon": 74.76164}, {"name": "Bamor Kalan", "lat": 24.89298, "lon": 78.15105}, {"name": "Bamora", "lat": 24.05539, "lon": 78.08925}, {"name": "Banda", "lat": 24.04488, "lon": 78.96094}, {"name": "Barela", "lat": 23.09678, "lon": 80.05084}, {"name": "Barghat", "lat": 22.03065, "lon": 79.7328}, {"name": "Bargi", "lat": 22.99138, "lon": 79.8755}, {"name": "Barhi", "lat": 23.90326, "lon": 80.81516}, {"name": "Barwani", "lat": 22.02485, "lon": 74.91805}, {"name": "Basoda", "lat": 23.85153, "lon": 77.93652}, {"name": "Begamganj", "lat": 23.59917, "lon": 78.34064}, {"name": "Beohari", "lat": 24.02423, "lon": 81.37831}, {"name": "Berasia", "lat": 23.63134, "lon": 77.43351}, {"name": "Betma", "lat": 22.68653, "lon": 75.61456}, {"name": "Betul", "lat": 21.83333, "lon": 77.83333}, {"name": "Betul Bazar", "lat": 21.85572, "lon": 77.92913}, {"name": "Bhabhra", "lat": 22.53048, "lon": 74.32846}, {"name": "Bhainsdehi", "lat": 21.64491, "lon": 77.63023}, {"name": "Bhander", "lat": 25.73581, "lon": 78.74555}, {"name": "Bhanpura", "lat": 24.513, "lon": 75.7469}, {"name": "Bhawaniganj", "lat": 24.41582, "lon": 75.83552}, {"name": "Bhikangaon", "lat": 21.86764, "lon": 75.96391}, {"name": "Bhind", "lat": 26.5, "lon": 78.75}, {"name": "Bhitarwar", "lat": 25.79216, "lon": 78.11085}, {"name": "Bhopal", "lat": 23.25469, "lon": 77.40289}, {"name": "Biaora", "lat": 23.9205, "lon": 76.91074}, {"name": "Bijawar", "lat": 24.62351, "lon": 79.48994}, {"name": "Bijrauni", "lat": 24.93296, "lon": 77.64352}, {"name": "Bodri", "lat": 23.16524, "lon": 81.43262}, {"name": "Burhanpur", "lat": 21.31, "lon": 76.23}, {"name": "Burhar", "lat": 23.21494, "lon": 81.53204}, {"name": "Chanderi", "lat": 24.71312, "lon": 78.13809}, {"name": "Chandia", "lat": 23.65647, "lon": 80.70911}, {"name": "Chandla", "lat": 25.07148, "lon": 80.19294}, {"name": "Chhatarpur", "lat": 24.75, "lon": 79.75}, {"name": "Chhindwara", "lat": 22.05697, "lon": 78.93958}, {"name": "Chichli", "lat": 22.83363, "lon": 78.82611}, {"name": "Chorhat", "lat": 24.42743, "lon": 81.66948}, {"name": "Daboh", "lat": 26.00239, "lon": 78.87658}, {"name": "Dabra", "lat": 25.88572, "lon": 78.33221}, {"name": "Damoh", "lat": 23.75, "lon": 79.58333}, {"name": "Datia", "lat": 25.75, "lon": 78.5}, {"name": "Deori Khas", "lat": 23.39017, "lon": 79.0163}, {"name": "Depalpur", "lat": 22.85095, "lon": 75.54224}, {"name": "Dewas", "lat": 23.0, "lon": 76.16667}, {"name": "Dhamnod", "lat": 22.20928, "lon": 75.47057}, {"name": "Dhana", "lat": 23.74697, "lon": 78.86234}, {"name": "Dhar", "lat": 22.59373, "lon": 75.29774}, {"name": "Dharampuri", "lat": 22.14951, "lon": 75.34439}, {"name": "Dindori", "lat": 22.8, "lon": 81.1}, {"name": "Etawa", "lat": 24.18351, "lon": 78.20289}, {"name": "Gadarwara", "lat": 22.9235, "lon": 78.7849}, {"name": "Garha Brahman", "lat": 23.86873, "lon": 77.35731}, {"name": "Garhakota", "lat": 23.7791, "lon": 79.14321}, {"name": "Gautampura", "lat": 22.98664, "lon": 75.51921}, {"name": "Ghansor", "lat": 22.65976, "lon": 79.95013}, {"name": "Gogapur", "lat": 23.55746, "lon": 75.51665}, {"name": "Gohadi", "lat": 26.43278, "lon": 78.44205}, {"name": "Govindgarh", "lat": 24.37845, "lon": 81.29644}, {"name": "Guna", "lat": 24.55464, "lon": 77.20082}, {"name": "Gurh", "lat": 24.50265, "lon": 81.50037}, {"name": "Gwalior", "lat": 26.22983, "lon": 78.17337}, {"name": "Harda", "lat": 22.23406, "lon": 76.96431}, {"name": "Harda Khas", "lat": 22.34414, "lon": 77.09536}, {"name": "Harpalpur", "lat": 25.28773, "lon": 79.33279}, {"name": "Harrai", "lat": 22.61428, "lon": 79.22207}, {"name": "Harsud", "lat": 22.09947, "lon": 76.73423}, {"name": "Hatod", "lat": 22.79378, "lon": 75.73928}, {"name": "Hatta", "lat": 24.13406, "lon": 79.60119}, {"name": "Hindoria", "lat": 23.90345, "lon": 79.56861}, {"name": "Hoshangabad", "lat": 22.58827, "lon": 77.98887}, {"name": "Iawar", "lat": 23.00943, "lon": 76.5007}, {"name": "Ichhawar", "lat": 23.02816, "lon": 77.01729}, {"name": "Iklehra", "lat": 23.14667, "lon": 76.39044}, {"name": "Indore", "lat": 22.66667, "lon": 75.75}, {"name": "Isagarh", "lat": 24.83906, "lon": 77.88274}, {"name": "Itarsi", "lat": 22.61477, "lon": 77.76222}, {"name": "Jabalpur", "lat": 23.16, "lon": 79.95}, {"name": "Jaisinghnagar", "lat": 23.68582, "lon": 81.39085}, {"name": "Jaithari", "lat": 23.20856, "lon": 78.61487}, {"name": "Jamai", "lat": 22.19644, "lon": 78.59191}, {"name": "Jaora", "lat": 23.63783, "lon": 75.12711}, {"name": "Jatara", "lat": 25.00964, "lon": 79.04869}, {"name": "Jawad", "lat": 24.59916, "lon": 74.86261}, {"name": "Jhabua", "lat": 22.76772, "lon": 74.59087}, {"name": "Jiran", "lat": 24.30871, "lon": 74.89087}, {"name": "Jobat", "lat": 22.41599, "lon": 74.56828}, {"name": "Kailaras", "lat": 26.30498, "lon": 77.616}, {"name": "Kaimori", "lat": 23.38465, "lon": 79.7442}, {"name": "Kannod", "lat": 22.66764, "lon": 76.74286}, {"name": "Kareli", "lat": 22.91533, "lon": 79.06378}, {"name": "Karera", "lat": 25.45815, "lon": 78.13583}, {"name": "Karrapur", "lat": 23.94891, "lon": 78.86584}, {"name": "Kasrawad", "lat": 22.12745, "lon": 75.61101}, {"name": "Katangi", "lat": 21.77369, "lon": 79.80513}, {"name": "Katni", "lat": 23.83555, "lon": 80.39417}, {"name": "Khachrod", "lat": 23.42322, "lon": 75.28185}, {"name": "Khailar", "lat": 25.34127, "lon": 78.53133}, {"name": "Khajuraho Group of Monuments", "lat": 24.84809, "lon": 79.93351}, {"name": "Khamaria", "lat": 23.22558, "lon": 79.88007}, {"name": "Khandwa", "lat": 21.82427, "lon": 76.35086}, {"name": "Khargapur", "lat": 24.823, "lon": 79.144}, {"name": "Khargone", "lat": 21.82306, "lon": 75.61028}, {"name": "Khategaon", "lat": 22.59573, "lon": 76.9133}, {"name": "Khilchipur", "lat": 24.03943, "lon": 76.578}, {"name": "Khirkiyan", "lat": 22.16732, "lon": 76.86137}, {"name": "Khujner", "lat": 23.78597, "lon": 76.61773}, {"name": "Khurai", "lat": 24.04372, "lon": 78.33014}, {"name": "Kolaras", "lat": 25.21928, "lon": 77.61167}, {"name": "Korwai", "lat": 24.11774, "lon": 78.04007}, {"name": "Kotar", "lat": 24.69802, "lon": 80.98073}, {"name": "Kothi", "lat": 24.7526, "lon": 80.77751}, {"name": "Kotma", "lat": 23.20383, "lon": 81.97904}, {"name": "Kotwa", "lat": 25.0308, "lon": 81.31908}, {"name": "Kukshi", "lat": 22.20677, "lon": 74.75788}, {"name": "Kumbhraj", "lat": 24.37338, "lon": 77.04841}, {"name": "Lahar", "lat": 26.19401, "lon": 78.94137}, {"name": "Lakhnadon", "lat": 22.60049, "lon": 79.60094}, {"name": "Leteri", "lat": 24.05979, "lon": 77.40858}, {"name": "Lodhikheda", "lat": 21.58235, "lon": 78.85911}, {"name": "Machalpur", "lat": 24.12767, "lon": 76.31672}, {"name": "Madhogarh", "lat": 24.56401, "lon": 80.91126}, {"name": "Maheshwar", "lat": 22.17592, "lon": 75.58715}, {"name": "Mahgawan", "lat": 26.49471, "lon": 78.61593}, {"name": "Maihar", "lat": 24.26594, "lon": 80.76063}, {"name": "Majholi", "lat": 23.50114, "lon": 79.92396}, {"name": "Maksi", "lat": 23.25999, "lon": 76.14567}, {"name": "Malhargarh", "lat": 24.28286, "lon": 74.99024}, {"name": "Manasa", "lat": 24.47764, "lon": 75.14095}, {"name": "Manawar", "lat": 22.23566, "lon": 75.08917}, {"name": "Mandideep", "lat": 23.08166, "lon": 77.53328}, {"name": "Mandla", "lat": 22.64041, "lon": 80.51344}, {"name": "Mandleshwar", "lat": 22.17598, "lon": 75.65995}, {"name": "Mandsaur", "lat": 24.33333, "lon": 75.25}, {"name": "Mangawan", "lat": 24.66754, "lon": 81.54644}, {"name": "Manpur", "lat": 22.43151, "lon": 75.62107}, {"name": "Mau", "lat": 26.26584, "lon": 78.67108}, {"name": "Mauganj", "lat": 24.66721, "lon": 81.87339}, {"name": "Mihona", "lat": 26.28373, "lon": 78.98048}, {"name": "Mohgaon", "lat": 21.63941, "lon": 78.73638}, {"name": "Morar", "lat": 26.2264, "lon": 78.22482}, {"name": "Morena", "lat": 26.16667, "lon": 77.5}, {"name": "Multai", "lat": 21.77463, "lon": 78.25756}, {"name": "Mundi", "lat": 22.06693, "lon": 76.49326}, {"name": "Mungaoli", "lat": 24.40837, "lon": 78.09588}, {"name": "Murwara", "lat": 23.83776, "lon": 80.39405}, {"name": "Nagda", "lat": 23.45834, "lon": 75.41759}, {"name": "Nagod", "lat": 24.56924, "lon": 80.58809}, {"name": "Naigarhi", "lat": 24.78686, "lon": 81.77868}, {"name": "Nainpur", "lat": 22.42996, "lon": 80.10561}, {"name": "Namli", "lat": 23.46115, "lon": 75.06036}, {"name": "Naraini", "lat": 25.19033, "lon": 80.475}, {"name": "Narayangarh", "lat": 24.27083, "lon": 75.05007}, {"name": "Narsimhapur", "lat": 22.91667, "lon": 79.16667}, {"name": "Narsinghgarh", "lat": 23.70758, "lon": 77.09319}, {"name": "Narwar", "lat": 25.6439, "lon": 77.9129}, {"name": "Nasrullahganj", "lat": 22.6837, "lon": 77.27069}, {"name": "Neemuch", "lat": 24.47, "lon": 74.87}, {"name": "Nepanagar", "lat": 21.4538, "lon": 76.39335}, {"name": "Orchha", "lat": 25.35192, "lon": 78.64033}, {"name": "Pachmarhi", "lat": 22.46791, "lon": 78.43312}, {"name": "Palera", "lat": 25.02013, "lon": 79.22818}, {"name": "Pali", "lat": 23.36453, "lon": 81.04374}, {"name": "Panagar", "lat": 23.28539, "lon": 79.99509}, {"name": "Panara", "lat": 22.20568, "lon": 78.55093}, {"name": "Pandhana", "lat": 21.69816, "lon": 76.22487}, {"name": "Pandhurna", "lat": 21.59556, "lon": 78.52628}, {"name": "Panna", "lat": 24.5, "lon": 80.25}, {"name": "Pansemal", "lat": 21.65981, "lon": 74.69937}, {"name": "Parasia", "lat": 22.1913, "lon": 78.75904}, {"name": "Patan", "lat": 23.28636, "lon": 79.68962}, {"name": "Patharia", "lat": 23.89921, "lon": 79.19393}, {"name": "Pawai", "lat": 24.26635, "lon": 80.16196}, {"name": "Petlawad", "lat": 23.01102, "lon": 74.79772}, {"name": "Piploda", "lat": 23.35, "lon": 75.43333}, {"name": "Pithampur", "lat": 22.60197, "lon": 75.69649}, {"name": "Porsa", "lat": 26.67444, "lon": 78.37081}, {"name": "Punasa", "lat": 22.23507, "lon": 76.39335}, {"name": "Raghogarh", "lat": 24.44318, "lon": 77.19768}, {"name": "Rahatgarh", "lat": 23.78968, "lon": 78.39473}, {"name": "Raisen", "lat": 23.25, "lon": 78.08333}, {"name": "Rajgarh", "lat": 22.67821, "lon": 74.94483}, {"name": "Rajnagar", "lat": 24.88929, "lon": 79.91178}, {"name": "Rajpur", "lat": 22.30393, "lon": 74.35568}, {"name": "Rampura", "lat": 24.467, "lon": 75.43996}, {"name": "Ranapur", "lat": 22.64704, "lon": 74.52118}, {"name": "Ratangarh", "lat": 24.81667, "lon": 75.11667}, {"name": "Ratlam", "lat": 23.33033, "lon": 75.04032}, {"name": "Rehli", "lat": 23.63722, "lon": 79.06275}, {"name": "Rehti", "lat": 22.73781, "lon": 77.43399}, {"name": "Rewa", "lat": 24.53256, "lon": 81.29234}, {"name": "Sabalgarh", "lat": 26.24918, "lon": 77.40786}, {"name": "Sagar", "lat": 23.75, "lon": 78.75}, {"name": "Sailana", "lat": 23.46219, "lon": 74.92318}, {"name": "Sanawad", "lat": 22.17391, "lon": 76.06993}, {"name": "Sanchi", "lat": 23.48646, "lon": 77.7378}, {"name": "Sanwer", "lat": 22.97415, "lon": 75.8271}, {"name": "Sarangpur", "lat": 23.56651, "lon": 76.47306}, {"name": "Satna", "lat": 24.5, "lon": 81.0}, {"name": "Satwas", "lat": 22.53628, "lon": 76.68452}, {"name": "Saugor", "lat": 23.83877, "lon": 78.73874}, {"name": "Sausar", "lat": 21.65576, "lon": 78.79669}, {"name": "Sehore", "lat": 23.2, "lon": 77.08333}, {"name": "Sendhwa", "lat": 21.68562, "lon": 75.09622}, {"name": "Seondha", "lat": 26.15422, "lon": 78.7812}, {"name": "Seoni", "lat": 22.08503, "lon": 79.55037}, {"name": "Seoni Malwa", "lat": 22.45046, "lon": 77.4665}, {"name": "Shahdol", "lat": 23.5, "lon": 81.5}, {"name": "Shahgarh", "lat": 24.31365, "lon": 79.11806}, {"name": "Shahpur", "lat": 21.23742, "lon": 76.22558}, {"name": "Shahpura", "lat": 23.13663, "lon": 79.66402}, {"name": "Shajapur", "lat": 23.5, "lon": 76.25}, {"name": "Shamgarh", "lat": 24.18817, "lon": 75.63903}, {"name": "Sheopur", "lat": 25.8, "lon": 77.0}, {"name": "Shivpuri", "lat": 25.42378, "lon": 77.66223}, {"name": "Shujalpur", "lat": 23.40673, "lon": 76.7098}, {"name": "Sidhi", "lat": 24.25, "lon": 82.0}, {"name": "Sihora", "lat": 23.4871, "lon": 80.10404}, {"name": "Simaria", "lat": 24.79497, "lon": 81.152}, {"name": "Singoli", "lat": 24.96667, "lon": 75.3}, {"name": "Singrauli", "lat": 24.19973, "lon": 82.67535}, {"name": "Sirmaur", "lat": 24.83648, "lon": 81.36448}, {"name": "Sironj", "lat": 24.10313, "lon": 77.69055}, {"name": "Sitamau", "lat": 24.01473, "lon": 75.35324}, {"name": "Sohagi", "lat": 24.98181, "lon": 81.69558}, {"name": "Sohagpur", "lat": 22.70055, "lon": 78.19522}, {"name": "Sultanpur", "lat": 23.13812, "lon": 77.93404}, {"name": "Susner", "lat": 23.94667, "lon": 76.08825}, {"name": "Tal", "lat": 23.71979, "lon": 75.38514}, {"name": "Talen", "lat": 23.56949, "lon": 76.72821}, {"name": "Tarana", "lat": 23.33383, "lon": 76.04253}, {"name": "Tekanpur", "lat": 25.99401, "lon": 78.28322}, {"name": "Tendukheda", "lat": 23.3962, "lon": 79.53947}, {"name": "Teonthar", "lat": 24.98207, "lon": 81.64194}, {"name": "Thandla", "lat": 23.00959, "lon": 74.57747}, {"name": "Tikamgarh", "lat": 24.74327, "lon": 78.83061}, {"name": "Tirodi", "lat": 21.68522, "lon": 79.71906}, {"name": "Udaipura", "lat": 23.07434, "lon": 78.51108}, {"name": "Ujjain", "lat": 23.41667, "lon": 75.5}, {"name": "Ukwa", "lat": 21.97102, "lon": 80.46625}, {"name": "Umaria", "lat": 23.52473, "lon": 80.83716}, {"name": "Umri", "lat": 26.51056, "lon": 78.93667}, {"name": "Unhel", "lat": 23.33794, "lon": 75.55931}, {"name": "Vidisha", "lat": 23.91667, "lon": 78.0}, {"name": "Waraseoni", "lat": 21.76184, "lon": 80.04301}, {"name": "Achalpur", "lat": 21.25665, "lon": 77.51006}, {"name": "Adawad", "lat": 21.21666667, "lon": 75.45}, {"name": "Agar Panchaitan", "lat": 18.173692, "lon": 72.988533}, {"name": "Aheri", "lat": 19.41166667, "lon": 80.00388889}, {"name": "Ahmadpur", "lat": 18.70622, "lon": 76.93731}, {"name": "Ahmednagar", "lat": 19.08333333, "lon": 74.73333333}, {"name": "Airoli", "lat": 19.15096, "lon": 72.99625}, {"name": "Ajara", "lat": 16.11601, "lon": 74.21097}, {"name": "Akalkot", "lat": 17.52532, "lon": 76.20611}, {"name": "Akluj", "lat": 17.88333333, "lon": 75.01666667}, {"name": "Akola", "lat": 20.5, "lon": 77.16667}, {"name": "Akolner", "lat": 18.98333333, "lon": 74.66666667}, {"name": "Akot", "lat": 21.0963, "lon": 77.0588}, {"name": "Akrani", "lat": 21.82423611, "lon": 74.21687222}, {"name": "Alandi", "lat": 18.67756, "lon": 73.89868}, {"name": "Ale", "lat": 19.17, "lon": 74.12}, {"name": "Alibag", "lat": 18.64813, "lon": 72.87579}, {"name": "Alkuti", "lat": 19.05, "lon": 74.23}, {"name": "Allapalli", "lat": 19.43172, "lon": 80.06377}, {"name": "Amalner", "lat": 21.03983, "lon": 75.05887}, {"name": "Amarnath", "lat": 19.2, "lon": 73.16667}, {"name": "Ambad", "lat": 19.61301, "lon": 75.78906}, {"name": "Ambajogai", "lat": 18.73312, "lon": 76.38616}, {"name": "Ambegaon", "lat": 19.11666667, "lon": 73.73333333}, {"name": "Ambernath", "lat": 19.209, "lon": 73.186}, {"name": "Amgaon", "lat": 20.65, "lon": 79.95}, {"name": "Amravati", "lat": 20.93333, "lon": 77.75}, {"name": "Andheri", "lat": 19.11916667, "lon": 72.84694444}, {"name": "Andura", "lat": 20.88333333, "lon": 76.86666667}, {"name": "Anjangaon", "lat": 21.16516, "lon": 77.3091}, {"name": "Anjarle", "lat": 17.85, "lon": 73.09}, {"name": "Anshing", "lat": 20.0409, "lon": 77.31501}, {"name": "Arag", "lat": 16.78, "lon": 74.8}, {"name": "Arangaon", "lat": 19.02681, "lon": 74.71487}, {"name": "Ardhapur", "lat": 19.28333333, "lon": 77.38333333}, {"name": "Argaon", "lat": 16.778999, "lon": 73.64553}, {"name": "Artist Village", "lat": 19.03227, "lon": 73.04276}, {"name": "Arvi", "lat": 20.99585, "lon": 78.22914}, {"name": "Ashta", "lat": 16.94943, "lon": 74.40936}, {"name": "Ashti", "lat": 19.37671, "lon": 76.2252}, {"name": "Asoda", "lat": 21.03333333, "lon": 75.6}, {"name": "Assaye", "lat": 20.24512778, "lon": 75.88739722}, {"name": "Astagaon", "lat": 19.66666667, "lon": 74.5}, {"name": "Aundh Satara", "lat": 17.54583333, "lon": 74.375}, {"name": "Aurangabad", "lat": 19.88467, "lon": 75.33986}, {"name": "Ausa", "lat": 18.24728, "lon": 76.4993}, {"name": "Badlapur", "lat": 19.15516, "lon": 73.26553},