[{"name": "Brasiléia", "lat": -11.01611, "lon": -68.74806}, {"name": "Cruzeiro do Sul", "lat": -7.62759, "lon": -72.67756}, {"name": "Feijó", "lat": -8.1654, "lon": -70.35486}, {"name": "Mâncio Lima", "lat": -7.61417, "lon": -72.89583}, {"name": "Manoel Urbano", "lat": -8.83889, "lon": -69.25972}, {"name": "Marechal Thaumaturgo", "lat": -8.94111, "lon": -72.79167}, {"name": "Plácido de Castro", "lat": -10.33528, "lon": -67.18556}, {"name": "Porto Walter", "lat": -8.26861, "lon": -72.74389}, {"name": "Rio Branco", "lat": -9.97472, "lon": -67.81}, {"name": "Sena Madureira", "lat": -9.06341, "lon": -68.67245}, {"name": "Senador Guiomard", "lat": -10.1497, "lon": -67.73741}, {"name": "Tarauacá", "lat": -8.16139, "lon": -70.76556}, {"name": "Benjamin Constant", "lat": -4.37555, "lon": -70.03179}, {"name": "Eirunepé", "lat": -6.66028, "lon": -69.87361}, {"name": "Black Diamond", "lat": 50.70011, "lon": -114.2353}, {"name": "Fort Saskatchewan", "lat": 53.71684, "lon": -113.2187}, {"name": "Manning", "lat": 56.91683, "lon": -117.61945}, {"name": "Mannville", "lat": 53.33764, "lon": -111.1775}, {"name": "Millet", "lat": 53.10013, "lon": -113.4687}, {"name": "Raymond", "lat": 49.44998, "lon": -112.65185}, {"name": "Two Hills", "lat": 53.71686, "lon": -111.75181}, {"name": "Viking", "lat": 53.10014, "lon": -111.76844}, {"name": "Aldergrove East", "lat": 49.05593, "lon": -122.42299}, {"name": "Central Coast Regional", "lat": 52.16638, "lon": -127.00323}, {"name": "Elkford", "lat": 50.05007, "lon": -114.8854}, {"name": "Fraser Valley Regional", "lat": 49.58299, "lon": -121.83587}, {"name": "Logan Lake", "lat": 50.49976, "lon": -120.80253}, {"name": "Metro Vancouver Regional", "lat": 49.33296, "lon": -123.00264}, {"name": "Okanagan", "lat": 50.36386, "lon": -119.34997}, {"name": "Peace River Regional", "lat": 56.6665, "lon": -122.75302}, {"name": "Peachland", "lat": 49.76647, "lon": -119.73568}, {"name": "Port McNeill", "lat": 50.58716, "lon": -127.08053}, {"name": "Puntledge", "lat": 49.66168, "lon": -125.05686}, {"name": "Regional District of Alberni-Clayoquot", "lat": 49.24962, "lon": -125.33615}, {"name": "Regional District of Central Okanagan", "lat": 49.99978, "lon": -119.41908}, {"name": "Salmo", "lat": 49.19986, "lon": -117.2689}, {"name": "Salt Spring Island", "lat": 48.81852, "lon": -123.49061}, {"name": "West Vancouver", "lat": 49.36672, "lon": -123.16652}, {"name": "White Rock", "lat": 49.01636, "lon": -122.8026}, {"name": "De Salaberry", "lat": 49.39999, "lon": -97.00894}, {"name": "Shilo", "lat": 49.80509, "lon": -99.63175}, {"name": "The Pas", "lat": 53.82509, "lon": -101.25413}, {"name": "West St. Paul", "lat": 49.9994, "lon": -97.16284}, {"name": "Inuvik", "lat": 68.34986, "lon": -133.72181}, {"name": "Clyde River", "lat": 70.47233, "lon": -68.58987}, {"name": "Iqaluit", "lat": 63.74697, "lon": -68.51727}, {"name": "Pangnirtung", "lat": 66.14642, "lon": -65.69996}, {"name": "Ajax", "lat": 43.85012, "lon": -79.03288}, {"name": "Algoma", "lat": 47.88364, "lon": -84.42406}, {"name": "Alliston", "lat": 44.15011, "lon": -79.86635}, {"name": "Amherstburg", "lat": 42.10009, "lon": -83.09985}, {"name": "Amigo Beach", "lat": 44.70011, "lon": -79.39963}, {"name": "Ancaster", "lat": 43.21806, "lon": -79.98716}, {"name": "Angus", "lat": 44.31681, "lon": -79.88295}, {"name": "Arnprior", "lat": 45.43341, "lon": -76.34939}, {"name": "Atikokan", "lat": 48.75667, "lon": -91.62409}, {"name": "Attawapiskat", "lat": 52.92774, "lon": -82.41669}, {"name": "Aurora", "lat": 43.99973, "lon": -79.467545}, {"name": "Aylmer", "lat": 42.76679, "lon": -80.98302}, {"name": "Azilda", "lat": 46.55008, "lon": -81.09975}, {"name": "Ballantrae", "lat": 44.03342, "lon": -79.2996}, {"name": "Bancroft", "lat": 45.05752, "lon": -77.85702}, {"name": "Barrie", "lat": 44.40011, "lon": -79.66634}, {"name": "Bath", "lat": 44.18342, "lon": -76.78273}, {"name": "Belleville", "lat": 44.16682, "lon": -77.38277}, {"name": "Bells Corners", "lat": 45.31588, "lon": -75.83012}, {"name": "Belmont", "lat": 42.88339, "lon": -81.08303}, {"name": "Binbrook", "lat": 43.12135, "lon": -79.81104}, {"name": "Bluewater", "lat": 43.46679, "lon": -81.59977}, {"name": "Bourget", "lat": 45.4334, "lon": -75.1493}, {"name": "Bracebridge", "lat": 45.03341, "lon": -79.31633}, {"name": "Brampton", "lat": 43.68341, "lon": -79.76633}, {"name": "Brant", "lat": 43.1334, "lon": -80.34967}, {"name": "Brantford", "lat": 43.1334, "lon": -80.26636}, {"name": "Brockville", "lat": 44.59132, "lon": -75.68705}, {"name": "Brussels", "lat": 43.73339, "lon": -81.24975}, {"name": "Burford", "lat": 43.10292, "lon": -80.42869}, {"name": "Burlington", "lat": 43.38621, "lon": -79.83713}, {"name": "Cambridge", "lat": 43.3601, "lon": -80.31269}, {"name": "Camlachie", "lat": 43.03596, "lon": -82.1616}, {"name": "Capreol", "lat": 46.70626, "lon": -80.92109}, {"name": "Carleton Place", "lat": 45.13341, "lon": -76.14938}, {"name": "Casselman", "lat": 45.3168, "lon": -75.0826}, {"name": "Chatham", "lat": 42.41224, "lon": -82.18494}, {"name": "Chatham-Kent", "lat": 42.40009, "lon": -82.1831}, {"name": "Clarence-Rockland", "lat": 45.5501, "lon": -75.29101}, {"name": "Cobourg", "lat": 43.95977, "lon": -78.16515}, {"name": "Cochrane", "lat": 50.00022, "lon": -82.99979}, {"name": "Collingwood", "lat": 44.4834, "lon": -80.21638}, {"name": "Concord", "lat": 43.80011, "lon": -79.48291}, {"name": "Constance Bay", "lat": 45.50011, "lon": -76.08267}, {"name": "Cookstown", "lat": 44.18341, "lon": -79.69964}, {"name": "Cornwall", "lat": 45.01809, "lon": -74.72815}, {"name": "Corunna", "lat": 42.88338, "lon": -82.43313}, {"name": "Deep River", "lat": 46.10012, "lon": -77.49949}, {"name": "Delaware", "lat": 42.91679, "lon": -81.41646}, {"name": "Deseronto", "lat": 44.20012, "lon": -77.04944}, {"name": "Dorchester", "lat": 42.98339, "lon": -81.06643}, {"name": "Dowling", "lat": 46.59111, "lon": -81.33917}, {"name": "Durham", "lat": 44.20012, "lon": -78.99957}, {"name": "East Gwillimbury", "lat": 44.10087, "lon": -79.43785}, {"name": "East York", "lat": 43.69053, "lon": -79.32794}, {"name": "Elliot Lake", "lat": 46.38336, "lon": -82.63315}, {"name": "Elmvale", "lat": 44.5834, "lon": -79.86636}, {"name": "Englehart", "lat": 47.81686, "lon": -79.8664}, {"name": "Espanola", "lat": 46.25837, "lon": -81.76649}, {"name": "Essex", "lat": 42.17509, "lon": -82.82483}, {"name": "Etobicoke", "lat": 43.65421, "lon": -79.56711}, {"name": "Exeter", "lat": 43.3435863, "lon": -81.4972602}, {"name": "Fort Erie", "lat": 42.90012, "lon": -78.93286}, {"name": "Gananoque", "lat": 44.33342, "lon": -76.16607}, {"name": "Glencoe", "lat": 42.75009, "lon": -81.71648}, {"name": "Goderich", "lat": 43.74171, "lon": -81.71339}, {"name": "Gravenhurst", "lat": 44.91681, "lon": -79.36633}, {"name": "Greater Napanee", "lat": 44.2473883, "lon": -76.9505543}, {"name": "Greater Sudbury", "lat": 46.49, "lon": -80.99001}, {"name": "Greenstone", "lat": 49.73343, "lon": -87.16668}, {"name": "Guelph", "lat": 43.54594, "lon": -80.25599}, {"name": "Haldimand", "lat": 42.98341, "lon": -79.86633}, {"name": "Haliburton Village", "lat": 45.05154, "lon": -78.52245}, {"name": "Halton", "lat": 43.50011, "lon": -79.88294}, {"name": "Hamilton", "lat": 43.25011, "lon": -79.84963}, {"name": "Hanover", "lat": 44.15009, "lon": -81.03303}, {"name": "Harriston", "lat": 43.90009, "lon": -80.88302}, {"name": "Hawkesbury", "lat": 45.60009, "lon": -74.61595}, {"name": "Hearst", "lat": 49.68351, "lon": -83.66654}, {"name": "Hornepayne", "lat": 49.21451, "lon": -84.77617}, {"name": "Huntsville", "lat": 45.33341, "lon": -79.21632}, {"name": "Huron East", "lat": 43.61679, "lon": -81.29975}, {"name": "Ingersoll", "lat": 43.03339, "lon": -80.88302}, {"name": "Innisfil", "lat": 44.30011, "lon": -79.64964}, {"name": "Iroquois Falls", "lat": 48.76688, "lon": -80.68307}, {"name": "Jarvis", "lat": 42.88341, "lon": -80.09965}, {"name": "Kanata", "lat": 45.3001, "lon": -75.91606}, {"name": "Kapuskasing", "lat": 49.41694, "lon": -82.43308}, {"name": "Kawartha Lakes", "lat": 44.58342, "lon": -78.83288}, {"name": "Keswick", "lat": 44.25011, "lon": -79.46632}, {"name": "Kincardine", "lat": 44.18339, "lon": -81.63307}, {"name": "King", "lat": 43.96514, "lon": -79.59011}, {"name": "Kingston", "lat": 44.22976, "lon": -76.48098}, {"name": "Kirkland Lake", "lat": 48.14461, "lon": -80.03767}, {"name": "Kitchener", "lat": 43.42537, "lon": -80.5112}, {"name": "L'Orignal", "lat": 45.6198, "lon": -74.6915}, {"name": "Lakefield", "lat": 44.43342, "lon": -78.26623}, {"name": "Lambton Shores", "lat": 43.16678, "lon": -81.93309}, {"name": "Lappe", "lat": 48.5668, "lon": -89.35013}, {"name": "Leamington", "lat": 42.05009, "lon": -82.59981}, {"name": "Limoges", "lat": 45.3334, "lon": -75.24931}, {"name": "Lindsay", "lat": 44.35012, "lon": -78.73286}, {"name": "Listowel", "lat": 43.7334, "lon": -80.94973}, {"name": "Little Current", "lat": 45.97927, "lon": -81.9248}, {"name": "Lively", "lat": 46.43338, "lon": -81.14975}, {"name": "London", "lat": 42.98339, "lon": -81.23304}, {"name": "Lucan", "lat": 43.18339, "lon": -81.39976}, {"name": "Madoc", "lat": 44.50842, "lon": -77.47448}, {"name": "Manitoulin", "lat": 45.75007, "lon": -82.49985}, {"name": "Manitouwadge", "lat": 49.12152, "lon": -85.8403}, {"name": "Marathon", "lat": 48.7501, "lon": -86.43322}, {"name": "Markdale", "lat": 44.3168, "lon": -80.64971}, {"name": "Markham", "lat": 43.86682, "lon": -79.2663}, {"name": "Mattawa", "lat": 46.31681, "lon": -78.69957}, {"name": "Meaford", "lat": 44.60725, "lon": -80.61081}, {"name": "Metcalfe", "lat": 45.2334, "lon": -75.46603}, {"name": "Midland", "lat": 44.7501, "lon": -79.88296}, {"name": "Mildmay", "lat": 44.05009, "lon": -81.11644}, {"name": "Millbrook", "lat": 44.15012, "lon": -78.44954}, {"name": "Milton", "lat": 43.51681, "lon": -79.88294}, {"name": "Mississauga", "lat": 43.5789, "lon": -79.6583}, {"name": "Mississauga Beach", "lat": 43.26682, "lon": -79.08287}, {"name": "Moose Factory", "lat": 51.26689, "lon": -80.61624}, {"name": "Moosonee", "lat": 51.27931, "lon": -80.6345}, {"name": "Morrisburg", "lat": 44.9001, "lon": -75.18261}, {"name": "Mount Albert", "lat": 44.13341, "lon": -79.3163}, {"name": "Mount Brydges", "lat": 42.90009, "lon": -81.48306}, {"name": "Napanee Downtown", "lat": 44.24832, "lon": -76.95069}, {"name": "Neebing", "lat": 48.1668, "lon": -89.41683}, {"name": "Nepean", "lat": 45.35215, "lon": -75.73975}, {"name": "New Hamburg", "lat": 43.38339, "lon": -80.6997}, {"name": "Newmarket", "lat": 44.05011, "lon": -79.46631}, {"name": "Niagara Falls", "lat": 43.10012, "lon": -79.06627}, {"name": "Nipissing", "lat": 46.0001, "lon": -78.99959}, {"name": "Norfolk County", "lat": 42.8334, "lon": -80.38297}, {"name": "North Bay", "lat": 46.3168, "lon": -79.46633}, {"name": "North Perth", "lat": 43.7251, "lon": -80.96723}, {"name": "North York", "lat": 43.76681, "lon": -79.4163}, {"name": "Norwood", "lat": 44.38342, "lon": -77.98281}, {"name": "Oakville", "lat": 43.45011, "lon": -79.68292}, {"name": "Omemee", "lat": 44.29897, "lon": -78.55989}, {"name": "Orangeville", "lat": 43.9168, "lon": -80.09967}, {"name": "Orillia", "lat": 44.60868, "lon": -79.42068}, {"name": "Osgoode", "lat": 45.14887, "lon": -75.59778}, {"name": "Oshawa", "lat": 43.90012, "lon": -78.84957}, {"name": "Ottawa", "lat": 45.41117, "lon": -75.69812}, {"name": "Owen Sound", "lat": 44.56717, "lon": -80.94349}, {"name": "Paisley", "lat": 44.30641, "lon": -81.27265}, {"name": "Paris", "lat": 43.2, "lon": -80.38333}, {"name": "Parkhill", "lat": 43.15993, "lon": -81.68464}, {"name": "Parry Sound", "lat": 45.34732, "lon": -80.03527}, {"name": "Parry Sound District", "lat": 45.75011, "lon": -79.83297}, {"name": "Peel", "lat": 43.75011, "lon": -79.78293}, {"name": "Pembroke", "lat": 45.81681, "lon": -77.11616}, {"name": "Perth", "lat": 44.90011, "lon": -76.24939}, {"name": "Petawawa", "lat": 45.89452, "lon": -77.28007}, {"name": "Peterborough", "lat": 44.30012, "lon": -78.31623}, {"name": "Petrolia", "lat": 42.86678, "lon": -82.14981}, {"name": "Pickering", "lat": 43.90012, "lon": -79.13289}, {"name": "Picton", "lat": 44.00012, "lon": -77.13275}, {"name": "Plantagenet", "lat": 45.5326, "lon": -74.99369}, {"name": "Plattsville", "lat": 43.3001, "lon": -80.61639}, {"name": "Port Colborne", "lat": 42.90012, "lon": -79.23288}, {"name": "Port Hope", "lat": 44.01682, "lon": -78.39953}, {"name": "Port Rowan", "lat": 42.6168, "lon": -80.46638}, {"name": "Port Stanley", "lat": 42.66679, "lon": -81.21644}, {"name": "Powassan", "lat": 46.0334, "lon": -79.34961}, {"name": "Prescott", "lat": 44.71681, "lon": -75.51604}, {"name": "Prince Edward", "lat": 44.00012, "lon": -77.24946}, {"name": "Queenswood Heights", "lat": 45.47083, "lon": -75.50556}, {"name": "Quinte West", "lat": 44.18342, "lon": -77.56618}, {"name": "Rainy River", "lat": 48.49981, "lon": -92.50031}, {"name": "Rayside-Balfour", "lat": 46.60873, "lon": -81.20763}, {"name": "Regional Municipality of Waterloo", "lat": 43.5001, "lon": -80.49969}, {"name": "Renfrew", "lat": 45.46681, "lon": -76.68272}, {"name": "Richmond", "lat": 45.1834, "lon": -75.83266}, {"name": "Richmond Hill", "lat": 43.87111, "lon": -79.43725}, {"name": "Ridgetown", "lat": 42.43339, "lon": -81.89978}, {"name": "Rockwood", "lat": 43.61899, "lon": -80.14441}, {"name": "Russell", "lat": 45.2501, "lon": -75.36602}, {"name": "Sarnia", "lat": 42.97866, "lon": -82.40407}, {"name": "Sault Ste. Marie", "lat": 46.51677, "lon": -84.33325}, {"name": "Scarborough", "lat": 43.77223, "lon": -79.25666}, {"name": "Seaforth", "lat": 43.55009, "lon": -81.39976}, {"name": "Shelburne", "lat": 44.0787, "lon": -80.20408}, {"name": "Simcoe", "lat": 42.8334, "lon": -80.29967}, {"name": "Skatepark", "lat": 44.25122, "lon": -76.94424}, {"name": "Smiths Falls", "lat": 44.90452, "lon": -76.02333}, {"name": "South Huron", "lat": 43.31679, "lon": -81.51647}, {"name": "South River", "lat": 45.8334, "lon": -79.38293}, {"name": "St. Catharines", "lat": 43.17126, "lon": -79.24267}, {"name": "St. George", "lat": 43.24495, "lon": -80.25144}, {"name": "St. Thomas", "lat": 42.77361, "lon": -81.18038}, {"name": "Stirling", "lat": 44.30012, "lon": -77.54948}, {"name": "Stoney Point", "lat": 44.26681, "lon": -79.53292}, {"name": "Stratford", "lat": 43.36679, "lon": -80.94972}, {"name": "Sudbury", "lat": 47.16679, "lon": -81.9998}, {"name": "Tavistock", "lat": 43.31679, "lon": -80.83302}, {"name": "Temiskaming Shores", "lat": 47.49376, "lon": -79.71529}, {"name": "Thessalon", "lat": 46.25006, "lon": -83.5666}, {"name": "Thornhill", "lat": 43.8170848, "lon": -79.4501194}, {"name": "Thorold", "lat": 43.11682, "lon": -79.19958}, {"name": "Thunder Bay", "lat": 48.38202, "lon": -89.25018}, {"name": "Thunder Bay District", "lat": 49.50011, "lon": -88.50004}, {"name": "Timiskaming", "lat": 47.75016, "lon": -80.33303}, {"name": "Timmins", "lat": 48.46686, "lon": -81.33312}, {"name": "Tobermory", "lat": 45.25007, "lon": -81.66647}, {"name": "Toronto", "lat": 43.70011, "lon": -79.4163}, {"name": "Toronto county", "lat": 43.69655, "lon": -79.42909}, {"name": "Tottenham", "lat": 44.02437, "lon": -79.80553}, {"name": "Tweed", "lat": 44.47512, "lon": -77.31616}, {"name": "Uxbridge", "lat": 44.10012, "lon": -79.11628}, {"name": "Valley East", "lat": 46.66773, "lon": -81.00028}, {"name": "Vanier", "lat": 45.4399, "lon": -75.66498}, {"name": "Vaughan", "lat": 43.8361, "lon": -79.49827}, {"name": "Vineland", "lat": 43.15012, "lon": -79.3996}, {"name": "Virgil", "lat": 43.21682, "lon": -79.13288}, {"name": "Walpole Island", "lat": 42.6152, "lon": -82.51398}, {"name": "Wasaga Beach", "lat": 44.5168, "lon": -80.01637}, {"name": "Waterford", "lat": 42.9334, "lon": -80.28296}, {"name": "Waterloo", "lat": 43.4668, "lon": -80.51639}, {"name": "Watford", "lat": 42.95008, "lon": -81.88309}, {"name": "Wawa", "lat": 47.98877, "lon": -84.77411}, {"name": "Welland", "lat": 42.98342, "lon": -79.24958}, {"name": "Wellesley", "lat": 43.47691, "lon": -80.76209}, {"name": "Wendover", "lat": 45.57275, "lon": -75.12757}, {"name": "West Lorne", "lat": 42.60009, "lon": -81.59976}, {"name": "Willowdale", "lat": 43.76672, "lon": -79.39909}, {"name": "Winchester", "lat": 45.0834, "lon": -75.34933}, {"name": "Windsor", "lat": 42.30008, "lon": -83.01654}, {"name": "Wingham", "lat": 43.88793, "lon": -81.31145}, {"name": "Woodstock", "lat": 43.13339, "lon": -80.7497}, {"name": "York", "lat": 44.0007518, "lon": -79.4372217}, {"name": "Fallingbrook", "lat": 45.47558, "lon": -75.48401}, {"name": "Abitibi-Témiscamingue", "lat": 48.10018, "lon": -77.7828}, {"name": "Acton Vale", "lat": 45.65007, "lon": -72.56582}, {"name": "Adstock", "lat": 46.05007, "lon": -71.08235}, {"name": "Albanel", "lat": 48.88324, "lon": -72.44867}, {"name": "Alma", "lat": 48.55009, "lon": -71.6491}, {"name": "Amos", "lat": 48.56688, "lon": -78.11624}, {"name": "Amqui", "lat": 48.46382, "lon": -67.43134}, {"name": "Ange-Gardien", "lat": 45.35008, "lon": -72.93244}, {"name": "Asbestos", "lat": 45.76678, "lon": -71.9324}, {"name": "Baie-Comeau", "lat": 49.21679, "lon": -68.14894}, {"name": "Baie-D'Urfé", "lat": 45.41397, "lon": -73.91586}, {"name": "Baie-Saint-Paul", "lat": 47.44109, "lon": -70.49858}, {"name": "Barraute", "lat": 48.43349, "lon": -77.63279}, {"name": "Bas-Saint-Laurent", "lat": 48.0503, "lon": -68.02266}, {"name": "Beaconsfield", "lat": 45.43341, "lon": -73.86586}, {"name": "Beauceville", "lat": 46.21785, "lon": -70.77873}, {"name": "Beauharnois", "lat": 45.31341, "lon": -73.8725}, {"name": "Beaupré", "lat": 47.04428, "lon": -70.89529}, {"name": "Bécancour", "lat": 46.34106, "lon": -72.43224}, {"name": "Bedford", "lat": 45.11678, "lon": -72.98244}, {"name": "Beloeil", "lat": 45.56839, "lon": -73.20568}, {"name": "Berthierville", "lat": 46.08336, "lon": -73.18245}, {"name": "Blainville", "lat": 45.66678, "lon": -73.88249}, {"name": "Bois-des-Filion", "lat": 45.66678, "lon": -73.74918}, {"name": "Boisbriand", "lat": 45.61678, "lon": -73.83249}, {"name": "Bonaventure", "lat": 48.04573, "lon": -65.49259}, {"name": "Boucherville", "lat": 45.59104, "lon": -73.43605}, {"name": "Breakeyville", "lat": 46.68037, "lon": -71.22327}, {"name": "Bromont", "lat": 45.31678, "lon": -72.64912}, {"name": "Brossard", "lat": 45.45008, "lon": -73.46583}, {"name": "Brownsburg-Chatham", "lat": 45.68342, "lon": -74.4159}, {"name": "Buckingham", "lat": 45.58563, "lon": -75.4208}, {"name": "Cabano", "lat": 47.68065, "lon": -68.8781}, {"name": "Cacouna", "lat": 47.91657, "lon": -69.50054}, {"name": "Candiac", "lat": 45.38338, "lon": -73.51587}, {"name": "Cantley", "lat": 45.5668, "lon": -75.78265}, {"name": "Cap-Chat", "lat": 49.10009, "lon": -66.68212}, {"name": "Cap-Santé", "lat": 46.67159, "lon": -71.78812}, {"name": "Capitale-Nationale", "lat": 47.376, "lon": -71.12337}, {"name": "Carignan", "lat": 45.45008, "lon": -73.29916}, {"name": "Carleton", "lat": 48.09838, "lon": -66.10036}, {"name": "Carleton-sur-Mer", "lat": 48.10749, "lon": -66.128}, {"name": "Centre-du-Québec", "lat": 46.01985, "lon": -71.98242}, {"name": "Chambly", "lat": 45.45008, "lon": -73.28246}, {"name": "Chambord", "lat": 48.43339, "lon": -72.06583}, {"name": "Chandler", "lat": 48.34935, "lon": -64.67926}, {"name": "Chapais", "lat": 49.78344, "lon": -74.84919}, {"name": "Charlemagne", "lat": 45.71678, "lon": -73.48247}, {"name": "Château-Richer", "lat": 46.96031, "lon": -71.03219}, {"name": "Châteauguay", "lat": 45.38338, "lon": -73.74919}, {"name": "Chaudière-Appalaches", "lat": 46.555, "lon": -70.8308}, {"name": "Chertsey", "lat": 46.07109, "lon": -73.89095}, {"name": "Chibougamau", "lat": 49.91684, "lon": -74.36586}, {"name": "Chute-aux-Outardes", "lat": 49.11679, "lon": -68.39896}, {"name": "Coaticook", "lat": 45.13339, "lon": -71.79907}, {"name": "Contrecoeur", "lat": 45.85008, "lon": -73.23245}, {"name": "Cookshire", "lat": 45.41536, "lon": -71.62962}, {"name": "Cookshire-Eaton", "lat": 45.41675, "lon": -71.6324}, {"name": "Côte-Nord", "lat": 50.86683, "lon": -65.81541}, {"name": "Côte-Saint-Luc", "lat": 45.46536, "lon": -73.66585}, {"name": "Coteau-du-Lac", "lat": 45.30008, "lon": -74.18253}, {"name": "Cowansville", "lat": 45.20008, "lon": -72.74913}, {"name": "Crabtree", "lat": 45.96677, "lon": -73.46586}, {"name": "Danville", "lat": 45.78337, "lon": -72.0158}, {"name": "Daveluyville", "lat": 46.20006, "lon": -72.13239}, {"name": "Delson", "lat": 45.36678, "lon": -73.54917}, {"name": "Deux-Montagnes", "lat": 45.53455, "lon": -73.90168}, {"name": "Disraeli", "lat": 45.90007, "lon": -71.34907}, {"name": "Dolbeau-Mistassini", "lat": 48.8786, "lon": -72.23142}, {"name": "Dollard-Des Ormeaux", "lat": 45.49452, "lon": -73.82419}, {"name": "Donnacona", "lat": 46.68042, "lon": -71.7239}, {"name": "Dorval", "lat": 45.4473, "lon": -73.75335}, {"name": "Drummondville", "lat": 45.88336, "lon": -72.48241}, {"name": "Dunham", "lat": 45.13338, "lon": -72.79913}, {"name": "East Angus", "lat": 45.48338, "lon": -71.66577}, {"name": "East Broughton", "lat": 46.21358, "lon": -71.07674}, {"name": "Farnham", "lat": 45.28338, "lon": -72.98244}, {"name": "Ferme-Neuve", "lat": 46.70011, "lon": -75.44929}, {"name": "Fermont", "lat": 52.78345, "lon": -67.08204}, {"name": "Forestville", "lat": 48.73808, "lon": -69.08478}, {"name": "Fort-Coulonge", "lat": 45.85011, "lon": -76.73272}, {"name": "Fossambault-sur-le-Lac", "lat": 46.87662, "lon": -71.61541}, {"name": "Franklin", "lat": 45.03338, "lon": -73.91591}, {"name": "Gaspé", "lat": 48.83341, "lon": -64.48194}, {"name": "Gaspésie-Îles-de-la-Madeleine", "lat": 48.87555, "lon": -65.4071}, {"name": "Gatineau", "lat": 45.47723, "lon": -75.70164}, {"name": "Godefroy", "lat": 51.75012, "lon": -68.08213}, {"name": "Granby", "lat": 45.40008, "lon": -72.73243}, {"name": "Hampstead", "lat": 45.48064, "lon": -73.66307}, {"name": "Hauterive", "lat": 49.19572, "lon": -68.25813}, {"name": "Havre-Saint-Pierre", "lat": 50.24342, "lon": -63.60264}, {"name": "Hérouxville", "lat": 46.66617, "lon": -72.62512}, {"name": "Hudson", "lat": 45.45008, "lon": -74.14922}, {"name": "Huntingdon", "lat": 45.08339, "lon": -74.16593}, {"name": "Joliette", "lat": 46.0164, "lon": -73.4236}, {"name": "Jonquière", "lat": 48.41648, "lon": -71.24884}, {"name": "Kingsey Falls", "lat": 45.85007, "lon": -72.0658}, {"name": "Kirkland", "lat": 45.45008, "lon": -73.86586}, {"name": "L'Ancienne-Lorette", "lat": 46.79392, "lon": -71.35191}, {"name": "L'Ange-Gardien", "lat": 46.91976, "lon": -71.08253}, {"name": "L'Ascension-de-Notre-Seigneur", "lat": 48.68339, "lon": -71.6658}, {"name": "L'Assomption", "lat": 45.82318, "lon": -73.4294}, {"name": "L'Épiphanie", "lat": 45.85008, "lon": -73.48246}, {"name": "L'Île-Perrot", "lat": 45.38338, "lon": -73.9492}, {"name": "La Conception", "lat": 46.15009, "lon": -74.69925}, {"name": "La Haute-Saint-Charles", "lat": 46.89028, "lon": -71.37222}, {"name": "La Malbaie", "lat": 47.654, "lon": -70.15268}, {"name": "La Minerve", "lat": 46.25009, "lon": -74.93257}, {"name": "La Pocatière", "lat": 47.36733, "lon": -70.03484}, {"name": "La Prairie", "lat": 45.41678, "lon": -73.49917}, {"name": "La Sarre", "lat": 48.80019, "lon": -79.19964}, {"name": "La Tuque", "lat": 47.43337, "lon": -72.7824}, {"name": "Labelle", "lat": 46.28339, "lon": -74.73255}, {"name": "Lac-Alouette", "lat": 45.81698, "lon": -73.9592}, {"name": "Lac-Brome", "lat": 45.21678, "lon": -72.51581}, {"name": "Lac-Connelly", "lat": 45.89788, "lon": -73.9723}, {"name": "Lac-Lapierre", "lat": 45.89837, "lon": -73.77308}, {"name": "Lac-Mégantic", "lat": 45.58338, "lon": -70.88234}, {"name": "Lac-Simon", "lat": 46.15699, "lon": -74.74129}, {"name": "Lachute", "lat": 45.65008, "lon": -74.33253}, {"name": "Lacolle", "lat": 45.08338, "lon": -73.36585}, {"name": "Lanoraie", "lat": 45.96677, "lon": -73.21585}, {"name": "Laval", "lat": 45.56995, "lon": -73.692}, {"name": "Lavaltrie", "lat": 45.88338, "lon": -73.28245}, {"name": "Le Bic", "lat": 48.37549, "lon": -68.69415}, {"name": "le Plateau", "lat": 45.43514, "lon": -75.7803}, {"name": "Lebel-sur-Quévillon", "lat": 49.05018, "lon": -76.98273}, {"name": "Leblanc", "lat": 48.26683, "lon": -74.34914}, {"name": "Les Cèdres", "lat": 45.30008, "lon": -74.04922}, {"name": "Les Coteaux", "lat": 45.28338, "lon": -74.23254}, {"name": "Les Escoumins", "lat": 48.35191, "lon": -69.40724}, {"name": "Lévis", "lat": 46.80326, "lon": -71.17793}, {"name": "Linière", "lat": 46.00007, "lon": -70.41572}, {"name": "Longueuil", "lat": 45.53121, "lon": -73.51806}, {"name": "Lorraine", "lat": 45.68338, "lon": -73.78249}, {"name": "Louiseville", "lat": 46.25594, "lon": -72.94145}, {"name": "Luceville", "lat": 48.54498, "lon": -68.39658}, {"name": "Macamic", "lat": 48.75018, "lon": -78.99962}, {"name": "Magog", "lat": 45.26678, "lon": -72.14909}, {"name": "Malartic", "lat": 48.13348, "lon": -78.13283}, {"name": "Maliotenam", "lat": 50.21119, "lon": -66.18164}, {"name": "Manawan", "lat": 47.22029, "lon": -74.38606}, {"name": "Mandeville", "lat": 46.36677, "lon": -73.34915}, {"name": "Maniwaki", "lat": 46.38341, "lon": -75.96605}, {"name": "Maria", "lat": 48.1749, "lon": -65.98595}, {"name": "Marieville", "lat": 45.43338, "lon": -73.16585}, {"name": "Mascouche", "lat": 45.74965, "lon": -73.59956}, {"name": "Maskinongé", "lat": 46.2286, "lon": -73.01917}, {"name": "Matagami", "lat": 49.75018, "lon": -77.63277}, {"name": "Matane", "lat": 48.82857, "lon": -67.52197}, {"name": "Mauricie", "lat": 47.55009, "lon": -73.41583}, {"name": "Melocheville", "lat": 45.31726, "lon": -73.9371}, {"name": "Mercier", "lat": 45.31678, "lon": -73.74919}, {"name": "Métabetchouan", "lat": 48.36679, "lon": -72.01583}, {"name": "Metabetchouan-Lac-a-la-Croix", "lat": 48.41, "lon": -71.78}, {"name": "Mirabel", "lat": 45.65008, "lon": -74.08251}, {"name": "Mistissini", "lat": 50.41667, "lon": -73.88333}, {"name": "Mont-Joli", "lat": 48.58388, "lon": -68.19214}, {"name": "Mont-Laurier", "lat": 46.55011, "lon": -75.4993}, {"name": "Mont-Royal", "lat": 45.51675, "lon": -73.64918}, {"name": "Mont-Saint-Grégoire", "lat": 45.33338, "lon": -73.16585}, {"name": "Mont-Saint-Hilaire", "lat": 45.56515, "lon": -73.1868}, {"name": "Mont-Tremblant", "lat": 46.21274, "lon": -74.58438}, {"name": "Montmagny", "lat": 46.98043, "lon": -70.55493}, {"name": "Montréal", "lat": 45.50008, "lon": -73.68248}, {"name": "Montréal-Est", "lat": 45.63202, "lon": -73.5075}, {"name": "Montréal-Ouest", "lat": 45.45286, "lon": -73.64918}, {"name": "Morin-Heights", "lat": 45.90009, "lon": -74.24922}, {"name": "Napierville", "lat": 45.18648, "lon": -73.40468}, {"name": "Neuville", "lat": 46.69823, "lon": -71.58275}, {"name": "New Carlisle", "lat": 48.00956, "lon": -65.33621}, {"name": "New-Richmond", "lat": 48.16059, "lon": -65.85823}, {"name": "Nicolet", "lat": 46.21676, "lon": -72.61582}, {"name": "Nord-du-Québec", "lat": 51.962, "lon": -74.8961}, {"name": "Normandin", "lat": 48.83328, "lon": -72.53209}, {"name": "Notre-Dame-de-Grâce", "lat": 45.47675, "lon": -73.61432}, {"name": "Notre-Dame-de-l'Île-Perrot", "lat": 45.36678, "lon": -73.9325}, {"name": "Notre-Dame-des-Prairies", "lat": 46.05007, "lon": -73.43245}, {"name": "Notre-Dame-du-Lac", "lat": 46.75012, "lon": -79.04961}, {"name": "Notre-Dame-du-Mont-Carmel", "lat": 46.0168, "lon": -75.08259}, {"name": "Oka", "lat": 45.46489, "lon": -74.08892}, {"name": "Ormstown", "lat": 45.13338, "lon": -73.99922}, {"name": "Otterburn Park", "lat": 45.53338, "lon": -73.21585}, {"name": "Outaouais", "lat": 46.26681, "lon": -76.31606}, {"name": "Papineauville", "lat": 45.6168, "lon": -75.01599}, {"name": "Parc-Boutin", "lat": 45.29209, "lon": -73.26154}, {"name": "Piedmont", "lat": 45.90008, "lon": -74.13251}, {"name": "Pierreville", "lat": 46.07034, "lon": -72.81125}, {"name": "Pincourt", "lat": 45.38338, "lon": -73.9825}, {"name": "Plessisville", "lat": 46.21856, "lon": -71.76201}, {"name": "Pohénégamook", "lat": 47.46315, "lon": -69.22666}, {"name": "Pointe-Calumet", "lat": 45.50008, "lon": -73.9659}, {"name": "Pointe-Claire", "lat": 45.44868, "lon": -73.81669}, {"name": "Pointe-du-Lac", "lat": 48.50009, "lon": -71.78241}, {"name": "Pont Rouge", "lat": 48.88332, "lon": -72.08247}, {"name": "Port-Cartier", "lat": 50.03339, "lon": -66.86545}, {"name": "Portneuf", "lat": 46.69058, "lon": -71.89011}, {"name": "Prévost", "lat": 45.86678, "lon": -74.08251}, {"name": "Princeville", "lat": 46.17163, "lon": -71.87462}, {"name": "Québec", "lat": 46.81228, "lon": -71.21454}, {"name": "Rawdon", "lat": 46.05007, "lon": -73.71587}, {"name": "Repentigny", "lat": 45.74222, "lon": -73.45008}, {"name": "Richelieu", "lat": 45.44336, "lon": -73.24602}, {"name": "Richmond", "lat": 45.66677, "lon": -72.1491}, {"name": "Rigaud", "lat": 45.47927, "lon": -74.30238}, {"name": "Rimouski", "lat": 48.44879, "lon": -68.52396}, {"name": "Rivière-du-Loup", "lat": 47.82699, "lon": -69.54243}, {"name": "Rivière-Rouge", "lat": 46.41679, "lon": -74.86596}, {"name": "Roberval", "lat": 48.5168, "lon": -72.23244}, {"name": "Rock Forest", "lat": 45.35699, "lon": -71.99676}, {"name": "Rosemère", "lat": 45.63338, "lon": -73.79919}, {"name": "Rougemont", "lat": 45.43338, "lon": -73.04914}, {"name": "Rouyn-Noranda", "lat": 48.23656, "lon": -79.02311}, {"name": "Sacré-Coeur", "lat": 48.2297, "lon": -69.80061}, {"name": "Saguenay", "lat": 48.41675, "lon": -71.06573}, {"name": "Saint-Adolphe-d'Howard", "lat": 45.96679, "lon": -74.33253}, {"name": "Saint-Alexandre", "lat": 45.5001, "lon": -75.74935}, {"name": "Saint-Amable", "lat": 45.65008, "lon": -73.29916}, {"name": "Saint-Ambroise", "lat": 48.55009, "lon": -71.33238}, {"name": "Saint-André-Avellin", "lat": 45.7168, "lon": -75.06599}, {"name": "Saint-Anselme", "lat": 46.62922, "lon": -70.9734}, {"name": "Saint-Antoine-de-Tilly", "lat": 46.66346, "lon": -71.57335}, {"name": "Saint-Augustin-de-Desmaures", "lat": 46.74064, "lon": -71.45131}, {"name": "Saint-Barnabé-Sud", "lat": 45.72977, "lon": -72.92244}, {"name": "Saint-Basile-le-Grand", "lat": 45.53338, "lon": -73.28246}, {"name": "Saint-Boniface", "lat": 46.50011, "lon": -75.98264}, {"name": "Saint-Bruno", "lat": 48.46679, "lon": -71.6491}, {"name": "Saint-Bruno-de-Guigues", "lat": 47.46685, "lon": -79.43296}, {"name": "Saint-Bruno-de-Montarville", "lat": 45.53341, "lon": -73.34916}, {"name": "Saint-Canut", "lat": 45.71502, "lon": -74.08376}, {"name": "Saint-Césaire", "lat": 45.41678, "lon": -72.99914}, {"name": "Saint-Charles", "lat": 45.70288, "lon": -73.55417}, {"name": "Saint-Côme-Linière", "lat": 46.06677, "lon": -70.51573}, {"name": "Saint-Constant", "lat": 45.36678, "lon": -73.56588}, {"name": "Saint-Cyrille-de-Wendover", "lat": 45.93336, "lon": -72.43241}, {"name": "Saint-Damase", "lat": 45.53341, "lon": -72.99914}, {"name": "Saint-Denis-sur-Richelieu", "lat": 45.78338, "lon": -73.14915}, {"name": "Saint-Donat-de-Montcalm", "lat": 46.31868, "lon": -74.22171}, {"name": "Saint-Édouard", "lat": 45.23338, "lon": -73.51588}, {"name": "Saint-Elzéar", "lat": 45.60338, "lon": -73.72698}, {"name": "Saint-Éphrem-de-Beauce", "lat": 46.06677, "lon": -70.94905}, {"name": "Saint-Eustache", "lat": 45.565, "lon": -73.90554}, {"name": "Saint-Félicien", "lat": 48.65007, "lon": -72.44906}, {"name": "Saint-Félix-de-Valois", "lat": 46.16977, "lon": -73.42525}, {"name": "Saint-Gabriel", "lat": 46.30007, "lon": -73.38245}, {"name": "Saint-Gédéon", "lat": 48.50009, "lon": -71.76581}, {"name": "Saint-Georges", "lat": 46.11353, "lon": -70.66526}, {"name": "Saint-Germain-de-Grantham", "lat": 45.83337, "lon": -72.56582}, {"name": "Saint-Henri", "lat": 46.69314, "lon": -71.06927}, {"name": "Saint-Hippolyte", "lat": 45.93338, "lon": -74.0159}, {"name": "Saint-Honoré", "lat": 48.53338, "lon": -71.08236}, {"name": "Saint-Hyacinthe", "lat": 45.63076, "lon": -72.95699}, {"name": "Saint-Isidore", "lat": 47.43345, "lon": -79.29965}, {"name": "Saint-Jacques-le-Mineur", "lat": 45.28338, "lon": -73.41587}, {"name": "Saint-Jean-Baptiste", "lat": 45.3806, "lon": -74.0121}, {"name": "Saint-Jean-sur-Richelieu", "lat": 45.30713, "lon": -73.26259}, {"name": "Saint-Jérôme", "lat": 45.78036, "lon": -74.00365}, {"name": "Saint-Joseph", "lat": 45.95817, "lon": -73.22025}, {"name": "Saint-Joseph-de-Beauce", "lat": 46.3, "lon": -70.86667}, {"name": "Saint-Joseph-de-Coleraine", "lat": 45.96677, "lon": -71.36577}, {"name": "Saint-Joseph-du-Lac", "lat": 45.53338, "lon": -73.9992}, {"name": "Saint-Lambert-de-Lauzon", "lat": 46.58624, "lon": -71.20892}, {"name": "Saint-Laurent", "lat": 45.50008, "lon": -73.66585}, {"name": "Saint-Lazare", "lat": 45.40008, "lon": -74.13256}, {"name": "Saint-Léonard", "lat": 45.58773, "lon": -73.59501}, {"name": "Saint-Léonard-d'Aston", "lat": 46.10006, "lon": -72.3658}, {"name": "Saint-Liboire", "lat": 45.65068, "lon": -72.76348}, {"name": "Saint-Lin-Laurentides", "lat": 45.85008, "lon": -73.76588}, {"name": "Saint-Marc-des-Carrières", "lat": 46.68335, "lon": -72.0491}, {"name": "Saint-Mathieu", "lat": 45.31678, "lon": -73.51587}, {"name": "Saint-Michel", "lat": 45.56758, "lon": -73.62168}, {"name": "Saint-Michel-des-Saints", "lat": 46.67702, "lon": -73.91881}, {"name": "Saint-Nazaire", "lat": 48.58944, "lon": -71.55247}, {"name": "Saint-Norbert", "lat": 46.16949, "lon": -73.31494}, {"name": "Saint-Pacôme", "lat": 47.40457, "lon": -69.95025}, {"name": "Saint-Pascal", "lat": 47.51813, "lon": -69.80301}, {"name": "Saint-Philippe-de-La Prairie", "lat": 45.35723, "lon": -73.47706}, {"name": "Saint-Pie", "lat": 45.50277, "lon": -72.9089}, {"name": "Saint-Pierre-les-Becquets", "lat": 46.50005, "lon": -72.1991}, {"name": "Saint-Prime", "lat": 48.58339, "lon": -72.33244}, {"name": "Saint-Raphaël", "lat": 46.25011, "lon": -76.01605}, {"name": "Saint-Raymond", "lat": 45.46698, "lon": -73.60948}, {"name": "Saint-Rémi", "lat": 45.26678, "lon": -73.61588}, {"name": "Saint-Rémi-de-Tingwick", "lat": 45.86677, "lon": -71.81581}, {"name": "Saint-Sauveur", "lat": 45.88686, "lon": -74.17943}, {"name": "Saint-Sauveur-des-Monts", "lat": 45.90008, "lon": -74.16591}, {"name": "Saint-Siméon", "lat": 47.84431, "lon": -69.87837}, {"name": "Saint-Thomas", "lat": 46.01677, "lon": -73.34915}, {"name": "Saint-Tite", "lat": 46.73336, "lon": -72.56581}, {"name": "Saint-Victor", "lat": 45.61118, "lon": -73.51527}, {"name": "Saint-Zotique", "lat": 45.25009, "lon": -74.24924}, {"name": "Sainte Catherine de la Jacques Cartier", "lat": 46.85244, "lon": -71.62056}, {"name": "Sainte-Adèle", "lat": 45.95008, "lon": -74.13251}, {"name": "Sainte-Agathe-des-Monts", "lat": 46.05009, "lon": -74.28252}, {"name": "Sainte-Anne-de-Bellevue", "lat": 45.40618, "lon": -73.9456}, {"name": "Sainte-Anne-des-Monts", "lat": 49.12402, "lon": -66.49243}, {"name": "Sainte-Anne-des-Plaines", "lat": 45.76468, "lon": -73.81156}, {"name": "Sainte-Béatrix", "lat": 46.20007, "lon": -73.61587}, {"name": "Sainte-Catherine", "lat": 45.40008, "lon": -73.58248}, {"name": "Sainte-Croix", "lat": 45.13368, "lon": -72.80083}, {"name": "Sainte-Élisabeth", "lat": 46.09502, "lon": -73.35176}, {"name": "Sainte-Julie", "lat": 45.58338, "lon": -73.33246}, {"name": "Sainte-Julienne", "lat": 45.96677, "lon": -73.71587}, {"name": "Sainte-Madeleine", "lat": 45.60008, "lon": -73.09914}, {"name": "Sainte-Marie", "lat": 46.43401, "lon": -71.01168}, {"name": "Sainte-Marthe-sur-le-Lac", "lat": 45.53338, "lon": -73.9325}, {"name": "Sainte-Martine", "lat": 45.25008, "lon": -73.79919}, {"name": "Sainte-Sophie", "lat": 45.81678, "lon": -73.89919}, {"name": "Sainte-Thècle", "lat": 46.81676, "lon": -72.49911}, {"name": "Sainte-Thérèse", "lat": 45.63922, "lon": -73.82757}, {"name": "Salaberry-de-Valleyfield", "lat": 45.25008, "lon": -74.13253}, {"name": "Salluit", "lat": 62.20411, "lon": -75.64344}, {"name": "Senneterre", "lat": 48.39302, "lon": -77.23951}, {"name": "Sept-Îles", "lat": 50.20011, "lon": -66.38208}, {"name": "Shannon", "lat": 46.88026, "lon": -71.51464}, {"name": "Shawinigan", "lat": 46.56675, "lon": -72.74913}, {"name": "Shawville", "lat": 45.60011, "lon": -76.4827}, {"name": "Sherbrooke", "lat": 45.40008, "lon": -71.89908}, {"name": "Sorel-Tracy", "lat": 46.04178, "lon": -73.11358}, {"name": "St-Jean-Port-Joli", "lat": 47.21418, "lon": -70.26969}, {"name": "Sutton", "lat": 45.10008, "lon": -72.61582}, {"name": "Témiscaming", "lat": 46.72122, "lon": -79.09712}, {"name": "Terrasse-des-Pins", "lat": 45.86449, "lon": -74.06627}, {"name": "Terrebonne", "lat": 45.70004, "lon": -73.64732}, {"name": "Thetford-Mines", "lat": 46.09371, "lon": -71.30539}, {"name": "Thurso", "lat": 45.6001, "lon": -75.24931}, {"name": "Trois-Rivières", "lat": 46.34515, "lon": -72.5477}, {"name": "Val-d'Or", "lat": 48.0974, "lon": -77.79737}, {"name": "Val-David", "lat": 46.03338, "lon": -74.21592}, {"name": "Val-des-Monts", "lat": 45.6501, "lon": -75.66604}, {"name": "Val-Morin", "lat": 46.00008, "lon": -74.18251}, {"name": "Valcourt", "lat": 45.50008, "lon": -72.31581}, {"name": "Vallée-Jonction", "lat": 46.37441, "lon": -70.91881}, {"name": "Varennes", "lat": 45.68338, "lon": -73.43246}, {"name": "Vaudreuil-Dorion", "lat": 45.40008, "lon": -74.03251}, {"name": "Venise-en-Québec", "lat": 45.08338, "lon": -73.13245}, {"name": "Verchères", "lat": 45.78338, "lon": -73.34916}, {"name": "Victoriaville", "lat": 46.05007, "lon": -71.96579}, {"name": "Ville-Marie", "lat": 47.33345, "lon": -79.43297}, {"name": "Wakefield", "lat": 45.6668, "lon": -75.83265}, {"name": "Warwick", "lat": 45.95007, "lon": -71.9824}, {"name": "Waskaganish", "lat": 51.48333, "lon": -78.75}, {"name": "Waswanipi", "lat": 49.73346, "lon": -76.16604}, {"name": "Waterloo", "lat": 45.35008, "lon": -72.51582}, {"name": "Weedon Centre", "lat": 45.70802, "lon": -71.45986}, {"name": "Westmount", "lat": 45.48341, "lon": -73.59918}, {"name": "Weymontachie", "lat": 47.8994, "lon": -73.7772}, {"name": "Windsor", "lat": 45.56678, "lon": -71.99909}, {"name": "Yamachiche", "lat": 46.26676, "lon": -72.83243}, {"name": "Biggar", "lat": 52.0668, "lon": -108.00135}, {"name": "Dalmeny", "lat": 52.33339, "lon": -106.76792}, {"name": "Langham", "lat": 52.3668, "lon": -106.96793}, {"name": "Maple Creek", "lat": 49.91678, "lon": -109.48481}, {"name": "Outlook", "lat": 51.50008, "lon": -107.05128}, {"name": "Regina Beach", "lat": 50.78338, "lon": -105.00112}, {"name": "Cayman Brac", "lat": 19.719997, "lon": -79.8907266}, {"name": "Bodden Town", "lat": 19.2796693, "lon": -81.2777999}, {"name": "East End", "lat": 19.2995898, "lon": -81.1196138}, {"name": "George Town", "lat": 19.2902326, "lon": -81.4433372}, {"name": "North Side", "lat": 19.3362047, "lon": -81.5139813}, {"name": "West Bay", "lat": 19.3665153, "lon": -81.4317026}, {"name": "Little Cayman", "lat": 19.6856739, "lon": -80.1183019}, {"name": "Isla de Pascua", "lat": -27.11048, "lon": -109.29749}, {"name": "El Encanto", "lat": -1.56261, "lon": -73.25684}, {"name": "La Chorrera", "lat": -1.48894, "lon": -72.72935}, {"name": "La Pedrera", "lat": -1.65596, "lon": -70.22186}, {"name": "La Victoria", "lat": -0.18311, "lon": -71.0376}, {"name": "Leticia", "lat": -4.21528, "lon": -69.94056}, {"name": "Miriti - Paraná", "lat": -0.81858, "lon": -70.78925}, {"name": "Puerto Alegría", "lat": -0.96886, "lon": -73.74962}, {"name": "Puerto Arica", "lat": -1.90677, "lon": -71.14653}, {"name": "Puerto Nariño", "lat": -3.78889, "lon": -70.35584}, {"name": "Puerto Santander", "lat": -1.0987, "lon": -71.93911}, {"name": "Tarapacá", "lat": -2.88544, "lon": -69.77692}, {"name": "Abejorral", "lat": 5.78928, "lon": -75.42725}, {"name": "Abriaquí", "lat": 6.63148, "lon": -76.06444}, {"name": "Alejandría", "lat": 6.36667, "lon": -75.08333}, {"name": "Amagá", "lat": 6.04001, "lon": -75.70315}, {"name": "Amalfi", "lat": 6.91016, "lon": -75.07764}, {"name": "Andes", "lat": 5.66974, "lon": -75.89905}, {"name": "Angelópolis", "lat": 6.12228, "lon": -75.71432}, {"name": "Angostura", "lat": 6.8712, "lon": -75.35947}, {"name": "Anorí", "lat": 7.07361111, "lon": -75.14694444}, {"name": "Anza", "lat": 6.33333, "lon": -75.91667}, {"name": "Apartadó", "lat": 7.88299, "lon": -76.62587}, {"name": "Arboletes", "lat": 8.85051, "lon": -76.42694}, {"name": "Argelia", "lat": 5.73127, "lon": -75.14257}, {"name": "Armenia", "lat": 6.17554, "lon": -75.8123}, {"name": "Barbosa", "lat": 6.43809, "lon": -75.33136}, {"name": "Bello", "lat": 6.3616, "lon": -75.58728}, {"name": "Belmira", "lat": 6.60508, "lon": -75.66619}, {"name": "Betania", "lat": 5.73571, "lon": -75.98964}, {"name": "Betulia", "lat": 6.11284, "lon": -75.98378}, {"name": "Briceño", "lat": 7.05001, "lon": -75.50903}, {"name": "Buriticá", "lat": 6.80549, "lon": -75.92093}, {"name": "Cáceres", "lat": 7.68252, "lon": -75.22481}, {"name": "Caicedo", "lat": 6.42805, "lon": -75.99715}, {"name": "Caldas", "lat": 6.09106, "lon": -75.63569}, {"name": "Campamento", "lat": 7.0391, "lon": -75.28938}, {"name": "Cañasgordas", "lat": 6.80951, "lon": -76.03954}, {"name": "Caracolí", "lat": 6.4092, "lon": -74.75715}, {"name": "Caramanta", "lat": 5.54144, "lon": -75.66961}, {"name": "Carepa", "lat": 7.75849, "lon": -76.65255}, {"name": "Carolina", "lat": 6.74807, "lon": -75.32131}, {"name": "Caucasia", "lat": 7.98654, "lon": -75.19349}, {"name": "Chigorodó", "lat": 7.66638, "lon": -76.68106}, {"name": "Cisneros", "lat": 6.54507, "lon": -75.09415}, {"name": "Ciudad Bolívar", "lat": 5.85389, "lon": -76.02528}, {"name": "Cocorná", "lat": 6.00579, "lon": -75.16984}, {"name": "Concepción", "lat": 6.39408, "lon": -75.2583}, {"name": "Concordia", "lat": 6.04639, "lon": -75.90705}, {"name": "Copacabana", "lat": 6.3623, "lon": -75.49922}, {"name": "Dabeiba", "lat": 7.03367, "lon": -76.34161}, {"name": "Donmatías", "lat": 6.48569, "lon": -75.39496}, {"name": "Ebéjico", "lat": 6.32598, "lon": -75.76835}, {"name": "El Bagre", "lat": 7.60347, "lon": -74.80951}, {"name": "El Carmen de Viboral", "lat": 6.08236, "lon": -75.33509}, {"name": "El Santuario", "lat": 6.13833, "lon": -75.26417}, {"name": "Entrerrios", "lat": 6.58333, "lon": -75.58333}, {"name": "Envigado", "lat": 6.17591, "lon": -75.59174}, {"name": "Fredonia", "lat": 5.89239, "lon": -75.68546}, {"name": "Frontino", "lat": 6.77133, "lon": -76.13324}, {"name": "Giraldo", "lat": 6.66667, "lon": -75.95346}, {"name": "Girardota", "lat": 6.36789, "lon": -75.46231}, {"name": "Gómez Plata", "lat": 6.68178, "lon": -75.21907}, {"name": "Granada", "lat": 6.14353, "lon": -75.18532}, {"name": "Guadalupe", "lat": 6.81449, "lon": -75.24063}, {"name": "Guarne", "lat": 6.28345, "lon": -75.44363}, {"name": "Guatapé", "lat": 6.25548, "lon": -75.16432}, {"name": "Heliconia", "lat": 6.20831, "lon": -75.73565}, {"name": "Hispania", "lat": 5.79925, "lon": -75.90718}, {"name": "Itagui", "lat": 6.17874, "lon": -75.63117}, {"name": "Ituango", "lat": 7.17117, "lon": -75.76404}, {"name": "Jardín", "lat": 5.59038, "lon": -75.81846}, {"name": "Jericó", "lat": 5.79211, "lon": -75.78601}, {"name": "La Ceja", "lat": 6.0, "lon": -75.43311}, {"name": "La Estrella", "lat": 6.14239, "lon": -75.65257}, {"name": "La Pintada", "lat": 5.74867, "lon": -75.60626}, {"name": "La Unión", "lat": 5.94642, "lon": -75.35917}, {"name": "Liborina", "lat": 6.6779, "lon": -75.81218}, {"name": "Maceo", "lat": 6.55196, "lon": -74.78741}, {"name": "Marinilla", "lat": 6.19609, "lon": -75.30313}, {"name": "Medellín", "lat": 6.25184, "lon": -75.56359}, {"name": "Montebello", "lat": 5.93703, "lon": -75.52741}, {"name": "Murindó", "lat": 6.84698, "lon": -76.71544}, {"name": "Mutatá", "lat": 7.24407, "lon": -76.43564}, {"name": "Nariño", "lat": 5.60893, "lon": -75.17656}, {"name": "Nechí", "lat": 8.09419, "lon": -74.77573}, {"name": "Necoclí", "lat": 8.42627, "lon": -76.78926}, {"name": "Olaya", "lat": 6.62773, "lon": -75.8127}, {"name": "Peñol", "lat": 6.23434, "lon": -75.22573}, {"name": "Peque", "lat": 7.02123, "lon": -75.90926}, {"name": "Pueblorrico", "lat": 5.8, "lon": -75.85}, {"name": "Puerto Berrío", "lat": 6.50749, "lon": -74.52271}, {"name": "Puerto Nare", "lat": 6.19167, "lon": -74.5867}, {"name": "Puerto Triunfo", "lat": 5.87259, "lon": -74.6405}, {"name": "Remedios", "lat": 7.02835, "lon": -74.69379}, {"name": "Retiro", "lat": 6.05906, "lon": -75.51488}, {"name": "Rionegro", "lat": 6.16667, "lon": -75.41667}, {"name": "Sabanalarga", "lat": 6.84893, "lon": -75.81711}, {"name": "Sabaneta", "lat": 6.15153, "lon": -75.61657}, {"name": "Salgar", "lat": 5.96711, "lon": -75.98747}, {"name": "San Andrés de Cuerquía", "lat": 6.90333, "lon": -75.6825}, {"name": "San Carlos", "lat": 7.79177, "lon": -74.77316}, {"name": "San Francisco", "lat": 6.11667, "lon": -75.98333}, {"name": "San Jerónimo", "lat": 6.44139, "lon": -75.70783}, {"name": "San José de la Montaña", "lat": 6.82205, "lon": -75.69757}, {"name": "San Juan de Urabá", "lat": 8.75924, "lon": -76.52969}, {"name": "San Luis", "lat": 6.04222222, "lon": -74.99333333}, {"name": "San Pedro de los Milagros", "lat": 6.45944444, "lon": -75.55777888}, {"name": "San Pedro de Uraba", "lat": 8.42291, "lon": -76.31747}, {"name": "San Rafael", "lat": 6.31234, "lon": -75.02426}, {"name": "San Roque", "lat": 6.48511, "lon": -75.0196}, {"name": "San Vicente Ferrer", "lat": 6.32237, "lon": -75.3302}, {"name": "Santa Bárbara", "lat": 5.88937, "lon": -75.58255}, {"name": "Santa Fe de Antioquia", "lat": 6.55687, "lon": -75.82806}, {"name": "Santa Rosa de Osos", "lat": 6.64738, "lon": -75.46031}, {"name": "Santo Domingo", "lat": 6.47282, "lon": -75.16547}, {"name": "Segovia", "lat": 7.28132, "lon": -74.64273}, {"name": "Sonson", "lat": 5.75, "lon": -75.0}, {"name": "Sopetrán", "lat": 6.52271, "lon": -75.74608}, {"name": "Támesis", "lat": 5.66462, "lon": -75.71339}, {"name": "Tarazá", "lat": 7.58358, "lon": -75.40068}, {"name": "Tarso", "lat": 5.86467, "lon": -75.82192}, {"name": "Titiribí", "lat": 6.06276, "lon": -75.7937}, {"name": "Toledo", "lat": 7.01306, "lon": -75.69528}, {"name": "Turbo", "lat": 8.09263, "lon": -76.72822}, {"name": "Uramita", "lat": 6.89944, "lon": -76.17417}, {"name": "Urrao", "lat": 6.31696, "lon": -76.1342}, {"name": "Valdivia", "lat": 7.29382, "lon": -75.3919}, {"name": "Valparaíso", "lat": 5.615, "lon": -75.62422}, {"name": "Vegachí", "lat": 6.76141, "lon": -74.79473}, {"name": "Venecia", "lat": 5.95417, "lon": -75.79904}, {"name": "Vigía del Fuerte", "lat": 6.58933, "lon": -76.89599}, {"name": "Yalí", "lat": 6.70257, "lon": -74.79018}, {"name": "Yarumal", "lat": 6.98532, "lon": -75.45402}, {"name": "Yolombó", "lat": 6.66569, "lon": -74.9912}, {"name": "Yondó", "lat": 6.90738, "lon": -74.17686}, {"name": "Zaragoza", "lat": 7.48971, "lon": -74.86919}, {"name": "Arauca", "lat": 7.08471, "lon": -70.75908}, {"name": "Arauquita", "lat": 7.02917, "lon": -71.42806}, {"name": "Cravo Norte", "lat": 6.30173, "lon": -70.20415}, {"name": "Fortul", "lat": 6.74611, "lon": -71.85667}, {"name": "Puerto Rondón", "lat": 6.28048, "lon": -71.1}, {"name": "Saravena", "lat": 6.96319, "lon": -71.8823}, {"name": "Tame", "lat": 6.46065, "lon": -71.73618}, {"name": "Baranoa", "lat": 10.79497, "lon": -74.92073}, {"name": "Barranquilla", "lat": 10.96854, "lon": -74.78132}, {"name": "Campo de la Cruz", "lat": 10.37844, "lon": -74.90258}, {"name": "Candelaria", "lat": 10.47387, "lon": -74.88581}, {"name": "Galapa", "lat": 10.8979, "lon": -74.887}, {"name": "Juan de Acosta", "lat": 10.8293, "lon": -75.03346}, {"name": "Luruaco", "lat": 10.61712, "lon": -75.15146}, {"name": "Malambo", "lat": 10.85953, "lon": -74.77386}, {"name": "Manatí", "lat": 10.46402, "lon": -74.9822}, {"name": "Palmar de Varela", "lat": 10.74055, "lon": -74.75443}, {"name": "Piojó", "lat": 10.74846, "lon": -75.10776}, {"name": "Polonuevo", "lat": 10.77697, "lon": -74.85344}, {"name": "Ponedera", "lat": 10.64297, "lon": -74.75393}, {"name": "Puerto Colombia", "lat": 11.00854, "lon": -74.90887}, {"name": "Repelón", "lat": 10.50937, "lon": -75.1283}, {"name": "Sabanagrande", "lat": 10.80077, "lon": -74.77051}, {"name": "Sabanalarga", "lat": 10.61636, "lon": -74.95717}, {"name": "Santa Lucía", "lat": 10.3242, "lon": -74.96017}, {"name": "Santo Tomás", "lat": 10.75773, "lon": -74.75451}, {"name": "Soledad", "lat": 10.89986, "lon": -74.78787}, {"name": "Suan", "lat": 10.30214, "lon": -74.91934}, {"name": "Tubará", "lat": 10.87562, "lon": -74.97873}, {"name": "Usiacurí", "lat": 10.74313, "lon": -74.97604}, {"name": "Bogotá D.C.", "lat": 4.61263889, "lon": -74.0705}, {"name": "Achí", "lat": 8.5695, "lon": -74.55715}, {"name": "Altos del Rosario", "lat": 8.79162, "lon": -74.16556}, {"name": "Arenal", "lat": 8.45928, "lon": -73.94331}, {"name": "Arjona", "lat": 10.17594, "lon": -75.35884}, {"name": "Arroyohondo", "lat": 10.2522, "lon": -75.0198}, {"name": "Barranco de Loba", "lat": 8.94597, "lon": -74.10647}, {"name": "Calamar", "lat": 10.23377, "lon": -74.9424}, {"name": "Cantagallo", "lat": 7.37926, "lon": -73.9155}, {"name": "Cartagena de Indias", "lat": 10.39972, "lon": -75.51444}, {"name": "Cicuco", "lat": 9.27756, "lon": -74.64312}, {"name": "Clemencia", "lat": 10.56645, "lon": -75.32499}, {"name": "Córdoba", "lat": 9.55149, "lon": -74.898}, {"name": "El Carmen de Bolívar", "lat": 9.7174, "lon": -75.12023}, {"name": "El Guamo", "lat": 10.01753, "lon": -74.93483}, {"name": "El Peñón", "lat": 8.98691, "lon": -73.94697}, {"name": "Hatillo de Loba", "lat": 8.95635, "lon": -74.07819}, {"name": "Magangué", "lat": 9.24202, "lon": -74.75467}, {"name": "Mahates", "lat": 10.23293, "lon": -75.18985}, {"name": "Margarita", "lat": 9.06325, "lon": -74.28134}, {"name": "María la Baja", "lat": 9.99228, "lon": -75.34364}, {"name": "Mompós", "lat": 9.1399, "lon": -74.54513}, {"name": "Montecristo", "lat": 8.2971, "lon": -74.4733}, {"name": "Morales", "lat": 8.2752, "lon": -73.86884}, {"name": "Norosí", "lat": 8.52692, "lon": -74.03736}, {"name": "Pinillos", "lat": 8.91925, "lon": -74.46771}, {"name": "Regidor", "lat": 8.72229, "lon": -73.84891}, {"name": "Río Viejo", "lat": 8.5874, "lon": -73.83901}, {"name": "San Cristóbal", "lat": 9.87809, "lon": -75.25248}, {"name": "San Estanislao", "lat": 10.39833, "lon": -75.15111}, {"name": "San Fernando", "lat": 9.27972, "lon": -74.53389}, {"name": "San Jacinto", "lat": 9.83906, "lon": -75.11043}, {"name": "San Jacinto del Cauca", "lat": 8.23729, "lon": -74.66782}, {"name": "San Juan Nepomuceno", "lat": 9.94976, "lon": -75.07426}, {"name": "San Martín de Loba", "lat": 8.88214, "lon": -74.00353}, {"name": "San Pablo", "lat": 10.05154, "lon": -75.26775}, {"name": "Santa Catalina", "lat": 10.60448, "lon": -75.29555}, {"name": "Santa Rosa", "lat": 10.47312, "lon": -75.3616}, {"name": "Santa Rosa del Sur", "lat": 7.96444, "lon": -74.05444}, {"name": "Simití", "lat": 7.81632, "lon": -73.97922}, {"name": "Soplaviento", "lat": 10.33176, "lon": -75.11853}, {"name": "Talaigua Nuevo", "lat": 9.30347, "lon": -74.56477}, {"name": "Tiquisio", "lat": 8.55666, "lon": -74.26355}, {"name": "Turbaco", "lat": 10.35707, "lon": -75.38044}, {"name": "Turbaná", "lat": 10.27169, "lon": -75.44222}, {"name": "Villanueva", "lat": 10.44759, "lon": -75.26574}, {"name": "Zambrano", "lat": 9.74823, "lon": -74.88487}, {"name": "Almeida", "lat": 4.97083, "lon": -73.37972}, {"name": "Aquitania", "lat": 5.40341, "lon": -72.90192}, {"name": "Arcabuco", "lat": 5.75463, "lon": -73.43669}, {"name": "Belén", "lat": 5.98892, "lon": -72.91254}, {"name": "Berbeo", "lat": 5.2276, "lon": -73.12527}, {"name": "Betéitiva", "lat": 5.91102, "lon": -72.80926}, {"name": "Boavita", "lat": 6.33031, "lon": -72.58505}, {"name": "Boyacá", "lat": 5.45371, "lon": -73.3625}, {"name": "Briceño", "lat": 5.68822, "lon": -73.91784}, {"name": "Buenavista", "lat": 5.5, "lon": -73.96667}, {"name": "Busbanzá", "lat": 5.83047, "lon": -72.88419}, {"name": "Caldas", "lat": 5.5783, "lon": -73.88066}, {"name": "Campohermoso", "lat": 4.97733, "lon": -73.16714}, {"name": "Cerinza", "lat": 5.93649, "lon": -72.99127}, {"name": "Chinavita", "lat": 5.17915, "lon": -73.37147}, {"name": "Chiquinquirá", "lat": 5.61363, "lon": -73.83848}, {"name": "Chíquiza", "lat": 5.60412, "lon": -73.48518}, {"name": "Chiscas", "lat": 6.55642, "lon": -72.50378}, {"name": "Chita", "lat": 6.07788, "lon": -72.46774}, {"name": "Chitaraque", "lat": 5.96167, "lon": -73.45761}, {"name": "Chivatá", "lat": 5.55823, "lon": -73.28198}, {"name": "Chivor", "lat": 4.88556, "lon": -73.36889}, {"name": "Ciénega", "lat": 5.40867, "lon": -73.29572}, {"name": "Combita", "lat": 5.63333, "lon": -73.31667}, {"name": "Coper", "lat": 5.47681, "lon": -74.04416}, {"name": "Corrales", "lat": 5.82497, "lon": -72.84539}, {"name": "Covarachía", "lat": 6.50563, "lon": -72.7331}, {"name": "Cubará", "lat": 7.00578, "lon": -72.10568}, {"name": "Cucaita", "lat": 5.54373, "lon": -73.45433}, {"name": "Cuítiva", "lat": 5.58007, "lon": -72.96687}, {"name": "Duitama", "lat": 5.8245, "lon": -73.03408}, {"name": "El Cocuy", "lat": 6.32839, "lon": -72.43577}, {"name": "El Espino", "lat": 6.50812, "lon": -72.48036}, {"name": "Firavitoba", "lat": 5.66885, "lon": -72.99289}, {"name": "Floresta", "lat": 5.85903, "lon": -72.92511}, {"name": "Gachantivá", "lat": 5.74417, "lon": -73.54253}, {"name": "Gameza", "lat": 5.80313, "lon": -72.73721}, {"name": "Garagoa", "lat": 5.08236, "lon": -73.36334}, {"name": "Guacamayas", "lat": 6.44599, "lon": -72.51676}, {"name": "Guateque", "lat": 5.00619, "lon": -73.47274}, {"name": "Guayatá", "lat": 4.96417, "lon": -73.4875}, {"name": "Güicán", "lat": 6.46554, "lon": -72.41539}, {"name": "Iza", "lat": 5.61203, "lon": -72.9793}, {"name": "Jenesano", "lat": 5.38541, "lon": -73.36364}, {"name": "Jericó", "lat": 6.14577, "lon": -72.58598}, {"name": "La Capilla", "lat": 5.08076, "lon": -73.48076}, {"name": "La Uvita", "lat": 6.24262, "lon": -72.56448}, {"name": "La Victoria", "lat": 5.52278, "lon": -74.2328}, {"name": "Labranzagrande", "lat": 5.56223, "lon": -72.57499}, {"name": "Macanal", "lat": 4.9505, "lon": -73.32029}, {"name": "Maripí", "lat": 5.55194, "lon": -74.00861}, {"name": "Miraflores", "lat": 5.12216, "lon": -73.21212}, {"name": "Mongua", "lat": 5.75084, "lon": -72.80339}, {"name": "Monguí", "lat": 5.69752, "lon": -72.83359}, {"name": "Moniquirá", "lat": 5.84315, "lon": -73.57775}, {"name": "Motavita", "lat": 5.57655, "lon": -73.36696}, {"name": "Muzo", "lat": 5.53528, "lon": -74.10778}, {"name": "Nobsa", "lat": 5.76978, "lon": -72.94099}, {"name": "Nuevo Colón", "lat": 5.35368, "lon": -73.4566}, {"name": "Oicatá", "lat": 5.59548, "lon": -73.3082}, {"name": "Otanche", "lat": 5.77534, "lon": -74.20315}, {"name": "Pachavita", "lat": 5.13969, "lon": -73.39739}, {"name": "Páez", "lat": 5.10112, "lon": -73.05123}, {"name": "Paipa", "lat": 5.78013, "lon": -73.11708}, {"name": "Pajarito", "lat": 5.34751, "lon": -72.72075}, {"name": "Panqueba", "lat": 6.44533, "lon": -72.46268}, {"name": "Pauna", "lat": 5.65861, "lon": -73.9825}, {"name": "Paya", "lat": 5.62492, "lon": -72.42345}, {"name": "Paz de Río", "lat": 6.00219, "lon": -72.78857}, {"name": "Pesca", "lat": 5.50213, "lon": -73.08794}, {"name": "Pisba", "lat": 5.72396, "lon": -72.48646}, {"name": "Puerto Boyacá", "lat": 5.97214, "lon": -74.46349}, {"name": "Quípama", "lat": 5.5194, "lon": -74.17765}, {"name": "Ramiriquí", "lat": 5.4002, "lon": -73.33544}, {"name": "Ráquira", "lat": 5.53793, "lon": -73.63201}, {"name": "Rondón", "lat": 5.38173, "lon": -73.19683}, {"name": "Saboyá", "lat": 5.69636, "lon": -73.76932}, {"name": "Sáchica", "lat": 5.58453, "lon": -73.54184}, {"name": "Samacá", "lat": 5.49273, "lon": -73.48537}, {"name": "San Eduardo", "lat": 5.22396, "lon": -73.07696}, {"name": "San José de Pare", "lat": 6.01746, "lon": -73.54703}, {"name": "San Luis de Gaceno", "lat": 4.82052, "lon": -73.16851}, {"name": "San Mateo", "lat": 6.37704, "lon": -72.57797}, {"name": "San Miguel de Sema", "lat": 5.51847, "lon": -73.72238}, {"name": "San Pablo de Borbur", "lat": 5.66638, "lon": -74.13723}, {"name": "Santa María", "lat": 4.82282, "lon": -73.25373}, {"name": "Santa Rosa de Viterbo", "lat": 5.87401, "lon": -72.98217}, {"name": "Santa Sofía", "lat": 5.70213, "lon": -73.62976}, {"name": "Santana", "lat": 6.04464, "lon": -73.51107}, {"name": "Sativanorte", "lat": 6.13156, "lon": -72.70895}, {"name": "Sativasur", "lat": 6.08959, "lon": -72.72432}, {"name": "Siachoque", "lat": 5.51238, "lon": -73.24436}, {"name": "Soatá", "lat": 6.29966, "lon": -72.72422}, {"name": "Socha", "lat": 5.92926, "lon": -72.70072}, {"name": "Socotá", "lat": 6.04028, "lon": -72.63509}, {"name": "Sogamoso", "lat": 5.71434, "lon": -72.93391}, {"name": "Somondoco", "lat": 4.98495, "lon": -73.43238}, {"name": "Sora", "lat": 5.56514, "lon": -73.45017}, {"name": "Soracá", "lat": 5.50055, "lon": -73.33299}, {"name": "Sotaquirá", "lat": 5.76483, "lon": -73.24758}, {"name": "Susacón", "lat": 6.22978, "lon": -72.6901}, {"name": "Sutamarchán", "lat": 5.61538, "lon": -73.61701}, {"name": "Sutatenza", "lat": 5.02311, "lon": -73.4523}, {"name": "Tasco", "lat": 5.91044, "lon": -72.78001}, {"name": "Tenza", "lat": 5.07664, "lon": -73.42077}, {"name": "Tibaná", "lat": 5.31728, "lon": -73.39655}, {"name": "Tibasosa", "lat": 5.74722, "lon": -73.01091}, {"name": "Tinjacá", "lat": 5.57916, "lon": -73.64486}, {"name": "Tipacoque", "lat": 6.42031, "lon": -72.69184}, {"name": "Toca", "lat": 5.56393, "lon": -73.18398}, {"name": "Togüí", "lat": 5.93462, "lon": -73.51297}, {"name": "Tópaga", "lat": 5.75979, "lon": -72.82583}, {"name": "Tota", "lat": 5.55833, "lon": -72.98757}, {"name": "Tunja", "lat": 5.53528, "lon": -73.36778}, {"name": "Tununguá", "lat": 5.72967, "lon": -73.94137}, {"name": "Turmequé", "lat": 5.3236, "lon": -73.49067}, {"name": "Tuta", "lat": 5.68966, "lon": -73.22779}, {"name": "Tutazá", "lat": 6.03228, "lon": -72.85639}, {"name": "Umbita", "lat": 5.18411, "lon": -73.48341}, {"name": "Ventaquemada", "lat": 5.35987, "lon": -73.55032}, {"name": "Villa de Leyva", "lat": 5.67061, "lon": -73.51554}, {"name": "Viracachá", "lat": 5.43637, "lon": -73.29606}, {"name": "Zetaquira", "lat": 5.25824, "lon": -73.18275}, {"name": "Aguadas", "lat": 5.61161, "lon": -75.45624}, {"name": "Anserma", "lat": 5.20427, "lon": -75.79167}, {"name": "Aranzazu", "lat": 5.25519, "lon": -75.50984}, {"name": "Belalcázar", "lat": 4.99528, "lon": -75.81278}, {"name": "Chinchiná", "lat": 4.97522, "lon": -75.70416}, {"name": "Filadelfia", "lat": 5.29606, "lon": -75.5612}, {"name": "La Dorada", "lat": 5.53333, "lon": -74.7}, {"name": "La Merced", "lat": 5.3806, "lon": -75.58842}, {"name": "Manizales", "lat": 5.06889, "lon": -75.51738}, {"name": "Manzanares", "lat": 5.23305, "lon": -75.15168}, {"name": "Marmato", "lat": 5.47554, "lon": -75.5971}, {"name": "Marquetalia", "lat": 5.29069, "lon": -75.08028}, {"name": "Marulanda", "lat": 5.28393, "lon": -75.26016}, {"name": "Neira", "lat": 5.17534, "lon": -75.52405}, {"name": "Norcasia", "lat": 5.57535, "lon": -74.88831}, {"name": "Pácora", "lat": 5.50631, "lon": -75.49054}, {"name": "Palestina", "lat": 5.04571, "lon": -75.69552}, {"name": "Pensilvania", "lat": 5.3884, "lon": -75.2042}, {"name": "Riosucio", "lat": 5.42164, "lon": -75.70318}, {"name": "Risaralda", "lat": 5.11237, "lon": -75.75861}, {"name": "Salamina", "lat": 5.37014, "lon": -75.41548}, {"name": "Samaná", "lat": 5.54061, "lon": -74.99346}, {"name": "San José", "lat": 5.08221, "lon": -75.79107}, {"name": "Supía", "lat": 5.45303, "lon": -75.65072}, {"name": "Victoria", "lat": 5.45666, "lon": -74.84061}, {"name": "Villamaría", "lat": 4.95078, "lon": -75.4368}, {"name": "Viterbo", "lat": 5.06242, "lon": -75.87159}, {"name": "Albania", "lat": 1.26325, "lon": -75.95366}, {"name": "Belén de Los Andaquies", "lat": 1.41667, "lon": -75.91667}, {"name": "Cartagena del Chairá", "lat": 1.33488, "lon": -74.84289}, {"name": "Curillo", "lat": 1.03327, "lon": -75.91907}, {"name": "El Doncello", "lat": 1.67817, "lon": -75.28466}, {"name": "El Paujil", "lat": 1.57085, "lon": -75.31403}, {"name": "Florencia", "lat": 1.71619, "lon": -75.59624}, {"name": "La Montañita", "lat": 1.46389, "lon": -75.30363}, {"name": "Milán", "lat": 1.29034, "lon": -75.50757}, {"name": "Morelia", "lat": 1.48747, "lon": -75.72581}, {"name": "Puerto Rico", "lat": 1.90999, "lon": -75.15931}, {"name": "San José del Fragua", "lat": 1.3078, "lon": -76.16554}, {"name": "San Vicente del Caguán", "lat": 2.11527888, "lon": -74.77777777}, {"name": "Solano", "lat": 0.22842, "lon": -73.27597}, {"name": "Solita", "lat": 0.87583333, "lon": -75.61972222}, {"name": "Valparaíso", "lat": 1.19403, "lon": -75.70746}, {"name": "Aguazul", "lat": 5.17282, "lon": -72.54706}, {"name": "Chameza", "lat": 5.19237, "lon": -72.88952}, {"name": "Hato Corozal", "lat": 6.15472222, "lon": -71.76527888}, {"name": "La Salina", "lat": 6.12755555, "lon": -72.33416777}, {"name": "Maní", "lat": 4.81638, "lon": -72.27946}, {"name": "Monterrey", "lat": 4.82015, "lon": -72.87901}, {"name": "Nunchía", "lat": 5.63589, "lon": -72.19543}, {"name": "Orocué", "lat": 4.79035, "lon": -71.33917}, {"name": "Paz de Ariporo", "lat": 5.88111111, "lon": -71.89166777}, {"name": "Pore", "lat": 5.72792, "lon": -71.99266}, {"name": "Recetor", "lat": 5.22947, "lon": -72.76099}, {"name": "Sabanalarga", "lat": 4.8543, "lon": -73.04003}, {"name": "Sácama", "lat": 6.09908, "lon": -72.2488}, {"name": "San Luis de Palenque", "lat": 5.42139, "lon": -71.73167}, {"name": "Támara", "lat": 5.82998, "lon": -72.16286}, {"name": "Tauramena", "lat": 5.01789, "lon": -72.74675}, {"name": "Trinidad", "lat": 5.34778, "lon": -71.20194}, {"name": "Villanueva", "lat": 5.28333, "lon": -71.96667}, {"name": "Yopal", "lat": 5.33775, "lon": -72.39586}, {"name": "Almaguer", "lat": 1.91472, "lon": -76.85482}, {"name": "Argelia", "lat": 2.31728, "lon": -77.257}, {"name": "Balboa", "lat": 2.08436, "lon": -77.20781}, {"name": "Bolívar", "lat": 1.8467, "lon": -76.98292}, {"name": "Buenos Aires", "lat": 3.04825, "lon": -76.63066}, {"name": "Cajibío", "lat": 2.62271, "lon": -76.57039}, {"name": "Caldono", "lat": 2.79739, "lon": -76.48316}, {"name": "Caloto", "lat": 3.03586, "lon": -76.40788}, {"name": "Corinto", "lat": 3.13598, "lon": -76.20646}, {"name": "El Tambo", "lat": 2.45199, "lon": -76.81029}, {"name": "Florencia", "lat": 1.68318, "lon": -77.07331}, {"name": "Guachené", "lat": 3.13361111, "lon": -76.39255555}, {"name": "Guapi", "lat": 2.5521, "lon": -77.87865}, {"name": "Inzá", "lat": 2.55452, "lon": -76.06722}, {"name": "Jambaló", "lat": 2.85065, "lon": -76.32506}, {"name": "La Sierra", "lat": 2.19665, "lon": -76.7859}, {"name": "La Vega", "lat": 2.06201, "lon": -76.76808}, {"name": "López de Micay", "lat": 3.0, "lon": -77.25}, {"name": "Mercaderes", "lat": 1.80175, "lon": -77.17032}, {"name": "Miranda", "lat": 3.23773, "lon": -76.22093}, {"name": "Morales", "lat": 2.75446, "lon": -76.62791}, {"name": "Padilla", "lat": 3.22038, "lon": -76.31385}, {"name": "Páez", "lat": 2.64644, "lon": -75.97269}, {"name": "Patía", "lat": 2.14018, "lon": -77.01744}, {"name": "Piamonte", "lat": 1.11583333, "lon": -76.32611111}, {"name": "Piendamo", "lat": 2.63918, "lon": -76.53055}, {"name": "Popayán", "lat": 2.43823, "lon": -76.61316}, {"name": "Puerto Tejada", "lat": 3.23393, "lon": -76.41935}, {"name": "Puracé", "lat": 2.33851, "lon": -76.38759}, {"name": "Rosas", "lat": 2.26093, "lon": -76.73986}, {"name": "San Sebastián", "lat": 1.91667, "lon": -76.66667}, {"name": "Santa Rosa", "lat": 1.70055666, "lon": -76.57277888}, {"name": "Santander de Quilichao", "lat": 3.00945, "lon": -76.48494}, {"name": "Silvia", "lat": 2.61557, "lon": -76.38261}, {"name": "Sotará", "lat": 2.25, "lon": -76.58333}, {"name": "Suárez", "lat": 2.95395, "lon": -76.69644}, {"name": "Sucre", "lat": 2.06182, "lon": -76.91438}, {"name": "Timbío", "lat": 2.35277888, "lon": -76.68194444}, {"name": "Timbiquí", "lat": 2.7717, "lon": -77.66536}, {"name": "Toribio", "lat": 3.0, "lon": -76.16667}, {"name": "Totoró", "lat": 2.50518, "lon": -76.39254}, {"name": "Villa Rica", "lat": 2.5142, "lon": -76.84939}, {"name": "Aguachica", "lat": 8.30844, "lon": -73.6166}, {"name": "Agustín Codazzi", "lat": 10.03672, "lon": -73.23558}, {"name": "Astrea", "lat": 9.49828, "lon": -73.97591}, {"name": "Becerril", "lat": 9.70413, "lon": -73.2793}, {"name": "Bosconia", "lat": 9.97611111, "lon": -73.89033333}, {"name": "Chimichagua", "lat": 9.25778, "lon": -73.81228}, {"name": "Chiriguaná", "lat": 9.36238, "lon": -73.60313}, {"name": "Curumaní", "lat": 9.19992, "lon": -73.54274}, {"name": "El Copey", "lat": 10.15031, "lon": -73.9614}, {"name": "El Paso", "lat": 9.65724, "lon": -73.74685}, {"name": "Gamarra", "lat": 8.32969, "lon": -73.71773}, {"name": "González", "lat": 8.36735, "lon": -73.40032}, {"name": "La Gloria", "lat": 8.6116, "lon": -73.63045}, {"name": "La Jagua de Ibirico", "lat": 9.56228, "lon": -73.33405}, {"name": "La Paz", "lat": 10.10487, "lon": -73.22056}, {"name": "Manaure Balcón del Cesar", "lat": 10.39278, "lon": -73.0325}, {"name": "Pailitas", "lat": 8.95652, "lon": -73.62548}, {"name": "Pelaya", "lat": 8.68819, "lon": -73.66451}, {"name": "Pueblo Bello", "lat": 10.41638999, "lon": -73.58666777}, {"name": "Río de Oro", "lat": 8.17879, "lon": -73.51218}, {"name": "San Alberto", "lat": 7.76107, "lon": -73.3922}, {"name": "San Diego", "lat": 10.33623, "lon": -73.18203}, {"name": "San Martín", "lat": 8.00151, "lon": -73.51126}, {"name": "Tamalameque", "lat": 8.86422, "lon": -73.78106}, {"name": "Valledupar", "lat": 10.46314, "lon": -73.25322}, {"name": "Acandí", "lat": 8.51158, "lon": -77.27719}, {"name": "Alto Baudó", "lat": 5.51604, "lon": -76.97449}, {"name": "Atrato", "lat": 5.57362, "lon": -76.64063}, {"name": "Bagadó", "lat": 5.41164, "lon": -76.4152}, {"name": "Bahía Solano", "lat": 6.2252, "lon": -77.39147}, {"name": "Bajo Baudó", "lat": 4.95334, "lon": -77.36598}, {"name": "Bojayá", "lat": 6.55645, "lon": -76.88389}, {"name": "Carmen del Darien", "lat": 7.15777888, "lon": -76.97083333}, {"name": "Cértegui", "lat": 5.37073, "lon": -76.6044}, {"name": "Condoto", "lat": 5.09351, "lon": -76.64973}, {"name": "El Cantón de San Pablo", "lat": 5.33889, "lon": -76.73139}, {"name": "El Carmen de Atrato", "lat": 5.83333, "lon": -76.25}, {"name": "Istmina", "lat": 5.16054, "lon": -76.68397}, {"name": "Juradó", "lat": 7.10421, "lon": -77.762}, {"name": "Litoral del San Juan", "lat": 4.25875, "lon": -77.36516}, {"name": "Lloró", "lat": 5.49605, "lon": -76.54945}, {"name": "Medio Atrato", "lat": 5.995, "lon": -76.7825}, {"name": "Medio Baudó", "lat": 5.05, "lon": -77.05}, {"name": "Medio San Juan", "lat": 5.09278, "lon": -76.69528}, {"name": "Nóvita", "lat": 4.95511, "lon": -76.60526}, {"name": "Nuquí", "lat": 5.7125, "lon": -77.27083}, {"name": "Quibdó", "lat": 5.76075, "lon": -76.83701}, {"name": "Río Iro", "lat": 5.18333, "lon": -76.4833}, {"name": "Río Quito", "lat": 5.51667, "lon": -76.75}, {"name": "Riosucio", "lat": 7.41667, "lon": -77.16667}, {"name": "San José del Palmar", "lat": 4.89616, "lon": -76.23422}, {"name": "Sipí", "lat": 4.65374, "lon": -76.64442}, {"name": "Tadó", "lat": 5.26598, "lon": -76.56487}, {"name": "Unguía", "lat": 8.04364, "lon": -77.09137}, {"name": "Unión Panamericana", "lat": 5.28139, "lon": -76.63}, {"name": "Ayapel", "lat": 8.31372, "lon": -75.13982}, {"name": "Buenavista", "lat": 9.04963, "lon": -76.0028}, {"name": "Canalete", "lat": 8.67611, "lon": -76.20417}, {"name": "Cereté", "lat": 8.88479, "lon": -75.79052}, {"name": "Chimá", "lat": 9.14893, "lon": -75.62841}, {"name": "Chinú", "lat": 9.03869, "lon": -75.34273}, {"name": "Ciénaga de Oro", "lat": 8.83581, "lon": -75.60425}, {"name": "Cotorra", "lat": 9.03886, "lon": -75.78969}, {"name": "La Apartada", "lat": 8.04787, "lon": -75.30097}, {"name": "Lorica", "lat": 9.23648, "lon": -75.8135}, {"name": "Los Córdobas", "lat": 8.89403, "lon": -76.35455}, {"name": "Momil", "lat": 9.23767, "lon": -75.67489}, {"name": "Moñitos", "lat": 9.22615, "lon": -76.13594}, {"name": "Montelíbano", "lat": 7.97917, "lon": -75.4202}, {"name": "Montería", "lat": 8.74798, "lon": -75.88143}, {"name": "Planeta Rica", "lat": 8.4115, "lon": -75.58508}, {"name": "Pueblo Nuevo", "lat": 8.2411, "lon": -74.95815}, {"name": "Puerto Escondido", "lat": 8.99453, "lon": -76.19351}, {"name": "Puerto Libertador", "lat": 7.68181, "lon": -75.78312}, {"name": "Purísima", "lat": 9.23657, "lon": -75.72191}, {"name": "Sahagún", "lat": 8.94617, "lon": -75.44275}, {"name": "San Andrés de Sotavento", "lat": 9.12183, "lon": -75.51627}, {"name": "San Antero", "lat": 9.3741, "lon": -75.75891}, {"name": "San Bernardo del Viento", "lat": 9.3533, "lon": -75.95244}, {"name": "San Carlos", "lat": 8.79577, "lon": -75.69947}, {"name": "San José de Uré", "lat": 7.78722222, "lon": -75.53305666}, {"name": "San Pelayo", "lat": 8.95833, "lon": -75.83627}, {"name": "Tierralta", "lat": 7.87863, "lon": -76.21307}, {"name": "Tuchín", "lat": 9.18583333, "lon": -75.55527888}, {"name": "Valencia", "lat": 8.2335, "lon": -76.21428}, {"name": "Agua de Dios", "lat": 4.37648, "lon": -74.66995}, {"name": "Albán", "lat": 4.89432, "lon": -74.44388}, {"name": "Anapoima", "lat": 4.55099, "lon": -74.53517}, {"name": "Anolaima", "lat": 4.83362, "lon": -74.4995}, {"name": "Apulo", "lat": 4.51952, "lon": -74.59293}, {"name": "Arbeláez", "lat": 4.21251, "lon": -74.41464}, {"name": "Beltrán", "lat": 4.71947, "lon": -74.7566}, {"name": "Bituima", "lat": 4.87252, "lon": -74.53925}, {"name": "Bojacá", "lat": 4.73176, "lon": -74.34129}, {"name": "Cabrera", "lat": 3.98598, "lon": -74.48283}, {"name": "Cachipay", "lat": 5.26667, "lon": -74.56667}, {"name": "Cajicá", "lat": 4.91857, "lon": -74.02799}, {"name": "Caparrapí", "lat": 5.34644, "lon": -74.49147}, {"name": "Caqueza", "lat": 4.38708, "lon": -73.95722}, {"name": "Carmen de Carupa", "lat": 5.34862, "lon": -73.90168}, {"name": "Chaguaní", "lat": 4.94829, "lon": -74.59392}, {"name": "Chía", "lat": 4.84452, "lon": -74.05848}, {"name": "Chipaque", "lat": 4.4425, "lon": -74.04417}, {"name": "Choachí", "lat": 4.52897, "lon": -73.92273}, {"name": "Chocontá", "lat": 5.14468, "lon": -73.68578}, {"name": "Cogua", "lat": 5.06051, "lon": -73.97925}, {"name": "Cota", "lat": 4.80938, "lon": -74.098}, {"name": "Cucunubá", "lat": 5.24958, "lon": -73.7661}, {"name": "El Colegio", "lat": 4.56047, "lon": -74.42614}, {"name": "El Peñón", "lat": 5.25264, "lon": -74.29069}, {"name": "El Rosal", "lat": 4.85314, "lon": -74.25996}, {"name": "Facatativá", "lat": 4.81367, "lon": -74.35453}, {"name": "Fomeque", "lat": 4.52806, "lon": -73.78879}, {"name": "Fosca", "lat": 4.33916, "lon": -73.93852}, {"name": "Funza", "lat": 4.71638, "lon": -74.21195}, {"name": "Fúquene", "lat": 5.41988, "lon": -73.76997}, {"name": "Fusagasugá", "lat": 4.33646, "lon": -74.36378}, {"name": "Gachala", "lat": 4.66667, "lon": -73.5}, {"name": "Gachancipá", "lat": 4.99111, "lon": -73.87154}, {"name": "Gachetá", "lat": 4.87104, "lon": -73.6173}, {"name": "Gama", "lat": 4.76288, "lon": -73.61091}, {"name": "Girardot", "lat": 4.31802, "lon": -74.83504}, {"name": "Granada", "lat": 5.06667, "lon": -74.56667}, {"name": "Guachetá", "lat": 5.38425, "lon": -73.68617}, {"name": "Guaduas", "lat": 5.0743, "lon": -74.59854}, {"name": "Guasca", "lat": 4.86601, "lon": -73.87748}, {"name": "Guataquí", "lat": 4.51573, "lon": -74.78935}, {"name": "Guatavita", "lat": 4.93658, "lon": -73.83314}, {"name": "Guayabal de Siquima", "lat": 4.87881, "lon": -74.48306}, {"name": "Guayabetal", "lat": 4.21472, "lon": -73.81719}, {"name": "Gutiérrez", "lat": 4.18486, "lon": -74.01168}, {"name": "Jerusalén", "lat": 4.56309, "lon": -74.69519}, {"name": "Junín", "lat": 4.70725, "lon": -73.69549}, {"name": "La Calera", "lat": 4.68678, "lon": -73.9359}, {"name": "La Mesa", "lat": 4.65374, "lon": -74.47316}, {"name": "La Palma", "lat": 5.31732, "lon": -74.43003}, {"name": "La Peña", "lat": 5.19847, "lon": -74.39368}, {"name": "La Vega", "lat": 4.97382, "lon": -74.34476}, {"name": "Lenguazaque", "lat": 5.30711, "lon": -73.71152}, {"name": "Macheta", "lat": 5.08333, "lon": -73.61667}, {"name": "Madrid", "lat": 4.75564, "lon": -74.27708}, {"name": "Manta", "lat": 4.9572, "lon": -73.58583}, {"name": "Medina", "lat": 4.51005, "lon": -73.34982}, {"name": "Mosquera", "lat": 4.68935, "lon": -74.23599}, {"name": "Nariño", "lat": 4.39913, "lon": -74.82239}, {"name": "Nemocón", "lat": 5.06767, "lon": -73.87769}, {"name": "Nilo", "lat": 4.30604, "lon": -74.62083}, {"name": "Nimaima", "lat": 5.12614, "lon": -74.38495}, {"name": "Nocaima", "lat": 5.06696, "lon": -74.38439}, {"name": "Pacho", "lat": 5.13055555, "lon": -74.15833333}, {"name": "Paime", "lat": 5.37054, "lon": -74.15219}, {"name": "Pandi", "lat": 4.18032, "lon": -74.47099}, {"name": "Paratebueno", "lat": 4.37575, "lon": -73.21547}, {"name": "Pasca", "lat": 4.30722, "lon": -74.30056}, {"name": "Puerto Salgar", "lat": 5.61892, "lon": -74.58483}, {"name": "Pulí", "lat": 4.68116, "lon": -74.71406}, {"name": "Quebradanegra", "lat": 5.08262, "lon": -74.52117}, {"name": "Quetame", "lat": 4.33234, "lon": -73.86141}, {"name": "Quipile", "lat": 4.74517, "lon": -74.53378}, {"name": "Ricaurte", "lat": 4.28075, "lon": -74.76469}, {"name": "San Antonio del Tequendama", "lat": 4.61667, "lon": -74.35}, {"name": "San Bernardo", "lat": 4.12956, "lon": -74.35903}, {"name": "San Cayetano", "lat": 5.31693, "lon": -74.07141}, {"name": "San Francisco", "lat": 4.96335, "lon": -74.26613}, {"name": "San Juan de Río Seco", "lat": 4.83077, "lon": -74.68248}, {"name": "Sasaima", "lat": 4.96705, "lon": -74.43512}, {"name": "Sesquilé", "lat": 5.04463, "lon": -73.79724}, {"name": "Sibaté", "lat": 4.49154, "lon": -74.25957}, {"name": "Silvania", "lat": 4.40367, "lon": -74.3867}, {"name": "Simijaca", "lat": 5.50415, "lon": -73.86944}, {"name": "Soacha", "lat": 4.57937, "lon": -74.21682}, {"name": "Sopó", "lat": 4.9075, "lon": -73.9384}, {"name": "Subachoque", "lat": 4.92614, "lon": -74.17299}, {"name": "Suesca", "lat": 5.10289, "lon": -73.79845}, {"name": "Supatá", "lat": 5.06097, "lon": -74.23721}, {"name": "Susa", "lat": 5.427, "lon": -73.84786}, {"name": "Sutatausa", "lat": 5.24779, "lon": -73.85238}, {"name": "Tabio", "lat": 4.91726, "lon": -74.09364}, {"name": "Tausa", "lat": 5.19903, "lon": -73.89128}, {"name": "Tena", "lat": 4.66001, "lon": -74.39258}, {"name": "Tenjo", "lat": 4.8727, "lon": -74.14435}, {"name": "Tibacuy", "lat": 4.30606, "lon": -74.51639}, {"name": "Tibirita", "lat": 5.05227, "lon": -73.50459}, {"name": "Tocaima", "lat": 4.46073, "lon": -74.65722}, {"name": "Tocancipá", "lat": 4.96531, "lon": -73.91301}, {"name": "Topaipí", "lat": 5.33457, "lon": -74.30292}, {"name": "Ubalá", "lat": 4.74778, "lon": -72.53694}, {"name": "Ubaque", "lat": 4.48667, "lon": -73.93748}, {"name": "Une", "lat": 4.30691, "lon": -74.07104}, {"name": "Útica", "lat": 5.16977, "lon": -74.50134}, {"name": "Venecia", "lat": 4.08808, "lon": -74.47746}, {"name": "Vergara", "lat": 5.136, "lon": -74.31539}, {"name": "Vianí", "lat": 4.89579, "lon": -74.55398}, {"name": "Villa de San Diego de Ubate", "lat": 5.31544, "lon": -73.82045}, {"name": "Villagómez", "lat": 5.27372, "lon": -74.19614}, {"name": "Villapinzón", "lat": 5.21617, "lon": -73.5949}, {"name": "Villeta", "lat": 5.00008, "lon": -74.50498}, {"name": "Viotá", "lat": 4.43713, "lon": -74.52157}, {"name": "Yacopí", "lat": 5.45948, "lon": -74.33823}, {"name": "Zipacón", "lat": 4.75881, "lon": -74.38017}, {"name": "Zipaquirá", "lat": 5.02208, "lon": -74.00481}, {"name": "Barranco Minas", "lat": 3.09899, "lon": -69.58297}, {"name": "Cacahual", "lat": 3.32533, "lon": -67.62397}, {"name": "Inírida", "lat": 3.86528, "lon": -67.92389}, {"name": "La Guadalupe", "lat": 1.39579, "lon": -67.0015}, {"name": "Mapiripana", "lat": 2.81003, "lon": -70.28568}, {"name": "Morichal", "lat": 2.4298, "lon": -69.83284}, {"name": "Pana Pana", "lat": 1.96249, "lon": -69.126}, {"name": "Puerto Colombia", "lat": 2.43903, "lon": -68.16419}, {"name": "San Felipe", "lat": 2.14321, "lon": -67.34122}, {"name": "Calamar", "lat": 1.9596, "lon": -72.65315}, {"name": "El Retorno", "lat": 2.33022, "lon": -72.62765}, {"name": "Miraflores", "lat": 1.33667, "lon": -71.95111}, {"name": "San José del Guaviare", "lat": 2.57286, "lon": -72.64591}, {"name": "Acevedo", "lat": 1.83611111, "lon": -75.855}, {"name": "Aipe", "lat": 3.22194444, "lon": -75.2375}, {"name": "Algeciras", "lat": 2.52194444, "lon": -75.31444444}, {"name": "Altamira", "lat": 2.06333333, "lon": -75.78777778}, {"name": "Baraya", "lat": 3.15305556, "lon": -75.0525}, {"name": "Campoalegre", "lat": 2.68666667, "lon": -75.32555556}, {"name": "Colombia", "lat": 3.375, "lon": -74.80194444}, {"name": "El Agrado", "lat": 2.25833056, "lon": -75.7725}, {"name": "Elias", "lat": 2.01361111, "lon": -75.93972222}, {"name": "Garzón", "lat": 2.19611111, "lon": -75.62916667}, {"name": "Gigante", "lat": 2.38666944, "lon": -75.5461}, {"name": "Guadalupe", "lat": 2.025, "lon": -75.75638889}, {"name": "Hobo", "lat": 2.5825, "lon": -75.45111111}, {"name": "Iquira", "lat": 2.64833333, "lon": -75.63638889}, {"name": "Isnos", "lat": 1.92888889, "lon": -76.21583333}, {"name": "La Argentina", "lat": 2.19755555, "lon": -75.98888888}, {"name": "La Plata", "lat": 2.39, "lon": -75.89194444}, {"name": "Nataga", "lat": 2.54388889, "lon": -75.80861111}, {"name": "Neiva", "lat": 2.9275, "lon": -75.2875}, {"name": "Oporapa", "lat": 2.02305556, "lon": -75.99527778}, {"name": "Paicol", "lat": 2.44972222, "lon": -75.77388889}, {"name": "Palermo", "lat": 2.88833333, "lon": -75.43388889}, {"name": "Palestina", "lat": 1.7225, "lon": -76.13055556}, {"name": "Pital", "lat": 2.26638889, "lon": -75.80444444}, {"name": "Pitalito", "lat": 1.85388889, "lon": -76.05138889}, {"name": "Rivera", "lat": 2.77722222, "lon": -75.25638889}, {"name": "Saladoblanco", "lat": 1.99333333, "lon": -76.04527778}, {"name": "San Agustín", "lat": 1.87916667, "lon": -76.26833333}, {"name": "Santa María", "lat": 2.93777778, "lon": -75.58694444}, {"name": "Suaza", "lat": 1.975, "lon": -75.79555556}, {"name": "Tarqui", "lat": 2.11055556, "lon": -75.82305556}, {"name": "Tello", "lat": 3.06666667, "lon": -75.13861111}, {"name": "Teruel", "lat": 2.74055556, "lon": -75.56833333}, {"name": "Tesalia", "lat": 2.48472222, "lon": -75.73}, {"name": "Timana", "lat": 1.97136, "lon": -75.93123}, {"name": "Villavieja", "lat": 3.21888889, "lon": -75.21833333}, {"name": "Yaguará", "lat": 2.66361111, "lon": -75.5175}, {"name": "Albania", "lat": 11.16099, "lon": -72.59238}, {"name": "Barrancas", "lat": 10.9718, "lon": -72.69115}, {"name": "Dibulla", "lat": 11.27251, "lon": -73.30911}, {"name": "Distracción", "lat": 10.89784, "lon": -72.88666}, {"name": "El Molino", "lat": 10.65296, "lon": -72.92461}, {"name": "Fonseca", "lat": 10.82966, "lon": -72.79778}, {"name": "Hatonuevo", "lat": 11.0694, "lon": -72.7669}, {"name": "La Jagua del Pilar", "lat": 10.51061, "lon": -73.07178}, {"name": "Maicao", "lat": 11.37837, "lon": -72.2395}, {"name": "Manaure", "lat": 11.77505, "lon": -72.44447}, {"name": "Riohacha", "lat": 11.54444, "lon": -72.90722}, {"name": "San Juan del Cesar", "lat": 10.77107, "lon": -73.00314}, {"name": "Uribia", "lat": 12.02638, "lon": -71.74887}, {"name": "Urumita", "lat": 10.55894, "lon": -73.01232}, {"name": "Villanueva", "lat": 10.58333, "lon": -72.96077}, {"name": "Algarrobo", "lat": 10.18553, "lon": -74.06158}, {"name": "Aracataca", "lat": 10.59181, "lon": -74.18983}, {"name": "Ariguaní", "lat": 9.89383, "lon": -74.13583}, {"name": "Cerro de San Antonio", "lat": 10.32585, "lon": -74.86933}, {"name": "Chivolo", "lat": 10.02638888, "lon": -74.62138888}, {"name": "Ciénaga", "lat": 10.83333, "lon": -74.08333}, {"name": "Concordia", "lat": 9.83545, "lon": -74.45548}, {"name": "El Banco", "lat": 9.00114, "lon": -73.97581}, {"name": "El Piñon", "lat": 10.33333, "lon": -74.66667}, {"name": "El Retén", "lat": 10.61135, "lon": -74.26824}, {"name": "Fundación", "lat": 10.52066, "lon": -74.18504}, {"name": "Guamal", "lat": 9.14334, "lon": -74.22384}, {"name": "Nueva Granada", "lat": 9.80168, "lon": -74.39304}, {"name": "Pedraza", "lat": 10.18739, "lon": -74.91504}, {"name": "Pijiño del Carmen", "lat": 9.32908, "lon": -74.45302}, {"name": "Pivijay", "lat": 10.46167, "lon": -74.61621}, {"name": "Plato", "lat": 9.77267, "lon": -74.74548}, {"name": "Puebloviejo", "lat": 10.84239, "lon": -74.38538}, {"name": "Remolino", "lat": 10.65048, "lon": -74.58442}, {"name": "Sabanas de San Angel", "lat": 10.11072, "lon": -74.26007}, {"name": "Salamina", "lat": 10.49027, "lon": -74.79463}, {"name": "San Sebastián de Buenavista", "lat": 9.23916666, "lon": -74.35194444}, {"name": "San Zenón", "lat": 9.32686, "lon": -74.32914}, {"name": "Santa Ana", "lat": 9.51484, "lon": -74.3433}, {"name": "Santa Bárbara de Pinto", "lat": 9.52107, "lon": -74.64912}, {"name": "Santa Marta", "lat": 11.24348, "lon": -74.20835}, {"name": "Sitionuevo", "lat": 10.77737, "lon": -74.72049}, {"name": "Tenerife", "lat": 9.93201, "lon": -74.73465}, {"name": "Zapayán", "lat": 10.11846, "lon": -74.69143}, {"name": "Zona Bananera", "lat": 10.76417, "lon": -74.15722}, {"name": "Acacías", "lat": 3.98695, "lon": -73.75797}, {"name": "Barranca de Upía", "lat": 4.56963, "lon": -72.96676}, {"name": "Cabuyaro", "lat": 4.2817, "lon": -72.79399}, {"name": "Castilla la Nueva", "lat": 3.82722, "lon": -73.68831}, {"name": "Cubarral", "lat": 3.79536, "lon": -73.84063}, {"name": "Cumaral", "lat": 4.23814, "lon": -73.34101}, {"name": "El Calvario", "lat": 4.35426, "lon": -73.74431}, {"name": "El Castillo", "lat": 3.56363, "lon": -73.79488}, {"name": "El Dorado", "lat": 3.73916777, "lon": -73.83527888}, {"name": "Fuente de Oro", "lat": 3.46263, "lon": -73.62162}, {"name": "Granada", "lat": 3.54625, "lon": -73.70687}, {"name": "Guamal", "lat": 3.88043, "lon": -73.76566}, {"name": "La Macarena", "lat": 2.00702, "lon": -74.0732}, {"name": "Lejanías", "lat": 3.52762, "lon": -74.02335}, {"name": "Mapiripán", "lat": 2.89115, "lon": -72.13328}, {"name": "Mesetas", "lat": 3.38463, "lon": -74.04424}, {"name": "Puerto Concordia", "lat": 2.62206, "lon": -72.75724}, {"name": "Puerto Gaitán", "lat": 4.31328, "lon": -72.08157}, {"name": "Puerto Lleras", "lat": 3.21794, "lon": -73.23215}, {"name": "Puerto López", "lat": 4.04426, "lon": -72.65731}, {"name": "Puerto Rico", "lat": 2.93833, "lon": -73.20833}, {"name": "Restrepo", "lat": 4.25833, "lon": -73.56142}, {"name": "San Carlos de Guaroa", "lat": 3.71161, "lon": -73.24344}, {"name": "San Juan de Arama", "lat": 3.29034, "lon": -73.82065}, {"name": "San Juanito", "lat": 4.45861111, "lon": -73.67555666}, {"name": "San Martín", "lat": 3.50819, "lon": -73.03975}, {"name": "Uribe", "lat": 3.24083333, "lon": -74.35361111}, {"name": "Villavicencio", "lat": 4.07424, "lon": -73.4915}, {"name": "Vistahermosa", "lat": 3.12428, "lon": -73.75156}, {"name": "Aldana", "lat": 0.88283, "lon": -77.70103}, {"name": "Ancuya", "lat": 1.2633, "lon": -77.51376}, {"name": "Arboleda", "lat": 1.4983, "lon": -77.13613}, {"name": "Barbacoas", "lat": 1.67154, "lon": -78.13978}, {"name": "Belén", "lat": 1.59477, "lon": -77.05408}, {"name": "Buesaco", "lat": 1.38364, "lon": -77.15622}, {"name": "Chachagüí", "lat": 1.35943, "lon": -77.28367}, {"name": "Colón", "lat": 1.6285, "lon": -77.02927}, {"name": "Consaca", "lat": 1.20841, "lon": -77.46323}, {"name": "Contadero", "lat": 0.93072, "lon": -77.53333}, {"name": "Córdoba", "lat": 0.85362, "lon": -77.51817}, {"name": "Cuaspud", "lat": 0.8757, "lon": -77.7364}, {"name": "Cumbal", "lat": 0.90875, "lon": -77.79145}, {"name": "Cumbitara", "lat": 1.64786, "lon": -77.57819}, {"name": "El Charco", "lat": 2.47926, "lon": -78.10972}, {"name": "El Peñol", "lat": 1.45365, "lon": -77.44017}, {"name": "El Rosario", "lat": 1.84593, "lon": -77.4062}, {"name": "El Tablón de Gómez", "lat": 1.42717, "lon": -77.09693}, {"name": "El Tambo", "lat": 1.43049, "lon": -77.38326}, {"name": "Francisco Pizarro", "lat": 2.0406, "lon": -78.65877}, {"name": "Funes", "lat": 1.00075, "lon": -77.44918}, {"name": "Guachucal", "lat": 0.96093, "lon": -77.73161}, {"name": "Guaitarilla", "lat": 1.13103, "lon": -77.54815}, {"name": "Gualmatán", "lat": 0.91992, "lon": -77.56738}, {"name": "Iles", "lat": 0.9704, "lon": -77.52146}, {"name": "Imués", "lat": 1.05516, "lon": -77.49669}, {"name": "Ipiales", "lat": 0.82501, "lon": -77.63966}, {"name": "La Cruz", "lat": 1.60221, "lon": -76.9713}, {"name": "La Florida", "lat": 1.35693, "lon": -77.41271}, {"name": "La Llanada", "lat": 1.4731, "lon": -77.58024}, {"name": "La Tola", "lat": 2.39949, "lon": -78.18923}, {"name": "La Unión", "lat": 1.6045, "lon": -77.13152}, {"name": "Leiva", "lat": 1.93497, "lon": -77.30634}, {"name": "Linares", "lat": 1.35078, "lon": -77.52339}, {"name": "Los Andes", "lat": 1.49474, "lon": -77.52136}, {"name": "Magüí Payán", "lat": 1.76645, "lon": -78.18326}, {"name": "Mallama", "lat": 1.14109, "lon": -77.86479}, {"name": "Mosquera", "lat": 2.49139, "lon": -78.44307}, {"name": "Nariño", "lat": 1.28995, "lon": -77.35721}, {"name": "Olaya Herrera", "lat": 1.24803, "lon": -77.49085}, {"name": "Ospina", "lat": 1.02962, "lon": -77.55252}, {"name": "Pasto", "lat": 1.21467, "lon": -77.27865}, {"name": "Policarpa", "lat": 1.62843, "lon": -77.45956}, {"name": "Potosí", "lat": 0.80739, "lon": -77.57216}, {"name": "Providencia", "lat": 1.23888999, "lon": -77.59755555}, {"name": "Puerres", "lat": 1.19374, "lon": -77.26661}, {"name": "Pupiales", "lat": 0.87136, "lon": -77.64027}, {"name": "Ricaurte", "lat": 1.21474, "lon": -77.99801}, {"name": "Roberto Payán", "lat": 1.91757, "lon": -78.38191}, {"name": "Samaniego", "lat": 1.33849, "lon": -77.5957}, {"name": "San Bernardo", "lat": 1.51525, "lon": -77.04679}, {"name": "San José de Albán", "lat": 1.47388999, "lon": -77.08083333}, {"name": "San Lorenzo", "lat": 1.55731, "lon": -77.24599}, {"name": "San Pablo", "lat": 1.6725, "lon": -77.01389}, {"name": "San Pedro de Cartago", "lat": 1.55151, "lon": -77.11948}, {"name": "Sandoná", "lat": 1.28626, "lon": -77.46921}, {"name": "Santa Bárbara", "lat": 2.30185, "lon": -77.91487}, {"name": "Santacruz", "lat": 1.5209, "lon": -77.26206}, {"name": "Sapuyes", "lat": 1.03728, "lon": -77.62094}, {"name": "Taminango", "lat": 1.57032, "lon": -77.28043}, {"name": "Tangua", "lat": 1.09189, "lon": -77.38645}, {"name": "Tumaco", "lat": 1.79112, "lon": -78.79275}, {"name": "Túquerres", "lat": 1.08647, "lon": -77.61858}, {"name": "Yacuanquer", "lat": 1.11577, "lon": -77.40169}, {"name": "Abrego", "lat": 8.0, "lon": -73.2}, {"name": "Arboledas", "lat": 7.63494, "lon": -72.8605}, {"name": "Bochalema", "lat": 7.60217, "lon": -72.68839}, {"name": "Bucarasica", "lat": 8.04096, "lon": -72.86538}, {"name": "Cachirá", "lat": 7.75, "lon": -73.16667}, {"name": "Cácota", "lat": 7.26787, "lon": -72.64197}, {"name": "Chinácota", "lat": 7.60731, "lon": -72.60108}, {"name": "Chitagá", "lat": 7.13781, "lon": -72.66456}, {"name": "Convención", "lat": 8.82242, "lon": -73.2285}, {"name": "Cúcuta", "lat": 7.89391, "lon": -72.50782}, {"name": "Cucutilla", "lat": 7.53941, "lon": -72.77238}, {"name": "Durania", "lat": 7.71307, "lon": -72.65759}, {"name": "El Carmen", "lat": 8.51064, "lon": -73.44776}, {"name": "El Tarra", "lat": 8.57562, "lon": -73.09489}, {"name": "El Zulia", "lat": 7.93248, "lon": -72.60125}, {"name": "Gramalote", "lat": 7.88752, "lon": -72.79749}, {"name": "Hacarí", "lat": 8.32333, "lon": -73.14889}, {"name": "Herrán", "lat": 7.50611, "lon": -72.48332}, {"name": "La Esperanza", "lat": 8.21043, "lon": -72.46399}, {"name": "La Playa", "lat": 8.25833, "lon": -73.19222}, {"name": "Labateca", "lat": 7.24558, "lon": -72.55286}, {"name": "Los Patios", "lat": 7.83793, "lon": -72.5037}, {"name": "Lourdes", "lat": 7.96774, "lon": -72.84519}, {"name": "Mutiscua", "lat": 7.2981, "lon": -72.79879}, {"name": "Ocaña", "lat": 8.23773, "lon": -73.35604}, {"name": "Pamplona", "lat": 7.37565, "lon": -72.64795}, {"name": "Pamplonita", "lat": 7.45814, "lon": -72.65965}, {"name": "Puerto Santander", "lat": 8.36361, "lon": -72.4063}, {"name": "Ragonvalia", "lat": 7.57749, "lon": -72.47574}, {"name": "Salazar", "lat": 7.78249, "lon": -72.85741}, {"name": "San Calixto", "lat": 8.4021, "lon": -73.20737}, {"name": "San Cayetano", "lat": 7.84771, "lon": -72.61014}, {"name": "Santiago", "lat": 7.8693, "lon": -72.73753}, {"name": "Sardinata", "lat": 8.08289, "lon": -72.80071}, {"name": "Silos", "lat": 7.20524, "lon": -72.75639}, {"name": "Teorama", "lat": 8.43527888, "lon": -73.28638999}, {"name": "Tibú", "lat": 8.63895, "lon": -72.73583}, {"name": "Toledo", "lat": 7.30984, "lon": -72.48295}, {"name": "Villa Caro", "lat": 7.91472222, "lon": -72.97194444}, {"name": "Villa del Rosario", "lat": 7.75816, "lon": -72.48182}, {"name": "Colón", "lat": 1.19034, "lon": -76.97369}, {"name": "Mocoa", "lat": 1.15284, "lon": -76.65208}, {"name": "Orito", "lat": 0.66749, "lon": -76.87297}, {"name": "Puerto Asís", "lat": 0.50514, "lon": -76.49571}, {"name": "Puerto Caicedo", "lat": 0.68555555, "lon": -76.60444444}, {"name": "Puerto Guzmán", "lat": 0.97028, "lon": -76.58583}, {"name": "Puerto Leguízamo", "lat": -0.19337, "lon": -74.78189}, {"name": "San Francisco", "lat": 1.17644, "lon": -76.87838}, {"name": "San Miguel", "lat": 0.34361111, "lon": -76.91083333}, {"name": "Santiago", "lat": 1.14844, "lon": -77.0045}, {"name": "Sibundoy", "lat": 1.20296, "lon": -76.92275}, {"name": "Valle del Guamuez", "lat": 0.4525, "lon": -76.91917}, {"name": "Villagarzón", "lat": 0.89663, "lon": -76.72794}, {"name": "Armenia", "lat": 4.53307, "lon": -75.70438}, {"name": "Buenavista", "lat": 4.35969, "lon": -75.73888}, {"name": "Calarca", "lat": 4.5, "lon": -75.63333}, {"name": "Circasia", "lat": 4.5994, "lon": -75.68536}, {"name": "Córdoba", "lat": 4.38055, "lon": -75.66685}, {"name": "Filandia", "lat": 4.67525, "lon": -75.67142}, {"name": "Génova", "lat": 4.22743, "lon": -75.7548}, {"name": "La Tebaida", "lat": 4.43353, "lon": -75.81476}, {"name": "Montenegro", "lat": 4.52676, "lon": -75.82265}, {"name": "Pijao", "lat": 4.3335, "lon": -75.70463}, {"name": "Quimbaya", "lat": 4.59342, "lon": -75.83758}, {"name": "Salento", "lat": 4.63643, "lon": -75.5674}, {"name": "Apía", "lat": 5.10658, "lon": -75.94244}, {"name": "Balboa", "lat": 4.92284, "lon": -75.9403}, {"name": "Belén de Umbría", "lat": 5.20087, "lon": -75.86865}, {"name": "Dosquebradas", "lat": 4.83916, "lon": -75.66727}, {"name": "Guática", "lat": 5.31569, "lon": -75.79826}, {"name": "La Celia", "lat": 5.00332, "lon": -76.00355}, {"name": "La Virginia", "lat": 4.89972, "lon": -75.8825}, {"name": "Marsella", "lat": 4.95238, "lon": -75.75265}, {"name": "Mistrató", "lat": 5.29622, "lon": -75.8839}, {"name": "Pereira", "lat": 4.76896, "lon": -75.72222}, {"name": "Pueblo Rico", "lat": 5.29453, "lon": -76.06702}, {"name": "Quinchía", "lat": 5.33957, "lon": -75.73018}, {"name": "Santa Rosa de Cabal", "lat": 4.86806, "lon": -75.62139}, {"name": "Santuario", "lat": 5.05321, "lon": -75.9906}, {"name": "Providencia", "lat": 12.5823169, "lon": -81.6926141}, {"name": "San Andrés", "lat": 12.5375979, "lon": -81.7204155}, {"name": "Aguada", "lat": 6.16019, "lon": -73.52747}, {"name": "Albania", "lat": 5.75894, "lon": -73.91376}, {"name": "Aratoca", "lat": 6.69432, "lon": -73.01868}, {"name": "Barbosa", "lat": 5.93168, "lon": -73.61507}, {"name": "Barichara", "lat": 6.63572, "lon": -73.22282}, {"name": "Barrancabermeja", "lat": 7.06528, "lon": -73.85472}, {"name": "Betulia", "lat": 6.90069, "lon": -73.28347}, {"name": "Bolívar", "lat": 5.9893, "lon": -73.77058}, {"name": "Bucaramanga", "lat": 7.12539, "lon": -73.1198}, {"name": "Cabrera", "lat": 6.56443, "lon": -73.26768}, {"name": "California", "lat": 7.3434, "lon": -72.95815}, {"name": "Capitanejo", "lat": 6.52881, "lon": -72.69595}, {"name": "Carcasí", "lat": 6.62711, "lon": -72.62625}, {"name": "Cepitá", "lat": 6.75427, "lon": -72.9744}, {"name": "Cerrito", "lat": 6.84315, "lon": -72.69404}, {"name": "Charalá", "lat": 6.17513, "lon": -73.17587}, {"name": "Charta", "lat": 7.28025, "lon": -72.96782}, {"name": "Chima", "lat": 6.36289, "lon": -73.42534}, {"name": "Chipatá", "lat": 6.06196, "lon": -73.63718}, {"name": "Cimitarra", "lat": 6.31419, "lon": -73.94968}, {"name": "Concepción", "lat": 6.76619, "lon": -72.694}, {"name": "Confines", "lat": 6.34875, "lon": -73.2099}, {"name": "Contratación", "lat": 6.29005, "lon": -73.47354}, {"name": "Coromoro", "lat": 6.29461, "lon": -73.04022}, {"name": "Curití", "lat": 6.60519, "lon": -73.06809}, {"name": "El Carmen de Chucurí", "lat": 6.69736, "lon": -73.51117}, {"name": "El Guacamayo", "lat": 6.24856, "lon": -73.52957}, {"name": "El Peñón", "lat": 6.099, "lon": -73.92835}, {"name": "El Playón", "lat": 7.47131, "lon": -73.2031}, {"name": "Encino", "lat": 6.13735, "lon": -73.09847}, {"name": "Enciso", "lat": 6.64651, "lon": -72.70709}, {"name": "Florián", "lat": 5.80487, "lon": -73.97029}, {"name": "Floridablanca", "lat": 7.06315, "lon": -73.08586}, {"name": "Galán", "lat": 6.66271, "lon": -73.34233}, {"name": "Gambita", "lat": 5.90273, "lon": -73.36788}, {"name": "Girón", "lat": 7.0682, "lon": -73.16981}, {"name": "Guaca", "lat": 6.87621, "lon": -72.85594}, {"name": "Guadalupe", "lat": 6.2464, "lon": -73.41833}, {"name": "Guapotá", "lat": 6.30697, "lon": -73.32848}, {"name": "Guavatá", "lat": 5.95502, "lon": -73.70018}, {"name": "Güepsa", "lat": 6.02505, "lon": -73.57313}, {"name": "Hato", "lat": 6.56113, "lon": -73.35895}, {"name": "Jesús María", "lat": 5.87715, "lon": -73.78097}, {"name": "Jordán", "lat": 6.69857, "lon": -73.10966}, {"name": "La Belleza", "lat": 5.86371, "lon": -73.96167}, {"name": "La Paz", "lat": 6.17848, "lon": -73.58948}, {"name": "Landázuri", "lat": 6.21826, "lon": -73.81121}, {"name": "Lebrija", "lat": 7.11317, "lon": -73.2178}, {"name": "Los Santos", "lat": 6.79734, "lon": -73.1249}, {"name": "Macaravita", "lat": 6.50567, "lon": -72.59299}, {"name": "Málaga", "lat": 6.69903, "lon": -72.73233}, {"name": "Matanza", "lat": 7.35605, "lon": -73.05303}, {"name": "Mogotes", "lat": 6.47559, "lon": -72.97046}, {"name": "Molagavita", "lat": 6.67315, "lon": -72.80875}, {"name": "Ocamonte", "lat": 6.34001, "lon": -73.12205}, {"name": "Oiba", "lat": 6.26387, "lon": -73.29876}, {"name": "Onzaga", "lat": 6.34434, "lon": -72.81726}, {"name": "Palmar", "lat": 6.4974, "lon": -73.3074}, {"name": "Palmas del Socorro", "lat": 6.40756, "lon": -73.28824}, {"name": "Páramo", "lat": 6.4375, "lon": -73.18027}, {"name": "Piedecuesta", "lat": 6.97443, "lon": -73.02284}, {"name": "Pinchote", "lat": 6.53226, "lon": -73.17309}, {"name": "Puente Nacional", "lat": 5.87739, "lon": -73.6781}, {"name": "Puerto Parra", "lat": 6.65149, "lon": -74.05734}, {"name": "Puerto Wilches", "lat": 7.34828, "lon": -73.89601}, {"name": "Rionegro", "lat": 7.5, "lon": -73.33333}, {"name": "Sabana de Torres", "lat": 7.3915, "lon": -73.49574}, {"name": "San Andrés", "lat": 6.81148, "lon": -72.84929}, {"name": "San Benito", "lat": 6.10206, "lon": -73.53753}, {"name": "San Gil", "lat": 6.55952, "lon": -73.13637}, {"name": "San Joaquín", "lat": 6.46554, "lon": -72.84852}, {"name": "San José de Miranda", "lat": 6.63051, "lon": -72.73155}, {"name": "San Miguel", "lat": 6.57583, "lon": -72.64591}, {"name": "San Vicente de Chucurí", "lat": 6.881, "lon": -73.40977}, {"name": "Santa Bárbara", "lat": 6.99022, "lon": -72.907}, {"name": "Santa Helena Del Opón", "lat": 6.33916777, "lon": -73.61666777}, {"name": "Simacota", "lat": 6.4429, "lon": -73.33688}, {"name": "Socorro", "lat": 6.45647, "lon": -73.25502}, {"name": "Suaita", "lat": 6.08221, "lon": -73.37008}, {"name": "Sucre", "lat": 5.96995, "lon": -73.96629}, {"name": "Suratá", "lat": 7.36633, "lon": -72.98361}, {"name": "Tona", "lat": 7.15727, "lon": -72.96559}, {"name": "Valle de San José", "lat": 6.41984, "lon": -73.12946}, {"name": "Vélez", "lat": 6.23274, "lon": -73.72582}, {"name": "Vetas", "lat": 7.30911, "lon": -72.87122}, {"name": "Villanueva", "lat": 6.67169, "lon": -73.17421}, {"name": "Zapatoca", "lat": 6.81532, "lon": -73.26768}, {"name": "Buenavista", "lat": 9.31972222, "lon": -74.97166777}, {"name": "Caimito", "lat": 8.78834, "lon": -75.13583}, {"name": "Chalán", "lat": 9.54765, "lon": -75.31128}, {"name": "Coloso", "lat": 9.51176, "lon": -75.36233}, {"name": "Corozal", "lat": 9.31847, "lon": -75.2933}, {"name": "Coveñas", "lat": 9.40254, "lon": -75.68029}, {"name": "El Roble", "lat": 9.10193, "lon": -75.19508}, {"name": "Galeras", "lat": 9.16095, "lon": -75.04811}, {"name": "Guaranda", "lat": 8.46746, "lon": -74.53617}, {"name": "La Unión", "lat": 8.84965, "lon": -75.27942}, {"name": "Los Palmitos", "lat": 9.37899, "lon": -75.26769}, {"name": "Majagual", "lat": 8.535, "lon": -74.71499}, {"name": "Morroa", "lat": 9.33348, "lon": -75.30542}, {"name": "Ovejas", "lat": 9.54083, "lon": -75.18333}, {"name": "Palmito", "lat": 9.33667, "lon": -75.56333}, {"name": "Sampués", "lat": 9.18361, "lon": -75.38167}, {"name": "San Benito Abad", "lat": 8.78833, "lon": -74.95666}, {"name": "San Juan de Betulia", "lat": 9.27345, "lon": -75.24103}, {"name": "San Luis de Sincé", "lat": 9.24391, "lon": -75.14675}, {"name": "San Marcos", "lat": 8.58333, "lon": -75.16667}, {"name": "San Onofre", "lat": 9.73586, "lon": -75.52626}, {"name": "San Pedro", "lat": 9.3956, "lon": -75.06476}, {"name": "Santiago de Tolú", "lat": 9.52392, "lon": -75.58139}, {"name": "Sincelejo", "lat": 9.30472, "lon": -75.39778}, {"name": "Sucre", "lat": 8.81136, "lon": -74.72084}, {"name": "Tolú Viejo", "lat": 9.45082, "lon": -75.43864}, {"name": "Alpujarra", "lat": 3.39222, "lon": -74.93271}, {"name": "Alvarado", "lat": 4.58826, "lon": -74.9781}, {"name": "Ambalema", "lat": 4.78405, "lon": -74.76268}, {"name": "Anzoátegui", "lat": 4.62232, "lon": -75.18046}, {"name": "Armero", "lat": 5.03055666, "lon": -74.88444444}, {"name": "Ataco", "lat": 3.59147, "lon": -75.38178}, {"name": "Cajamarca", "lat": 4.41667, "lon": -75.5}, {"name": "Carmen de Apicalá", "lat": 4.14725, "lon": -74.72014}, {"name": "Casabianca", "lat": 5.07959, "lon": -75.12059}, {"name": "Chaparral", "lat": 3.75, "lon": -75.58333}, {"name": "Coello", "lat": 4.3733, "lon": -74.88655}, {"name": "Coyaima", "lat": 3.72781, "lon": -75.17397}, {"name": "Cunday", "lat": 4.00284, "lon": -74.69295}, {"name": "Dolores", "lat": 3.60534, "lon": -74.80585}, {"name": "Espinal", "lat": 4.14924, "lon": -74.88429}, {"name": "Falan", "lat": 5.12383, "lon": -74.95181}, {"name": "Flandes", "lat": 4.25, "lon": -74.83333}, {"name": "Fresno", "lat": 5.15264, "lon": -75.03624}, {"name": "Guamo", "lat": 4.07457, "lon": -74.97689}, {"name": "Herveo", "lat": 5.08004, "lon": -75.17556}, {"name": "Honda", "lat": 5.20856, "lon": -74.73584}, {"name": "Ibagué", "lat": 4.43889, "lon": -75.23222}, {"name": "Icononzo", "lat": 4.17698, "lon": -74.53254}, {"name": "Lérida", "lat": 4.86242, "lon": -74.90977}, {"name": "Líbano", "lat": 4.8356, "lon": -75.10834}, {"name": "Melgar", "lat": 4.20475, "lon": -74.64075}, {"name": "Murillo", "lat": 4.87393, "lon": -75.17151}, {"name": "Natagaima", "lat": 3.55212, "lon": -75.11345}, {"name": "Ortega", "lat": 3.94514, "lon": -75.27245}, {"name": "Palocabildo", "lat": 5.11705, "lon": -75.01732}, {"name": "Piedras", "lat": 4.5, "lon": -74.91667}, {"name": "Planadas", "lat": 3.10326, "lon": -75.8168}, {"name": "Prado", "lat": 3.73219, "lon": -74.86494}, {"name": "Purificación", "lat": 3.85871, "lon": -74.93129}, {"name": "Rioblanco", "lat": 3.5, "lon": -75.83333}, {"name": "Roncesvalles", "lat": 4.0108, "lon": -75.60493}, {"name": "Rovira", "lat": 4.21222, "lon": -75.3421}, {"name": "Saldaña", "lat": 3.92923, "lon": -75.01517}, {"name": "San Antonio", "lat": 3.95664, "lon": -75.5}, {"name": "San Luis", "lat": 4.16667, "lon": -75.08333}, {"name": "San Sebastián de Mariquita", "lat": 5.24269, "lon": -74.90772}, {"name": "Santa Isabel", "lat": 4.72626, "lon": -75.22391}, {"name": "Suárez", "lat": 4.04897, "lon": -74.81821}, {"name": "Valle de San Juan", "lat": 4.19869, "lon": -75.11733}, {"name": "Venadillo", "lat": 4.69177, "lon": -74.93669}, {"name": "Villahermosa", "lat": 4.96503, "lon": -75.1565}, {"name": "Villarrica", "lat": 3.83099, "lon": -74.65258}, {"name": "Alcalá", "lat": 4.67458, "lon": -75.77188}, {"name": "Andalucía", "lat": 4.14035, "lon": -76.14739}, {"name": "Ansermanuevo", "lat": 4.79722, "lon": -75.995}, {"name": "Argelia", "lat": 4.72904, "lon": -76.11637}, {"name": "Bolívar", "lat": 4.3771, "lon": -76.3487},