[{"name": "Fatu-Hiva", "lat": -10.4860474, "lon": -138.6918886}, {"name": "Hiva-Oa", "lat": -9.7263169, "lon": -139.3099888}, {"name": "Tahuata", "lat": -9.9573241, "lon": -139.1656347}, {"name": "Ua-Huka", "lat": -8.9096799, "lon": -139.6317197}, {"name": "Ua-Pou", "lat": -9.4089244, "lon": -140.1555377}]