[{"name": "Ituʻau", "lat": -14.3061643, "lon": -170.8069144}, {"name": "Maʻoputasi", "lat": -14.2521685, "lon": -170.7418767}, {"name": "Saʻole", "lat": -14.299957, "lon": -170.6176337}, {"name": "Sua", "lat": -14.2771088, "lon": -170.7144263}, {"name": "Vaifanua", "lat": -14.2557804, "lon": -170.7630181}, {"name": "Faleasao", "lat": -14.2038549, "lon": -169.5490737}, {"name": "Fitiuta", "lat": -14.2038634, "lon": -169.5169044}, {"name": "Ofu", "lat": -14.1713595, "lon": -169.7193912}, {"name": "Olosega", "lat": -14.1742227, "lon": -169.6398124}, {"name": "Tau", "lat": -14.2421501, "lon": -169.5510165}, {"name": "Lealataua", "lat": -14.3226152, "lon": -170.9084993}, {"name": "Leasina", "lat": -14.2958164, "lon": -170.8045932}, {"name": "Tualatai", "lat": -14.3792354, "lon": -170.8103312}, {"name": "Tualauta", "lat": -14.3587689, "lon": -170.7558332}]