[{"name": "Ituʻau", "lat": -14.3061643, "lon": -170.8069144, "country": "American Samoa"}, {"name": "Maʻoputasi", "lat": -14.2521685, "lon": -170.7418767, "country": "American Samoa"}, {"name": "Saʻole", "lat": -14.299957, "lon": -170.6176337, "country": "American Samoa"}, {"name": "Sua", "lat": -14.2771088, "lon": -170.7144263, "country": "American Samoa"}, {"name": "Vaifanua", "lat": -14.2557804, "lon": -170.7630181, "country": "American Samoa"}, {"name": "Faleasao", "lat": -14.2038549, "lon": -169.5490737, "country": "American Samoa"}, {"name": "Fitiuta", "lat": -14.2038634, "lon": -169.5169044, "country": "American Samoa"}, {"name": "Ofu", "lat": -14.1713595, "lon": -169.7193912, "country": "American Samoa"}, {"name": "Olosega", "lat": -14.1742227, "lon": -169.6398124, "country": "American Samoa"}, {"name": "Tau", "lat": -14.2421501, "lon": -169.5510165, "country": "American Samoa"}, {"name": "Lealataua", "lat": -14.3226152, "lon": -170.9084993, "country": "American Samoa"}, {"name": "Leasina", "lat": -14.2958164, "lon": -170.8045932, "country": "American Samoa"}, {"name": "Tualatai", "lat": -14.3792354, "lon": -170.8103312, "country": "American Samoa"}, {"name": "Tualauta", "lat": -14.3587689, "lon": -170.7558332, "country": "American Samoa"}]