[{"name": "Brasiléia", "lat": -11.01611, "lon": -68.74806, "country": "Brazil", "toast": "Saúde"}, {"name": "Cruzeiro do Sul", "lat": -7.62759, "lon": -72.67756, "country": "Brazil", "toast": "Saúde"}, {"name": "Feijó", "lat": -8.1654, "lon": -70.35486, "country": "Brazil", "toast": "Saúde"}, {"name": "Mâncio Lima", "lat": -7.61417, "lon": -72.89583, "country": "Brazil", "toast": "Saúde"}, {"name": "Manoel Urbano", "lat": -8.83889, "lon": -69.25972, "country": "Brazil", "toast": "Saúde"}, {"name": "Marechal Thaumaturgo", "lat": -8.94111, "lon": -72.79167, "country": "Brazil", "toast": "Saúde"}, {"name": "Plácido de Castro", "lat": -10.33528, "lon": -67.18556, "country": "Brazil", "toast": "Saúde"}, {"name": "Porto Walter", "lat": -8.26861, "lon": -72.74389, "country": "Brazil", "toast": "Saúde"}, {"name": "Rio Branco", "lat": -9.97472, "lon": -67.81, "country": "Brazil", "toast": "Saúde"}, {"name": "Sena Madureira", "lat": -9.06341, "lon": -68.67245, "country": "Brazil", "toast": "Saúde"}, {"name": "Senador Guiomard", "lat": -10.1497, "lon": -67.73741, "country": "Brazil", "toast": "Saúde"}, {"name": "Tarauacá", "lat": -8.16139, "lon": -70.76556, "country": "Brazil", "toast": "Saúde"}, {"name": "Benjamin Constant", "lat": -4.37555, "lon": -70.03179, "country": "Brazil", "toast": "Saúde"}, {"name": "Eirunepé", "lat": -6.66028, "lon": -69.87361, "country": "Brazil", "toast": "Saúde"}, {"name": "Black Diamond", "lat": 50.70011, "lon": -114.2353, "country": "Canada", "toast": "Cheers"}, {"name": "Fort Saskatchewan", "lat": 53.71684, "lon": -113.2187, "country": "Canada", "toast": "Cheers"}, {"name": "Manning", "lat": 56.91683, "lon": -117.61945, "country": "Canada", "toast": "Cheers"}, {"name": "Mannville", "lat": 53.33764, "lon": -111.1775, "country": "Canada", "toast": "Cheers"}, {"name": "Millet", "lat": 53.10013, "lon": -113.4687, "country": "Canada", "toast": "Cheers"}, {"name": "Raymond", "lat": 49.44998, "lon": -112.65185, "country": "Canada", "toast": "Cheers"}, {"name": "Two Hills", "lat": 53.71686, "lon": -111.75181, "country": "Canada", "toast": "Cheers"}, {"name": "Viking", "lat": 53.10014, "lon": -111.76844, "country": "Canada", "toast": "Cheers"}, {"name": "Aldergrove East", "lat": 49.05593, "lon": -122.42299, "country": "Canada", "toast": "Cheers"}, {"name": "Central Coast Regional", "lat": 52.16638, "lon": -127.00323, "country": "Canada", "toast": "Cheers"}, {"name": "Elkford", "lat": 50.05007, "lon": -114.8854, "country": "Canada", "toast": "Cheers"}, {"name": "Fraser Valley Regional", "lat": 49.58299, "lon": -121.83587, "country": "Canada", "toast": "Cheers"}, {"name": "Logan Lake", "lat": 50.49976, "lon": -120.80253, "country": "Canada", "toast": "Cheers"}, {"name": "Metro Vancouver Regional", "lat": 49.33296, "lon": -123.00264, "country": "Canada", "toast": "Cheers"}, {"name": "Okanagan", "lat": 50.36386, "lon": -119.34997, "country": "Canada", "toast": "Cheers"}, {"name": "Peace River Regional", "lat": 56.6665, "lon": -122.75302, "country": "Canada", "toast": "Cheers"}, {"name": "Peachland", "lat": 49.76647, "lon": -119.73568, "country": "Canada", "toast": "Cheers"}, {"name": "Port McNeill", "lat": 50.58716, "lon": -127.08053, "country": "Canada", "toast": "Cheers"}, {"name": "Puntledge", "lat": 49.66168, "lon": -125.05686, "country": "Canada", "toast": "Cheers"}, {"name": "Regional District of Alberni-Clayoquot", "lat": 49.24962, "lon": -125.33615, "country": "Canada", "toast": "Cheers"}, {"name": "Regional District of Central Okanagan", "lat": 49.99978, "lon": -119.41908, "country": "Canada", "toast": "Cheers"}, {"name": "Salmo", "lat": 49.19986, "lon": -117.2689, "country": "Canada", "toast": "Cheers"}, {"name": "Salt Spring Island", "lat": 48.81852, "lon": -123.49061, "country": "Canada", "toast": "Cheers"}, {"name": "West Vancouver", "lat": 49.36672, "lon": -123.16652, "country": "Canada", "toast": "Cheers"}, {"name": "White Rock", "lat": 49.01636, "lon": -122.8026, "country": "Canada", "toast": "Cheers"}, {"name": "De Salaberry", "lat": 49.39999, "lon": -97.00894, "country": "Canada", "toast": "Cheers"}, {"name": "Shilo", "lat": 49.80509, "lon": -99.63175, "country": "Canada", "toast": "Cheers"}, {"name": "The Pas", "lat": 53.82509, "lon": -101.25413, "country": "Canada", "toast": "Cheers"}, {"name": "West St. Paul", "lat": 49.9994, "lon": -97.16284, "country": "Canada", "toast": "Cheers"}, {"name": "Inuvik", "lat": 68.34986, "lon": -133.72181, "country": "Canada", "toast": "Cheers"}, {"name": "Clyde River", "lat": 70.47233, "lon": -68.58987, "country": "Canada", "toast": "Cheers"}, {"name": "Iqaluit", "lat": 63.74697, "lon": -68.51727, "country": "Canada", "toast": "Cheers"}, {"name": "Pangnirtung", "lat": 66.14642, "lon": -65.69996, "country": "Canada", "toast": "Cheers"}, {"name": "Ajax", "lat": 43.85012, "lon": -79.03288, "country": "Canada", "toast": "Cheers"}, {"name": "Algoma", "lat": 47.88364, "lon": -84.42406, "country": "Canada", "toast": "Cheers"}, {"name": "Alliston", "lat": 44.15011, "lon": -79.86635, "country": "Canada", "toast": "Cheers"}, {"name": "Amherstburg", "lat": 42.10009, "lon": -83.09985, "country": "Canada", "toast": "Cheers"}, {"name": "Amigo Beach", "lat": 44.70011, "lon": -79.39963, "country": "Canada", "toast": "Cheers"}, {"name": "Ancaster", "lat": 43.21806, "lon": -79.98716, "country": "Canada", "toast": "Cheers"}, {"name": "Angus", "lat": 44.31681, "lon": -79.88295, "country": "Canada", "toast": "Cheers"}, {"name": "Arnprior", "lat": 45.43341, "lon": -76.34939, "country": "Canada", "toast": "Cheers"}, {"name": "Atikokan", "lat": 48.75667, "lon": -91.62409, "country": "Canada", "toast": "Cheers"}, {"name": "Attawapiskat", "lat": 52.92774, "lon": -82.41669, "country": "Canada", "toast": "Cheers"}, {"name": "Aurora", "lat": 43.99973, "lon": -79.467545, "country": "Canada", "toast": "Cheers"}, {"name": "Aylmer", "lat": 42.76679, "lon": -80.98302, "country": "Canada", "toast": "Cheers"}, {"name": "Azilda", "lat": 46.55008, "lon": -81.09975, "country": "Canada", "toast": "Cheers"}, {"name": "Ballantrae", "lat": 44.03342, "lon": -79.2996, "country": "Canada", "toast": "Cheers"}, {"name": "Bancroft", "lat": 45.05752, "lon": -77.85702, "country": "Canada", "toast": "Cheers"}, {"name": "Barrie", "lat": 44.40011, "lon": -79.66634, "country": "Canada", "toast": "Cheers"}, {"name": "Bath", "lat": 44.18342, "lon": -76.78273, "country": "Canada", "toast": "Cheers"}, {"name": "Belleville", "lat": 44.16682, "lon": -77.38277, "country": "Canada", "toast": "Cheers"}, {"name": "Bells Corners", "lat": 45.31588, "lon": -75.83012, "country": "Canada", "toast": "Cheers"}, {"name": "Belmont", "lat": 42.88339, "lon": -81.08303, "country": "Canada", "toast": "Cheers"}, {"name": "Binbrook", "lat": 43.12135, "lon": -79.81104, "country": "Canada", "toast": "Cheers"}, {"name": "Bluewater", "lat": 43.46679, "lon": -81.59977, "country": "Canada", "toast": "Cheers"}, {"name": "Bourget", "lat": 45.4334, "lon": -75.1493, "country": "Canada", "toast": "Cheers"}, {"name": "Bracebridge", "lat": 45.03341, "lon": -79.31633, "country": "Canada", "toast": "Cheers"}, {"name": "Brampton", "lat": 43.68341, "lon": -79.76633, "country": "Canada", "toast": "Cheers"}, {"name": "Brant", "lat": 43.1334, "lon": -80.34967, "country": "Canada", "toast": "Cheers"}, {"name": "Brantford", "lat": 43.1334, "lon": -80.26636, "country": "Canada", "toast": "Cheers"}, {"name": "Brockville", "lat": 44.59132, "lon": -75.68705, "country": "Canada", "toast": "Cheers"}, {"name": "Brussels", "lat": 43.73339, "lon": -81.24975, "country": "Canada", "toast": "Cheers"}, {"name": "Burford", "lat": 43.10292, "lon": -80.42869, "country": "Canada", "toast": "Cheers"}, {"name": "Burlington", "lat": 43.38621, "lon": -79.83713, "country": "Canada", "toast": "Cheers"}, {"name": "Cambridge", "lat": 43.3601, "lon": -80.31269, "country": "Canada", "toast": "Cheers"}, {"name": "Camlachie", "lat": 43.03596, "lon": -82.1616, "country": "Canada", "toast": "Cheers"}, {"name": "Capreol", "lat": 46.70626, "lon": -80.92109, "country": "Canada", "toast": "Cheers"}, {"name": "Carleton Place", "lat": 45.13341, "lon": -76.14938, "country": "Canada", "toast": "Cheers"}, {"name": "Casselman", "lat": 45.3168, "lon": -75.0826, "country": "Canada", "toast": "Cheers"}, {"name": "Chatham", "lat": 42.41224, "lon": -82.18494, "country": "Canada", "toast": "Cheers"}, {"name": "Chatham-Kent", "lat": 42.40009, "lon": -82.1831, "country": "Canada", "toast": "Cheers"}, {"name": "Clarence-Rockland", "lat": 45.5501, "lon": -75.29101, "country": "Canada", "toast": "Cheers"}, {"name": "Cobourg", "lat": 43.95977, "lon": -78.16515, "country": "Canada", "toast": "Cheers"}, {"name": "Cochrane", "lat": 50.00022, "lon": -82.99979, "country": "Canada", "toast": "Cheers"}, {"name": "Collingwood", "lat": 44.4834, "lon": -80.21638, "country": "Canada", "toast": "Cheers"}, {"name": "Concord", "lat": 43.80011, "lon": -79.48291, "country": "Canada", "toast": "Cheers"}, {"name": "Constance Bay", "lat": 45.50011, "lon": -76.08267, "country": "Canada", "toast": "Cheers"}, {"name": "Cookstown", "lat": 44.18341, "lon": -79.69964, "country": "Canada", "toast": "Cheers"}, {"name": "Cornwall", "lat": 45.01809, "lon": -74.72815, "country": "Canada", "toast": "Cheers"}, {"name": "Corunna", "lat": 42.88338, "lon": -82.43313, "country": "Canada", "toast": "Cheers"}, {"name": "Deep River", "lat": 46.10012, "lon": -77.49949, "country": "Canada", "toast": "Cheers"}, {"name": "Delaware", "lat": 42.91679, "lon": -81.41646, "country": "Canada", "toast": "Cheers"}, {"name": "Deseronto", "lat": 44.20012, "lon": -77.04944, "country": "Canada", "toast": "Cheers"}, {"name": "Dorchester", "lat": 42.98339, "lon": -81.06643, "country": "Canada", "toast": "Cheers"}, {"name": "Dowling", "lat": 46.59111, "lon": -81.33917, "country": "Canada", "toast": "Cheers"}, {"name": "Durham", "lat": 44.20012, "lon": -78.99957, "country": "Canada", "toast": "Cheers"}, {"name": "East Gwillimbury", "lat": 44.10087, "lon": -79.43785, "country": "Canada", "toast": "Cheers"}, {"name": "East York", "lat": 43.69053, "lon": -79.32794, "country": "Canada", "toast": "Cheers"}, {"name": "Elliot Lake", "lat": 46.38336, "lon": -82.63315, "country": "Canada", "toast": "Cheers"}, {"name": "Elmvale", "lat": 44.5834, "lon": -79.86636, "country": "Canada", "toast": "Cheers"}, {"name": "Englehart", "lat": 47.81686, "lon": -79.8664, "country": "Canada", "toast": "Cheers"}, {"name": "Espanola", "lat": 46.25837, "lon": -81.76649, "country": "Canada", "toast": "Cheers"}, {"name": "Essex", "lat": 42.17509, "lon": -82.82483, "country": "Canada", "toast": "Cheers"}, {"name": "Etobicoke", "lat": 43.65421, "lon": -79.56711, "country": "Canada", "toast": "Cheers"}, {"name": "Exeter", "lat": 43.3435863, "lon": -81.4972602, "country": "Canada", "toast": "Cheers"}, {"name": "Fort Erie", "lat": 42.90012, "lon": -78.93286, "country": "Canada", "toast": "Cheers"}, {"name": "Gananoque", "lat": 44.33342, "lon": -76.16607, "country": "Canada", "toast": "Cheers"}, {"name": "Glencoe", "lat": 42.75009, "lon": -81.71648, "country": "Canada", "toast": "Cheers"}, {"name": "Goderich", "lat": 43.74171, "lon": -81.71339, "country": "Canada", "toast": "Cheers"}, {"name": "Gravenhurst", "lat": 44.91681, "lon": -79.36633, "country": "Canada", "toast": "Cheers"}, {"name": "Greater Napanee", "lat": 44.2473883, "lon": -76.9505543, "country": "Canada", "toast": "Cheers"}, {"name": "Greater Sudbury", "lat": 46.49, "lon": -80.99001, "country": "Canada", "toast": "Cheers"}, {"name": "Greenstone", "lat": 49.73343, "lon": -87.16668, "country": "Canada", "toast": "Cheers"}, {"name": "Guelph", "lat": 43.54594, "lon": -80.25599, "country": "Canada", "toast": "Cheers"}, {"name": "Haldimand", "lat": 42.98341, "lon": -79.86633, "country": "Canada", "toast": "Cheers"}, {"name": "Haliburton Village", "lat": 45.05154, "lon": -78.52245, "country": "Canada", "toast": "Cheers"}, {"name": "Halton", "lat": 43.50011, "lon": -79.88294, "country": "Canada", "toast": "Cheers"}, {"name": "Hamilton", "lat": 43.25011, "lon": -79.84963, "country": "Canada", "toast": "Cheers"}, {"name": "Hanover", "lat": 44.15009, "lon": -81.03303, "country": "Canada", "toast": "Cheers"}, {"name": "Harriston", "lat": 43.90009, "lon": -80.88302, "country": "Canada", "toast": "Cheers"}, {"name": "Hawkesbury", "lat": 45.60009, "lon": -74.61595, "country": "Canada", "toast": "Cheers"}, {"name": "Hearst", "lat": 49.68351, "lon": -83.66654, "country": "Canada", "toast": "Cheers"}, {"name": "Hornepayne", "lat": 49.21451, "lon": -84.77617, "country": "Canada", "toast": "Cheers"}, {"name": "Huntsville", "lat": 45.33341, "lon": -79.21632, "country": "Canada", "toast": "Cheers"}, {"name": "Huron East", "lat": 43.61679, "lon": -81.29975, "country": "Canada", "toast": "Cheers"}, {"name": "Ingersoll", "lat": 43.03339, "lon": -80.88302, "country": "Canada", "toast": "Cheers"}, {"name": "Innisfil", "lat": 44.30011, "lon": -79.64964, "country": "Canada", "toast": "Cheers"}, {"name": "Iroquois Falls", "lat": 48.76688, "lon": -80.68307, "country": "Canada", "toast": "Cheers"}, {"name": "Jarvis", "lat": 42.88341, "lon": -80.09965, "country": "Canada", "toast": "Cheers"}, {"name": "Kanata", "lat": 45.3001, "lon": -75.91606, "country": "Canada", "toast": "Cheers"}, {"name": "Kapuskasing", "lat": 49.41694, "lon": -82.43308, "country": "Canada", "toast": "Cheers"}, {"name": "Kawartha Lakes", "lat": 44.58342, "lon": -78.83288, "country": "Canada", "toast": "Cheers"}, {"name": "Keswick", "lat": 44.25011, "lon": -79.46632, "country": "Canada", "toast": "Cheers"}, {"name": "Kincardine", "lat": 44.18339, "lon": -81.63307, "country": "Canada", "toast": "Cheers"}, {"name": "King", "lat": 43.96514, "lon": -79.59011, "country": "Canada", "toast": "Cheers"}, {"name": "Kingston", "lat": 44.22976, "lon": -76.48098, "country": "Canada", "toast": "Cheers"}, {"name": "Kirkland Lake", "lat": 48.14461, "lon": -80.03767, "country": "Canada", "toast": "Cheers"}, {"name": "Kitchener", "lat": 43.42537, "lon": -80.5112, "country": "Canada", "toast": "Cheers"}, {"name": "L'Orignal", "lat": 45.6198, "lon": -74.6915, "country": "Canada", "toast": "Cheers"}, {"name": "Lakefield", "lat": 44.43342, "lon": -78.26623, "country": "Canada", "toast": "Cheers"}, {"name": "Lambton Shores", "lat": 43.16678, "lon": -81.93309, "country": "Canada", "toast": "Cheers"}, {"name": "Lappe", "lat": 48.5668, "lon": -89.35013, "country": "Canada", "toast": "Cheers"}, {"name": "Leamington", "lat": 42.05009, "lon": -82.59981, "country": "Canada", "toast": "Cheers"}, {"name": "Limoges", "lat": 45.3334, "lon": -75.24931, "country": "Canada", "toast": "Cheers"}, {"name": "Lindsay", "lat": 44.35012, "lon": -78.73286, "country": "Canada", "toast": "Cheers"}, {"name": "Listowel", "lat": 43.7334, "lon": -80.94973, "country": "Canada", "toast": "Cheers"}, {"name": "Little Current", "lat": 45.97927, "lon": -81.9248, "country": "Canada", "toast": "Cheers"}, {"name": "Lively", "lat": 46.43338, "lon": -81.14975, "country": "Canada", "toast": "Cheers"}, {"name": "London", "lat": 42.98339, "lon": -81.23304, "country": "Canada", "toast": "Cheers"}, {"name": "Lucan", "lat": 43.18339, "lon": -81.39976, "country": "Canada", "toast": "Cheers"}, {"name": "Madoc", "lat": 44.50842, "lon": -77.47448, "country": "Canada", "toast": "Cheers"}, {"name": "Manitoulin", "lat": 45.75007, "lon": -82.49985, "country": "Canada", "toast": "Cheers"}, {"name": "Manitouwadge", "lat": 49.12152, "lon": -85.8403, "country": "Canada", "toast": "Cheers"}, {"name": "Marathon", "lat": 48.7501, "lon": -86.43322, "country": "Canada", "toast": "Cheers"}, {"name": "Markdale", "lat": 44.3168, "lon": -80.64971, "country": "Canada", "toast": "Cheers"}, {"name": "Markham", "lat": 43.86682, "lon": -79.2663, "country": "Canada", "toast": "Cheers"}, {"name": "Mattawa", "lat": 46.31681, "lon": -78.69957, "country": "Canada", "toast": "Cheers"}, {"name": "Meaford", "lat": 44.60725, "lon": -80.61081, "country": "Canada", "toast": "Cheers"}, {"name": "Metcalfe", "lat": 45.2334, "lon": -75.46603, "country": "Canada", "toast": "Cheers"}, {"name": "Midland", "lat": 44.7501, "lon": -79.88296, "country": "Canada", "toast": "Cheers"}, {"name": "Mildmay", "lat": 44.05009, "lon": -81.11644, "country": "Canada", "toast": "Cheers"}, {"name": "Millbrook", "lat": 44.15012, "lon": -78.44954, "country": "Canada", "toast": "Cheers"}, {"name": "Milton", "lat": 43.51681, "lon": -79.88294, "country": "Canada", "toast": "Cheers"}, {"name": "Mississauga", "lat": 43.5789, "lon": -79.6583, "country": "Canada", "toast": "Cheers"}, {"name": "Mississauga Beach", "lat": 43.26682, "lon": -79.08287, "country": "Canada", "toast": "Cheers"}, {"name": "Moose Factory", "lat": 51.26689, "lon": -80.61624, "country": "Canada", "toast": "Cheers"}, {"name": "Moosonee", "lat": 51.27931, "lon": -80.6345, "country": "Canada", "toast": "Cheers"}, {"name": "Morrisburg", "lat": 44.9001, "lon": -75.18261, "country": "Canada", "toast": "Cheers"}, {"name": "Mount Albert", "lat": 44.13341, "lon": -79.3163, "country": "Canada", "toast": "Cheers"}, {"name": "Mount Brydges", "lat": 42.90009, "lon": -81.48306, "country": "Canada", "toast": "Cheers"}, {"name": "Napanee Downtown", "lat": 44.24832, "lon": -76.95069, "country": "Canada", "toast": "Cheers"}, {"name": "Neebing", "lat": 48.1668, "lon": -89.41683, "country": "Canada", "toast": "Cheers"}, {"name": "Nepean", "lat": 45.35215, "lon": -75.73975, "country": "Canada", "toast": "Cheers"}, {"name": "New Hamburg", "lat": 43.38339, "lon": -80.6997, "country": "Canada", "toast": "Cheers"}, {"name": "Newmarket", "lat": 44.05011, "lon": -79.46631, "country": "Canada", "toast": "Cheers"}, {"name": "Niagara Falls", "lat": 43.10012, "lon": -79.06627, "country": "Canada", "toast": "Cheers"}, {"name": "Nipissing", "lat": 46.0001, "lon": -78.99959, "country": "Canada", "toast": "Cheers"}, {"name": "Norfolk County", "lat": 42.8334, "lon": -80.38297, "country": "Canada", "toast": "Cheers"}, {"name": "North Bay", "lat": 46.3168, "lon": -79.46633, "country": "Canada", "toast": "Cheers"}, {"name": "North Perth", "lat": 43.7251, "lon": -80.96723, "country": "Canada", "toast": "Cheers"}, {"name": "North York", "lat": 43.76681, "lon": -79.4163, "country": "Canada", "toast": "Cheers"}, {"name": "Norwood", "lat": 44.38342, "lon": -77.98281, "country": "Canada", "toast": "Cheers"}, {"name": "Oakville", "lat": 43.45011, "lon": -79.68292, "country": "Canada", "toast": "Cheers"}, {"name": "Omemee", "lat": 44.29897, "lon": -78.55989, "country": "Canada", "toast": "Cheers"}, {"name": "Orangeville", "lat": 43.9168, "lon": -80.09967, "country": "Canada", "toast": "Cheers"}, {"name": "Orillia", "lat": 44.60868, "lon": -79.42068, "country": "Canada", "toast": "Cheers"}, {"name": "Osgoode", "lat": 45.14887, "lon": -75.59778, "country": "Canada", "toast": "Cheers"}, {"name": "Oshawa", "lat": 43.90012, "lon": -78.84957, "country": "Canada", "toast": "Cheers"}, {"name": "Ottawa", "lat": 45.41117, "lon": -75.69812, "country": "Canada", "toast": "Cheers"}, {"name": "Owen Sound", "lat": 44.56717, "lon": -80.94349, "country": "Canada", "toast": "Cheers"}, {"name": "Paisley", "lat": 44.30641, "lon": -81.27265, "country": "Canada", "toast": "Cheers"}, {"name": "Paris", "lat": 43.2, "lon": -80.38333, "country": "Canada", "toast": "Cheers"}, {"name": "Parkhill", "lat": 43.15993, "lon": -81.68464, "country": "Canada", "toast": "Cheers"}, {"name": "Parry Sound", "lat": 45.34732, "lon": -80.03527, "country": "Canada", "toast": "Cheers"}, {"name": "Parry Sound District", "lat": 45.75011, "lon": -79.83297, "country": "Canada", "toast": "Cheers"}, {"name": "Peel", "lat": 43.75011, "lon": -79.78293, "country": "Canada", "toast": "Cheers"}, {"name": "Pembroke", "lat": 45.81681, "lon": -77.11616, "country": "Canada", "toast": "Cheers"}, {"name": "Perth", "lat": 44.90011, "lon": -76.24939, "country": "Canada", "toast": "Cheers"}, {"name": "Petawawa", "lat": 45.89452, "lon": -77.28007, "country": "Canada", "toast": "Cheers"}, {"name": "Peterborough", "lat": 44.30012, "lon": -78.31623, "country": "Canada", "toast": "Cheers"}, {"name": "Petrolia", "lat": 42.86678, "lon": -82.14981, "country": "Canada", "toast": "Cheers"}, {"name": "Pickering", "lat": 43.90012, "lon": -79.13289, "country": "Canada", "toast": "Cheers"}, {"name": "Picton", "lat": 44.00012, "lon": -77.13275, "country": "Canada", "toast": "Cheers"}, {"name": "Plantagenet", "lat": 45.5326, "lon": -74.99369, "country": "Canada", "toast": "Cheers"}, {"name": "Plattsville", "lat": 43.3001, "lon": -80.61639, "country": "Canada", "toast": "Cheers"}, {"name": "Port Colborne", "lat": 42.90012, "lon": -79.23288, "country": "Canada", "toast": "Cheers"}, {"name": "Port Hope", "lat": 44.01682, "lon": -78.39953, "country": "Canada", "toast": "Cheers"}, {"name": "Port Rowan", "lat": 42.6168, "lon": -80.46638, "country": "Canada", "toast": "Cheers"}, {"name": "Port Stanley", "lat": 42.66679, "lon": -81.21644, "country": "Canada", "toast": "Cheers"}, {"name": "Powassan", "lat": 46.0334, "lon": -79.34961, "country": "Canada", "toast": "Cheers"}, {"name": "Prescott", "lat": 44.71681, "lon": -75.51604, "country": "Canada", "toast": "Cheers"}, {"name": "Prince Edward", "lat": 44.00012, "lon": -77.24946, "country": "Canada", "toast": "Cheers"}, {"name": "Queenswood Heights", "lat": 45.47083, "lon": -75.50556, "country": "Canada", "toast": "Cheers"}, {"name": "Quinte West", "lat": 44.18342, "lon": -77.56618, "country": "Canada", "toast": "Cheers"}, {"name": "Rainy River", "lat": 48.49981, "lon": -92.50031, "country": "Canada", "toast": "Cheers"}, {"name": "Rayside-Balfour", "lat": 46.60873, "lon": -81.20763, "country": "Canada", "toast": "Cheers"}, {"name": "Regional Municipality of Waterloo", "lat": 43.5001, "lon": -80.49969, "country": "Canada", "toast": "Cheers"}, {"name": "Renfrew", "lat": 45.46681, "lon": -76.68272, "country": "Canada", "toast": "Cheers"}, {"name": "Richmond", "lat": 45.1834, "lon": -75.83266, "country": "Canada", "toast": "Cheers"}, {"name": "Richmond Hill", "lat": 43.87111, "lon": -79.43725, "country": "Canada", "toast": "Cheers"}, {"name": "Ridgetown", "lat": 42.43339, "lon": -81.89978, "country": "Canada", "toast": "Cheers"}, {"name": "Rockwood", "lat": 43.61899, "lon": -80.14441, "country": "Canada", "toast": "Cheers"}, {"name": "Russell", "lat": 45.2501, "lon": -75.36602, "country": "Canada", "toast": "Cheers"}, {"name": "Sarnia", "lat": 42.97866, "lon": -82.40407, "country": "Canada", "toast": "Cheers"}, {"name": "Sault Ste. Marie", "lat": 46.51677, "lon": -84.33325, "country": "Canada", "toast": "Cheers"}, {"name": "Scarborough", "lat": 43.77223, "lon": -79.25666, "country": "Canada", "toast": "Cheers"}, {"name": "Seaforth", "lat": 43.55009, "lon": -81.39976, "country": "Canada", "toast": "Cheers"}, {"name": "Shelburne", "lat": 44.0787, "lon": -80.20408, "country": "Canada", "toast": "Cheers"}, {"name": "Simcoe", "lat": 42.8334, "lon": -80.29967, "country": "Canada", "toast": "Cheers"}, {"name": "Skatepark", "lat": 44.25122, "lon": -76.94424, "country": "Canada", "toast": "Cheers"}, {"name": "Smiths Falls", "lat": 44.90452, "lon": -76.02333, "country": "Canada", "toast": "Cheers"}, {"name": "South Huron", "lat": 43.31679, "lon": -81.51647, "country": "Canada", "toast": "Cheers"}, {"name": "South River", "lat": 45.8334, "lon": -79.38293, "country": "Canada", "toast": "Cheers"}, {"name": "St. Catharines", "lat": 43.17126, "lon": -79.24267, "country": "Canada", "toast": "Cheers"}, {"name": "St. George", "lat": 43.24495, "lon": -80.25144, "country": "Canada", "toast": "Cheers"}, {"name": "St. Thomas", "lat": 42.77361, "lon": -81.18038, "country": "Canada", "toast": "Cheers"}, {"name": "Stirling", "lat": 44.30012, "lon": -77.54948, "country": "Canada", "toast": "Cheers"}, {"name": "Stoney Point", "lat": 44.26681, "lon": -79.53292, "country": "Canada", "toast": "Cheers"}, {"name": "Stratford", "lat": 43.36679, "lon": -80.94972, "country": "Canada", "toast": "Cheers"}, {"name": "Sudbury", "lat": 47.16679, "lon": -81.9998, "country": "Canada", "toast": "Cheers"}, {"name": "Tavistock", "lat": 43.31679, "lon": -80.83302, "country": "Canada", "toast": "Cheers"}, {"name": "Temiskaming Shores", "lat": 47.49376, "lon": -79.71529, "country": "Canada", "toast": "Cheers"}, {"name": "Thessalon", "lat": 46.25006, "lon": -83.5666, "country": "Canada", "toast": "Cheers"}, {"name": "Thornhill", "lat": 43.8170848, "lon": -79.4501194, "country": "Canada", "toast": "Cheers"}, {"name": "Thorold", "lat": 43.11682, "lon": -79.19958, "country": "Canada", "toast": "Cheers"}, {"name": "Thunder Bay", "lat": 48.38202, "lon": -89.25018, "country": "Canada", "toast": "Cheers"}, {"name": "Thunder Bay District", "lat": 49.50011, "lon": -88.50004, "country": "Canada", "toast": "Cheers"}, {"name": "Timiskaming", "lat": 47.75016, "lon": -80.33303, "country": "Canada", "toast": "Cheers"}, {"name": "Timmins", "lat": 48.46686, "lon": -81.33312, "country": "Canada", "toast": "Cheers"}, {"name": "Tobermory", "lat": 45.25007, "lon": -81.66647, "country": "Canada", "toast": "Cheers"}, {"name": "Toronto", "lat": 43.70011, "lon": -79.4163, "country": "Canada", "toast": "Cheers"}, {"name": "Toronto county", "lat": 43.69655, "lon": -79.42909, "country": "Canada", "toast": "Cheers"}, {"name": "Tottenham", "lat": 44.02437, "lon": -79.80553, "country": "Canada", "toast": "Cheers"}, {"name": "Tweed", "lat": 44.47512, "lon": -77.31616, "country": "Canada", "toast": "Cheers"}, {"name": "Uxbridge", "lat": 44.10012, "lon": -79.11628, "country": "Canada", "toast": "Cheers"}, {"name": "Valley East", "lat": 46.66773, "lon": -81.00028, "country": "Canada", "toast": "Cheers"}, {"name": "Vanier", "lat": 45.4399, "lon": -75.66498, "country": "Canada", "toast": "Cheers"}, {"name": "Vaughan", "lat": 43.8361, "lon": -79.49827, "country": "Canada", "toast": "Cheers"}, {"name": "Vineland", "lat": 43.15012, "lon": -79.3996, "country": "Canada", "toast": "Cheers"}, {"name": "Virgil", "lat": 43.21682, "lon": -79.13288, "country": "Canada", "toast": "Cheers"}, {"name": "Walpole Island", "lat": 42.6152, "lon": -82.51398, "country": "Canada", "toast": "Cheers"}, {"name": "Wasaga Beach", "lat": 44.5168, "lon": -80.01637, "country": "Canada", "toast": "Cheers"}, {"name": "Waterford", "lat": 42.9334, "lon": -80.28296, "country": "Canada", "toast": "Cheers"}, {"name": "Waterloo", "lat": 43.4668, "lon": -80.51639, "country": "Canada", "toast": "Cheers"}, {"name": "Watford", "lat": 42.95008, "lon": -81.88309, "country": "Canada", "toast": "Cheers"}, {"name": "Wawa", "lat": 47.98877, "lon": -84.77411, "country": "Canada", "toast": "Cheers"}, {"name": "Welland", "lat": 42.98342, "lon": -79.24958, "country": "Canada", "toast": "Cheers"}, {"name": "Wellesley", "lat": 43.47691, "lon": -80.76209, "country": "Canada", "toast": "Cheers"}, {"name": "Wendover", "lat": 45.57275, "lon": -75.12757, "country": "Canada", "toast": "Cheers"}, {"name": "West Lorne", "lat": 42.60009, "lon": -81.59976, "country": "Canada", "toast": "Cheers"}, {"name": "Willowdale", "lat": 43.76672, "lon": -79.39909, "country": "Canada", "toast": "Cheers"}, {"name": "Winchester", "lat": 45.0834, "lon": -75.34933, "country": "Canada", "toast": "Cheers"}, {"name": "Windsor", "lat": 42.30008, "lon": -83.01654, "country": "Canada", "toast": "Cheers"}, {"name": "Wingham", "lat": 43.88793, "lon": -81.31145, "country": "Canada", "toast": "Cheers"}, {"name": "Woodstock", "lat": 43.13339, "lon": -80.7497, "country": "Canada", "toast": "Cheers"}, {"name": "York", "lat": 44.0007518, "lon": -79.4372217, "country": "Canada", "toast": "Cheers"}, {"name": "Fallingbrook", "lat": 45.47558, "lon": -75.48401, "country": "Canada", "toast": "Cheers"}, {"name": "Abitibi-Témiscamingue", "lat": 48.10018, "lon": -77.7828, "country": "Canada", "toast": "Santé"}, {"name": "Acton Vale", "lat": 45.65007, "lon": -72.56582, "country": "Canada", "toast": "Santé"}, {"name": "Adstock", "lat": 46.05007, "lon": -71.08235, "country": "Canada", "toast": "Santé"}, {"name": "Albanel", "lat": 48.88324, "lon": -72.44867, "country": "Canada", "toast": "Santé"}, {"name": "Alma", "lat": 48.55009, "lon": -71.6491, "country": "Canada", "toast": "Santé"}, {"name": "Amos", "lat": 48.56688, "lon": -78.11624, "country": "Canada", "toast": "Santé"}, {"name": "Amqui", "lat": 48.46382, "lon": -67.43134, "country": "Canada", "toast": "Santé"}, {"name": "Ange-Gardien", "lat": 45.35008, "lon": -72.93244, "country": "Canada", "toast": "Santé"}, {"name": "Asbestos", "lat": 45.76678, "lon": -71.9324, "country": "Canada", "toast": "Santé"}, {"name": "Baie-Comeau", "lat": 49.21679, "lon": -68.14894, "country": "Canada", "toast": "Santé"}, {"name": "Baie-D'Urfé", "lat": 45.41397, "lon": -73.91586, "country": "Canada", "toast": "Santé"}, {"name": "Baie-Saint-Paul", "lat": 47.44109, "lon": -70.49858, "country": "Canada", "toast": "Santé"}, {"name": "Barraute", "lat": 48.43349, "lon": -77.63279, "country": "Canada", "toast": "Santé"}, {"name": "Bas-Saint-Laurent", "lat": 48.0503, "lon": -68.02266, "country": "Canada", "toast": "Santé"}, {"name": "Beaconsfield", "lat": 45.43341, "lon": -73.86586, "country": "Canada", "toast": "Santé"}, {"name": "Beauceville", "lat": 46.21785, "lon": -70.77873, "country": "Canada", "toast": "Santé"}, {"name": "Beauharnois", "lat": 45.31341, "lon": -73.8725, "country": "Canada", "toast": "Santé"}, {"name": "Beaupré", "lat": 47.04428, "lon": -70.89529, "country": "Canada", "toast": "Santé"}, {"name": "Bécancour", "lat": 46.34106, "lon": -72.43224, "country": "Canada", "toast": "Santé"}, {"name": "Bedford", "lat": 45.11678, "lon": -72.98244, "country": "Canada", "toast": "Santé"}, {"name": "Beloeil", "lat": 45.56839, "lon": -73.20568, "country": "Canada", "toast": "Santé"}, {"name": "Berthierville", "lat": 46.08336, "lon": -73.18245, "country": "Canada", "toast": "Santé"}, {"name": "Blainville", "lat": 45.66678, "lon": -73.88249, "country": "Canada", "toast": "Santé"}, {"name": "Bois-des-Filion", "lat": 45.66678, "lon": -73.74918, "country": "Canada", "toast": "Santé"}, {"name": "Boisbriand", "lat": 45.61678, "lon": -73.83249, "country": "Canada", "toast": "Santé"}, {"name": "Bonaventure", "lat": 48.04573, "lon": -65.49259, "country": "Canada", "toast": "Santé"}, {"name": "Boucherville", "lat": 45.59104, "lon": -73.43605, "country": "Canada", "toast": "Santé"}, {"name": "Breakeyville", "lat": 46.68037, "lon": -71.22327, "country": "Canada", "toast": "Santé"}, {"name": "Bromont", "lat": 45.31678, "lon": -72.64912, "country": "Canada", "toast": "Santé"}, {"name": "Brossard", "lat": 45.45008, "lon": -73.46583, "country": "Canada", "toast": "Santé"}, {"name": "Brownsburg-Chatham", "lat": 45.68342, "lon": -74.4159, "country": "Canada", "toast": "Santé"}, {"name": "Buckingham", "lat": 45.58563, "lon": -75.4208, "country": "Canada", "toast": "Santé"}, {"name": "Cabano", "lat": 47.68065, "lon": -68.8781, "country": "Canada", "toast": "Santé"}, {"name": "Cacouna", "lat": 47.91657, "lon": -69.50054, "country": "Canada", "toast": "Santé"}, {"name": "Candiac", "lat": 45.38338, "lon": -73.51587, "country": "Canada", "toast": "Santé"}, {"name": "Cantley", "lat": 45.5668, "lon": -75.78265, "country": "Canada", "toast": "Santé"}, {"name": "Cap-Chat", "lat": 49.10009, "lon": -66.68212, "country": "Canada", "toast": "Santé"}, {"name": "Cap-Santé", "lat": 46.67159, "lon": -71.78812, "country": "Canada", "toast": "Santé"}, {"name": "Capitale-Nationale", "lat": 47.376, "lon": -71.12337, "country": "Canada", "toast": "Santé"}, {"name": "Carignan", "lat": 45.45008, "lon": -73.29916, "country": "Canada", "toast": "Santé"}, {"name": "Carleton", "lat": 48.09838, "lon": -66.10036, "country": "Canada", "toast": "Santé"}, {"name": "Carleton-sur-Mer", "lat": 48.10749, "lon": -66.128, "country": "Canada", "toast": "Santé"}, {"name": "Centre-du-Québec", "lat": 46.01985, "lon": -71.98242, "country": "Canada", "toast": "Santé"}, {"name": "Chambly", "lat": 45.45008, "lon": -73.28246, "country": "Canada", "toast": "Santé"}, {"name": "Chambord", "lat": 48.43339, "lon": -72.06583, "country": "Canada", "toast": "Santé"}, {"name": "Chandler", "lat": 48.34935, "lon": -64.67926, "country": "Canada", "toast": "Santé"}, {"name": "Chapais", "lat": 49.78344, "lon": -74.84919, "country": "Canada", "toast": "Santé"}, {"name": "Charlemagne", "lat": 45.71678, "lon": -73.48247, "country": "Canada", "toast": "Santé"}, {"name": "Château-Richer", "lat": 46.96031, "lon": -71.03219, "country": "Canada", "toast": "Santé"}, {"name": "Châteauguay", "lat": 45.38338, "lon": -73.74919, "country": "Canada", "toast": "Santé"}, {"name": "Chaudière-Appalaches", "lat": 46.555, "lon": -70.8308, "country": "Canada", "toast": "Santé"}, {"name": "Chertsey", "lat": 46.07109, "lon": -73.89095, "country": "Canada", "toast": "Santé"}, {"name": "Chibougamau", "lat": 49.91684, "lon": -74.36586, "country": "Canada", "toast": "Santé"}, {"name": "Chute-aux-Outardes", "lat": 49.11679, "lon": -68.39896, "country": "Canada", "toast": "Santé"}, {"name": "Coaticook", "lat": 45.13339, "lon": -71.79907, "country": "Canada", "toast": "Santé"}, {"name": "Contrecoeur", "lat": 45.85008, "lon": -73.23245, "country": "Canada", "toast": "Santé"}, {"name": "Cookshire", "lat": 45.41536, "lon": -71.62962, "country": "Canada", "toast": "Santé"}, {"name": "Cookshire-Eaton", "lat": 45.41675, "lon": -71.6324, "country": "Canada", "toast": "Santé"}, {"name": "Côte-Nord", "lat": 50.86683, "lon": -65.81541, "country": "Canada", "toast": "Santé"}, {"name": "Côte-Saint-Luc", "lat": 45.46536, "lon": -73.66585, "country": "Canada", "toast": "Santé"}, {"name": "Coteau-du-Lac", "lat": 45.30008, "lon": -74.18253, "country": "Canada", "toast": "Santé"}, {"name": "Cowansville", "lat": 45.20008, "lon": -72.74913, "country": "Canada", "toast": "Santé"}, {"name": "Crabtree", "lat": 45.96677, "lon": -73.46586, "country": "Canada", "toast": "Santé"}, {"name": "Danville", "lat": 45.78337, "lon": -72.0158, "country": "Canada", "toast": "Santé"}, {"name": "Daveluyville", "lat": 46.20006, "lon": -72.13239, "country": "Canada", "toast": "Santé"}, {"name": "Delson", "lat": 45.36678, "lon": -73.54917, "country": "Canada", "toast": "Santé"}, {"name": "Deux-Montagnes", "lat": 45.53455, "lon": -73.90168, "country": "Canada", "toast": "Santé"}, {"name": "Disraeli", "lat": 45.90007, "lon": -71.34907, "country": "Canada", "toast": "Santé"}, {"name": "Dolbeau-Mistassini", "lat": 48.8786, "lon": -72.23142, "country": "Canada", "toast": "Santé"}, {"name": "Dollard-Des Ormeaux", "lat": 45.49452, "lon": -73.82419, "country": "Canada", "toast": "Santé"}, {"name": "Donnacona", "lat": 46.68042, "lon": -71.7239, "country": "Canada", "toast": "Santé"}, {"name": "Dorval", "lat": 45.4473, "lon": -73.75335, "country": "Canada", "toast": "Santé"}, {"name": "Drummondville", "lat": 45.88336, "lon": -72.48241, "country": "Canada", "toast": "Santé"}, {"name": "Dunham", "lat": 45.13338, "lon": -72.79913, "country": "Canada", "toast": "Santé"}, {"name": "East Angus", "lat": 45.48338, "lon": -71.66577, "country": "Canada", "toast": "Santé"}, {"name": "East Broughton", "lat": 46.21358, "lon": -71.07674, "country": "Canada", "toast": "Santé"}, {"name": "Farnham", "lat": 45.28338, "lon": -72.98244, "country": "Canada", "toast": "Santé"}, {"name": "Ferme-Neuve", "lat": 46.70011, "lon": -75.44929, "country": "Canada", "toast": "Santé"}, {"name": "Fermont", "lat": 52.78345, "lon": -67.08204, "country": "Canada", "toast": "Santé"}, {"name": "Forestville", "lat": 48.73808, "lon": -69.08478, "country": "Canada", "toast": "Santé"}, {"name": "Fort-Coulonge", "lat": 45.85011, "lon": -76.73272, "country": "Canada", "toast": "Santé"}, {"name": "Fossambault-sur-le-Lac", "lat": 46.87662, "lon": -71.61541, "country": "Canada", "toast": "Santé"}, {"name": "Franklin", "lat": 45.03338, "lon": -73.91591, "country": "Canada", "toast": "Santé"}, {"name": "Gaspé", "lat": 48.83341, "lon": -64.48194, "country": "Canada", "toast": "Santé"}, {"name": "Gaspésie-Îles-de-la-Madeleine", "lat": 48.87555, "lon": -65.4071, "country": "Canada", "toast": "Santé"}, {"name": "Gatineau", "lat": 45.47723, "lon": -75.70164, "country": "Canada", "toast": "Santé"}, {"name": "Godefroy", "lat": 51.75012, "lon": -68.08213, "country": "Canada", "toast": "Santé"}, {"name": "Granby", "lat": 45.40008, "lon": -72.73243, "country": "Canada", "toast": "Santé"}, {"name": "Hampstead", "lat": 45.48064, "lon": -73.66307, "country": "Canada", "toast": "Santé"}, {"name": "Hauterive", "lat": 49.19572, "lon": -68.25813, "country": "Canada", "toast": "Santé"}, {"name": "Havre-Saint-Pierre", "lat": 50.24342, "lon": -63.60264, "country": "Canada", "toast": "Santé"}, {"name": "Hérouxville", "lat": 46.66617, "lon": -72.62512, "country": "Canada", "toast": "Santé"}, {"name": "Hudson", "lat": 45.45008, "lon": -74.14922, "country": "Canada", "toast": "Santé"}, {"name": "Huntingdon", "lat": 45.08339, "lon": -74.16593, "country": "Canada", "toast": "Santé"}, {"name": "Joliette", "lat": 46.0164, "lon": -73.4236, "country": "Canada", "toast": "Santé"}, {"name": "Jonquière", "lat": 48.41648, "lon": -71.24884, "country": "Canada", "toast": "Santé"}, {"name": "Kingsey Falls", "lat": 45.85007, "lon": -72.0658, "country": "Canada", "toast": "Santé"}, {"name": "Kirkland", "lat": 45.45008, "lon": -73.86586, "country": "Canada", "toast": "Santé"}, {"name": "L'Ancienne-Lorette", "lat": 46.79392, "lon": -71.35191, "country": "Canada", "toast": "Santé"}, {"name": "L'Ange-Gardien", "lat": 46.91976, "lon": -71.08253, "country": "Canada", "toast": "Santé"}, {"name": "L'Ascension-de-Notre-Seigneur", "lat": 48.68339, "lon": -71.6658, "country": "Canada", "toast": "Santé"}, {"name": "L'Assomption", "lat": 45.82318, "lon": -73.4294, "country": "Canada", "toast": "Santé"}, {"name": "L'Épiphanie", "lat": 45.85008, "lon": -73.48246, "country": "Canada", "toast": "Santé"}, {"name": "L'Île-Perrot", "lat": 45.38338, "lon": -73.9492, "country": "Canada", "toast": "Santé"}, {"name": "La Conception", "lat": 46.15009, "lon": -74.69925, "country": "Canada", "toast": "Santé"}, {"name": "La Haute-Saint-Charles", "lat": 46.89028, "lon": -71.37222, "country": "Canada", "toast": "Santé"}, {"name": "La Malbaie", "lat": 47.654, "lon": -70.15268, "country": "Canada", "toast": "Santé"}, {"name": "La Minerve", "lat": 46.25009, "lon": -74.93257, "country": "Canada", "toast": "Santé"}, {"name": "La Pocatière", "lat": 47.36733, "lon": -70.03484, "country": "Canada", "toast": "Santé"}, {"name": "La Prairie", "lat": 45.41678, "lon": -73.49917, "country": "Canada", "toast": "Santé"}, {"name": "La Sarre", "lat": 48.80019, "lon": -79.19964, "country": "Canada", "toast": "Santé"}, {"name": "La Tuque", "lat": 47.43337, "lon": -72.7824, "country": "Canada", "toast": "Santé"}, {"name": "Labelle", "lat": 46.28339, "lon": -74.73255, "country": "Canada", "toast": "Santé"}, {"name": "Lac-Alouette", "lat": 45.81698, "lon": -73.9592, "country": "Canada", "toast": "Santé"}, {"name": "Lac-Brome", "lat": 45.21678, "lon": -72.51581, "country": "Canada", "toast": "Santé"}, {"name": "Lac-Connelly", "lat": 45.89788, "lon": -73.9723, "country": "Canada", "toast": "Santé"}, {"name": "Lac-Lapierre", "lat": 45.89837, "lon": -73.77308, "country": "Canada", "toast": "Santé"}, {"name": "Lac-Mégantic", "lat": 45.58338, "lon": -70.88234, "country": "Canada", "toast": "Santé"}, {"name": "Lac-Simon", "lat": 46.15699, "lon": -74.74129, "country": "Canada", "toast": "Santé"}, {"name": "Lachute", "lat": 45.65008, "lon": -74.33253, "country": "Canada", "toast": "Santé"}, {"name": "Lacolle", "lat": 45.08338, "lon": -73.36585, "country": "Canada", "toast": "Santé"}, {"name": "Lanoraie", "lat": 45.96677, "lon": -73.21585, "country": "Canada", "toast": "Santé"}, {"name": "Laval", "lat": 45.56995, "lon": -73.692, "country": "Canada", "toast": "Santé"}, {"name": "Lavaltrie", "lat": 45.88338, "lon": -73.28245, "country": "Canada", "toast": "Santé"}, {"name": "Le Bic", "lat": 48.37549, "lon": -68.69415, "country": "Canada", "toast": "Santé"}, {"name": "le Plateau", "lat": 45.43514, "lon": -75.7803, "country": "Canada", "toast": "Santé"}, {"name": "Lebel-sur-Quévillon", "lat": 49.05018, "lon": -76.98273, "country": "Canada", "toast": "Santé"}, {"name": "Leblanc", "lat": 48.26683, "lon": -74.34914, "country": "Canada", "toast": "Santé"}, {"name": "Les Cèdres", "lat": 45.30008, "lon": -74.04922, "country": "Canada", "toast": "Santé"}, {"name": "Les Coteaux", "lat": 45.28338, "lon": -74.23254, "country": "Canada", "toast": "Santé"}, {"name": "Les Escoumins", "lat": 48.35191, "lon": -69.40724, "country": "Canada", "toast": "Santé"}, {"name": "Lévis", "lat": 46.80326, "lon": -71.17793, "country": "Canada", "toast": "Santé"}, {"name": "Linière", "lat": 46.00007, "lon": -70.41572, "country": "Canada", "toast": "Santé"}, {"name": "Longueuil", "lat": 45.53121, "lon": -73.51806, "country": "Canada", "toast": "Santé"}, {"name": "Lorraine", "lat": 45.68338, "lon": -73.78249, "country": "Canada", "toast": "Santé"}, {"name": "Louiseville", "lat": 46.25594, "lon": -72.94145, "country": "Canada", "toast": "Santé"}, {"name": "Luceville", "lat": 48.54498, "lon": -68.39658, "country": "Canada", "toast": "Santé"}, {"name": "Macamic", "lat": 48.75018, "lon": -78.99962, "country": "Canada", "toast": "Santé"}, {"name": "Magog", "lat": 45.26678, "lon": -72.14909, "country": "Canada", "toast": "Santé"}, {"name": "Malartic", "lat": 48.13348, "lon": -78.13283, "country": "Canada", "toast": "Santé"}, {"name": "Maliotenam", "lat": 50.21119, "lon": -66.18164, "country": "Canada", "toast": "Santé"}, {"name": "Manawan", "lat": 47.22029, "lon": -74.38606, "country": "Canada", "toast": "Santé"}, {"name": "Mandeville", "lat": 46.36677, "lon": -73.34915, "country": "Canada", "toast": "Santé"}, {"name": "Maniwaki", "lat": 46.38341, "lon": -75.96605, "country": "Canada", "toast": "Santé"}, {"name": "Maria", "lat": 48.1749, "lon": -65.98595, "country": "Canada", "toast": "Santé"}, {"name": "Marieville", "lat": 45.43338, "lon": -73.16585, "country": "Canada", "toast": "Santé"}, {"name": "Mascouche", "lat": 45.74965, "lon": -73.59956, "country": "Canada", "toast": "Santé"}, {"name": "Maskinongé", "lat": 46.2286, "lon": -73.01917, "country": "Canada", "toast": "Santé"}, {"name": "Matagami", "lat": 49.75018, "lon": -77.63277, "country": "Canada", "toast": "Santé"}, {"name": "Matane", "lat": 48.82857, "lon": -67.52197, "country": "Canada", "toast": "Santé"}, {"name": "Mauricie", "lat": 47.55009, "lon": -73.41583, "country": "Canada", "toast": "Santé"}, {"name": "Melocheville", "lat": 45.31726, "lon": -73.9371, "country": "Canada", "toast": "Santé"}, {"name": "Mercier", "lat": 45.31678, "lon": -73.74919, "country": "Canada", "toast": "Santé"}, {"name": "Métabetchouan", "lat": 48.36679, "lon": -72.01583, "country": "Canada", "toast": "Santé"}, {"name": "Metabetchouan-Lac-a-la-Croix", "lat": 48.41, "lon": -71.78, "country": "Canada", "toast": "Santé"}, {"name": "Mirabel", "lat": 45.65008, "lon": -74.08251, "country": "Canada", "toast": "Santé"}, {"name": "Mistissini", "lat": 50.41667, "lon": -73.88333, "country": "Canada", "toast": "Santé"}, {"name": "Mont-Joli", "lat": 48.58388, "lon": -68.19214, "country": "Canada", "toast": "Santé"}, {"name": "Mont-Laurier", "lat": 46.55011, "lon": -75.4993, "country": "Canada", "toast": "Santé"}, {"name": "Mont-Royal", "lat": 45.51675, "lon": -73.64918, "country": "Canada", "toast": "Santé"}, {"name": "Mont-Saint-Grégoire", "lat": 45.33338, "lon": -73.16585, "country": "Canada", "toast": "Santé"}, {"name": "Mont-Saint-Hilaire", "lat": 45.56515, "lon": -73.1868, "country": "Canada", "toast": "Santé"}, {"name": "Mont-Tremblant", "lat": 46.21274, "lon": -74.58438, "country": "Canada", "toast": "Santé"}, {"name": "Montmagny", "lat": 46.98043, "lon": -70.55493, "country": "Canada", "toast": "Santé"}, {"name": "Montréal", "lat": 45.50008, "lon": -73.68248, "country": "Canada", "toast": "Santé"}, {"name": "Montréal-Est", "lat": 45.63202, "lon": -73.5075, "country": "Canada", "toast": "Santé"}, {"name": "Montréal-Ouest", "lat": 45.45286, "lon": -73.64918, "country": "Canada", "toast": "Santé"}, {"name": "Morin-Heights", "lat": 45.90009, "lon": -74.24922, "country": "Canada", "toast": "Santé"}, {"name": "Napierville", "lat": 45.18648, "lon": -73.40468, "country": "Canada", "toast": "Santé"}, {"name": "Neuville", "lat": 46.69823, "lon": -71.58275, "country": "Canada", "toast": "Santé"}, {"name": "New Carlisle", "lat": 48.00956, "lon": -65.33621, "country": "Canada", "toast": "Santé"}, {"name": "New-Richmond", "lat": 48.16059, "lon": -65.85823, "country": "Canada", "toast": "Santé"}, {"name": "Nicolet", "lat": 46.21676, "lon": -72.61582, "country": "Canada", "toast": "Santé"}, {"name": "Nord-du-Québec", "lat": 51.962, "lon": -74.8961, "country": "Canada", "toast": "Santé"}, {"name": "Normandin", "lat": 48.83328, "lon": -72.53209, "country": "Canada", "toast": "Santé"}, {"name": "Notre-Dame-de-Grâce", "lat": 45.47675, "lon": -73.61432, "country": "Canada", "toast": "Santé"}, {"name": "Notre-Dame-de-l'Île-Perrot", "lat": 45.36678, "lon": -73.9325, "country": "Canada", "toast": "Santé"}, {"name": "Notre-Dame-des-Prairies", "lat": 46.05007, "lon": -73.43245, "country": "Canada", "toast": "Santé"}, {"name": "Notre-Dame-du-Lac", "lat": 46.75012, "lon": -79.04961, "country": "Canada", "toast": "Santé"}, {"name": "Notre-Dame-du-Mont-Carmel", "lat": 46.0168, "lon": -75.08259, "country": "Canada", "toast": "Santé"}, {"name": "Oka", "lat": 45.46489, "lon": -74.08892, "country": "Canada", "toast": "Santé"}, {"name": "Ormstown", "lat": 45.13338, "lon": -73.99922, "country": "Canada", "toast": "Santé"}, {"name": "Otterburn Park", "lat": 45.53338, "lon": -73.21585, "country": "Canada", "toast": "Santé"}, {"name": "Outaouais", "lat": 46.26681, "lon": -76.31606, "country": "Canada", "toast": "Santé"}, {"name": "Papineauville", "lat": 45.6168, "lon": -75.01599, "country": "Canada", "toast": "Santé"}, {"name": "Parc-Boutin", "lat": 45.29209, "lon": -73.26154, "country": "Canada", "toast": "Santé"}, {"name": "Piedmont", "lat": 45.90008, "lon": -74.13251, "country": "Canada", "toast": "Santé"}, {"name": "Pierreville", "lat": 46.07034, "lon": -72.81125, "country": "Canada", "toast": "Santé"}, {"name": "Pincourt", "lat": 45.38338, "lon": -73.9825, "country": "Canada", "toast": "Santé"}, {"name": "Plessisville", "lat": 46.21856, "lon": -71.76201, "country": "Canada", "toast": "Santé"}, {"name": "Pohénégamook", "lat": 47.46315, "lon": -69.22666, "country": "Canada", "toast": "Santé"}, {"name": "Pointe-Calumet", "lat": 45.50008, "lon": -73.9659, "country": "Canada", "toast": "Santé"}, {"name": "Pointe-Claire", "lat": 45.44868, "lon": -73.81669, "country": "Canada", "toast": "Santé"}, {"name": "Pointe-du-Lac", "lat": 48.50009, "lon": -71.78241, "country": "Canada", "toast": "Santé"}, {"name": "Pont Rouge", "lat": 48.88332, "lon": -72.08247, "country": "Canada", "toast": "Santé"}, {"name": "Port-Cartier", "lat": 50.03339, "lon": -66.86545, "country": "Canada", "toast": "Santé"}, {"name": "Portneuf", "lat": 46.69058, "lon": -71.89011, "country": "Canada", "toast": "Santé"}, {"name": "Prévost", "lat": 45.86678, "lon": -74.08251, "country": "Canada", "toast": "Santé"}, {"name": "Princeville", "lat": 46.17163, "lon": -71.87462, "country": "Canada", "toast": "Santé"}, {"name": "Québec", "lat": 46.81228, "lon": -71.21454, "country": "Canada", "toast": "Santé"}, {"name": "Rawdon", "lat": 46.05007, "lon": -73.71587, "country": "Canada", "toast": "Santé"}, {"name": "Repentigny", "lat": 45.74222, "lon": -73.45008, "country": "Canada", "toast": "Santé"}, {"name": "Richelieu", "lat": 45.44336, "lon": -73.24602, "country": "Canada", "toast": "Santé"}, {"name": "Richmond", "lat": 45.66677, "lon": -72.1491, "country": "Canada", "toast": "Santé"}, {"name": "Rigaud", "lat": 45.47927, "lon": -74.30238, "country": "Canada", "toast": "Santé"}, {"name": "Rimouski", "lat": 48.44879, "lon": -68.52396, "country": "Canada", "toast": "Santé"}, {"name": "Rivière-du-Loup", "lat": 47.82699, "lon": -69.54243, "country": "Canada", "toast": "Santé"}, {"name": "Rivière-Rouge", "lat": 46.41679, "lon": -74.86596, "country": "Canada", "toast": "Santé"}, {"name": "Roberval", "lat": 48.5168, "lon": -72.23244, "country": "Canada", "toast": "Santé"}, {"name": "Rock Forest", "lat": 45.35699, "lon": -71.99676, "country": "Canada", "toast": "Santé"}, {"name": "Rosemère", "lat": 45.63338, "lon": -73.79919, "country": "Canada", "toast": "Santé"}, {"name": "Rougemont", "lat": 45.43338, "lon": -73.04914, "country": "Canada", "toast": "Santé"}, {"name": "Rouyn-Noranda", "lat": 48.23656, "lon": -79.02311, "country": "Canada", "toast": "Santé"}, {"name": "Sacré-Coeur", "lat": 48.2297, "lon": -69.80061, "country": "Canada", "toast": "Santé"}, {"name": "Saguenay", "lat": 48.41675, "lon": -71.06573, "country": "Canada", "toast": "Santé"}, {"name": "Saint-Adolphe-d'Howard", "lat": 45.96679, "lon": -74.33253, "country": "Canada", "toast": "Santé"}, {"name": "Saint-Alexandre", "lat": 45.5001, "lon": -75.74935, "country": "Canada", "toast": "Santé"}, {"name": "Saint-Amable", "lat": 45.65008, "lon": -73.29916, "country": "Canada", "toast": "Santé"}, {"name": "Saint-Ambroise", "lat": 48.55009, "lon": -71.33238, "country": "Canada", "toast": "Santé"}, {"name": "Saint-André-Avellin", "lat": 45.7168, "lon": -75.06599, "country": "Canada", "toast": "Santé"}, {"name": "Saint-Anselme", "lat": 46.62922, "lon": -70.9734, "country": "Canada", "toast": "Santé"}, {"name": "Saint-Antoine-de-Tilly", "lat": 46.66346, "lon": -71.57335, "country": "Canada", "toast": "Santé"}, {"name": "Saint-Augustin-de-Desmaures", "lat": 46.74064, "lon": -71.45131, "country": "Canada", "toast": "Santé"}, {"name": "Saint-Barnabé-Sud", "lat": 45.72977, "lon": -72.92244, "country": "Canada", "toast": "Santé"}, {"name": "Saint-Basile-le-Grand", "lat": 45.53338, "lon": -73.28246, "country": "Canada", "toast": "Santé"}, {"name": "Saint-Boniface", "lat": 46.50011, "lon": -75.98264, "country": "Canada", "toast": "Santé"}, {"name": "Saint-Bruno", "lat": 48.46679, "lon": -71.6491, "country": "Canada", "toast": "Santé"}, {"name": "Saint-Bruno-de-Guigues", "lat": 47.46685, "lon": -79.43296, "country": "Canada", "toast": "Santé"}, {"name": "Saint-Bruno-de-Montarville", "lat": 45.53341, "lon": -73.34916, "country": "Canada", "toast": "Santé"}, {"name": "Saint-Canut", "lat": 45.71502, "lon": -74.08376, "country": "Canada", "toast": "Santé"}, {"name": "Saint-Césaire", "lat": 45.41678, "lon": -72.99914, "country": "Canada", "toast": "Santé"}, {"name": "Saint-Charles", "lat": 45.70288, "lon": -73.55417, "country": "Canada", "toast": "Santé"}, {"name": "Saint-Côme-Linière", "lat": 46.06677, "lon": -70.51573, "country": "Canada", "toast": "Santé"}, {"name": "Saint-Constant", "lat": 45.36678, "lon": -73.56588, "country": "Canada", "toast": "Santé"}, {"name": "Saint-Cyrille-de-Wendover", "lat": 45.93336, "lon": -72.43241, "country": "Canada", "toast": "Santé"}, {"name": "Saint-Damase", "lat": 45.53341, "lon": -72.99914, "country": "Canada", "toast": "Santé"}, {"name": "Saint-Denis-sur-Richelieu", "lat": 45.78338, "lon": -73.14915, "country": "Canada", "toast": "Santé"}, {"name": "Saint-Donat-de-Montcalm", "lat": 46.31868, "lon": -74.22171, "country": "Canada", "toast": "Santé"}, {"name": "Saint-Édouard", "lat": 45.23338, "lon": -73.51588, "country": "Canada", "toast": "Santé"}, {"name": "Saint-Elzéar", "lat": 45.60338, "lon": -73.72698, "country": "Canada", "toast": "Santé"}, {"name": "Saint-Éphrem-de-Beauce", "lat": 46.06677, "lon": -70.94905, "country": "Canada", "toast": "Santé"}, {"name": "Saint-Eustache", "lat": 45.565, "lon": -73.90554, "country": "Canada", "toast": "Santé"}, {"name": "Saint-Félicien", "lat": 48.65007, "lon": -72.44906, "country": "Canada", "toast": "Santé"}, {"name": "Saint-Félix-de-Valois", "lat": 46.16977, "lon": -73.42525, "country": "Canada", "toast": "Santé"}, {"name": "Saint-Gabriel", "lat": 46.30007, "lon": -73.38245, "country": "Canada", "toast": "Santé"}, {"name": "Saint-Gédéon", "lat": 48.50009, "lon": -71.76581, "country": "Canada", "toast": "Santé"}, {"name": "Saint-Georges", "lat": 46.11353, "lon": -70.66526, "country": "Canada", "toast": "Santé"}, {"name": "Saint-Germain-de-Grantham", "lat": 45.83337, "lon": -72.56582, "country": "Canada", "toast": "Santé"}, {"name": "Saint-Henri", "lat": 46.69314, "lon": -71.06927, "country": "Canada", "toast": "Santé"}, {"name": "Saint-Hippolyte", "lat": 45.93338, "lon": -74.0159, "country": "Canada", "toast": "Santé"}, {"name": "Saint-Honoré", "lat": 48.53338, "lon": -71.08236, "country": "Canada", "toast": "Santé"}, {"name": "Saint-Hyacinthe", "lat": 45.63076, "lon": -72.95699, "country": "Canada", "toast": "Santé"}, {"name": "Saint-Isidore", "lat": 47.43345, "lon": -79.29965, "country": "Canada", "toast": "Santé"}, {"name": "Saint-Jacques-le-Mineur", "lat": 45.28338, "lon": -73.41587, "country": "Canada", "toast": "Santé"}, {"name": "Saint-Jean-Baptiste", "lat": 45.3806, "lon": -74.0121, "country": "Canada", "toast": "Santé"}, {"name": "Saint-Jean-sur-Richelieu", "lat": 45.30713, "lon": -73.26259, "country": "Canada", "toast": "Santé"}, {"name": "Saint-Jérôme", "lat": 45.78036, "lon": -74.00365, "country": "Canada", "toast": "Santé"}, {"name": "Saint-Joseph", "lat": 45.95817, "lon": -73.22025, "country": "Canada", "toast": "Santé"}, {"name": "Saint-Joseph-de-Beauce", "lat": 46.3, "lon": -70.86667, "country": "Canada", "toast": "Santé"}, {"name": "Saint-Joseph-de-Coleraine", "lat": 45.96677, "lon": -71.36577, "country": "Canada", "toast": "Santé"}, {"name": "Saint-Joseph-du-Lac", "lat": 45.53338, "lon": -73.9992, "country": "Canada", "toast": "Santé"}, {"name": "Saint-Lambert-de-Lauzon", "lat": 46.58624, "lon": -71.20892, "country": "Canada", "toast": "Santé"}, {"name": "Saint-Laurent", "lat": 45.50008, "lon": -73.66585, "country": "Canada", "toast": "Santé"}, {"name": "Saint-Lazare", "lat": 45.40008, "lon": -74.13256, "country": "Canada", "toast": "Santé"}, {"name": "Saint-Léonard", "lat": 45.58773, "lon": -73.59501, "country": "Canada", "toast": "Santé"}, {"name": "Saint-Léonard-d'Aston", "lat": 46.10006, "lon": -72.3658, "country": "Canada", "toast": "Santé"}, {"name": "Saint-Liboire", "lat": 45.65068, "lon": -72.76348, "country": "Canada", "toast": "Santé"}, {"name": "Saint-Lin-Laurentides", "lat": 45.85008, "lon": -73.76588, "country": "Canada", "toast": "Santé"}, {"name": "Saint-Marc-des-Carrières", "lat": 46.68335, "lon": -72.0491, "country": "Canada", "toast": "Santé"}, {"name": "Saint-Mathieu", "lat": 45.31678, "lon": -73.51587, "country": "Canada", "toast": "Santé"}, {"name": "Saint-Michel", "lat": 45.56758, "lon": -73.62168, "country": "Canada", "toast": "Santé"}, {"name": "Saint-Michel-des-Saints", "lat": 46.67702, "lon": -73.91881, "country": "Canada", "toast": "Santé"}, {"name": "Saint-Nazaire", "lat": 48.58944, "lon": -71.55247, "country": "Canada", "toast": "Santé"}, {"name": "Saint-Norbert", "lat": 46.16949, "lon": -73.31494, "country": "Canada", "toast": "Santé"}, {"name": "Saint-Pacôme", "lat": 47.40457, "lon": -69.95025, "country": "Canada", "toast": "Santé"}, {"name": "Saint-Pascal", "lat": 47.51813, "lon": -69.80301, "country": "Canada", "toast": "Santé"}, {"name": "Saint-Philippe-de-La Prairie", "lat": 45.35723, "lon": -73.47706, "country": "Canada", "toast": "Santé"}, {"name": "Saint-Pie", "lat": 45.50277, "lon": -72.9089, "country": "Canada", "toast": "Santé"}, {"name": "Saint-Pierre-les-Becquets", "lat": 46.50005, "lon": -72.1991, "country": "Canada", "toast": "Santé"}, {"name": "Saint-Prime", "lat": 48.58339, "lon": -72.33244, "country": "Canada", "toast": "Santé"}, {"name": "Saint-Raphaël", "lat": 46.25011, "lon": -76.01605, "country": "Canada", "toast": "Santé"}, {"name": "Saint-Raymond", "lat": 45.46698, "lon": -73.60948, "country": "Canada", "toast": "Santé"}, {"name": "Saint-Rémi", "lat": 45.26678, "lon": -73.61588, "country": "Canada", "toast": "Santé"}, {"name": "Saint-Rémi-de-Tingwick", "lat": 45.86677, "lon": -71.81581, "country": "Canada", "toast": "Santé"}, {"name": "Saint-Sauveur", "lat": 45.88686, "lon": -74.17943, "country": "Canada", "toast": "Santé"}, {"name": "Saint-Sauveur-des-Monts", "lat": 45.90008, "lon": -74.16591, "country": "Canada", "toast": "Santé"}, {"name": "Saint-Siméon", "lat": 47.84431, "lon": -69.87837, "country": "Canada", "toast": "Santé"}, {"name": "Saint-Thomas", "lat": 46.01677, "lon": -73.34915, "country": "Canada", "toast": "Santé"}, {"name": "Saint-Tite", "lat": 46.73336, "lon": -72.56581, "country": "Canada", "toast": "Santé"}, {"name": "Saint-Victor", "lat": 45.61118, "lon": -73.51527, "country": "Canada", "toast": "Santé"}, {"name": "Saint-Zotique", "lat": 45.25009, "lon": -74.24924, "country": "Canada", "toast": "Santé"}, {"name": "Sainte Catherine de la Jacques Cartier", "lat": 46.85244, "lon": -71.62056, "country": "Canada", "toast": "Santé"}, {"name": "Sainte-Adèle", "lat": 45.95008, "lon": -74.13251, "country": "Canada", "toast": "Santé"}, {"name": "Sainte-Agathe-des-Monts", "lat": 46.05009, "lon": -74.28252, "country": "Canada", "toast": "Santé"}, {"name": "Sainte-Anne-de-Bellevue", "lat": 45.40618, "lon": -73.9456, "country": "Canada", "toast": "Santé"}, {"name": "Sainte-Anne-des-Monts", "lat": 49.12402, "lon": -66.49243, "country": "Canada", "toast": "Santé"}, {"name": "Sainte-Anne-des-Plaines", "lat": 45.76468, "lon": -73.81156, "country": "Canada", "toast": "Santé"}, {"name": "Sainte-Béatrix", "lat": 46.20007, "lon": -73.61587, "country": "Canada", "toast": "Santé"}, {"name": "Sainte-Catherine", "lat": 45.40008, "lon": -73.58248, "country": "Canada", "toast": "Santé"}, {"name": "Sainte-Croix", "lat": 45.13368, "lon": -72.80083, "country": "Canada", "toast": "Santé"}, {"name": "Sainte-Élisabeth", "lat": 46.09502, "lon": -73.35176, "country": "Canada", "toast": "Santé"}, {"name": "Sainte-Julie", "lat": 45.58338, "lon": -73.33246, "country": "Canada", "toast": "Santé"}, {"name": "Sainte-Julienne", "lat": 45.96677, "lon": -73.71587, "country": "Canada", "toast": "Santé"}, {"name": "Sainte-Madeleine", "lat": 45.60008, "lon": -73.09914, "country": "Canada", "toast": "Santé"}, {"name": "Sainte-Marie", "lat": 46.43401, "lon": -71.01168, "country": "Canada", "toast": "Santé"}, {"name": "Sainte-Marthe-sur-le-Lac", "lat": 45.53338, "lon": -73.9325, "country": "Canada", "toast": "Santé"}, {"name": "Sainte-Martine", "lat": 45.25008, "lon": -73.79919, "country": "Canada", "toast": "Santé"}, {"name": "Sainte-Sophie", "lat": 45.81678, "lon": -73.89919, "country": "Canada", "toast": "Santé"}, {"name": "Sainte-Thècle", "lat": 46.81676, "lon": -72.49911, "country": "Canada", "toast": "Santé"}, {"name": "Sainte-Thérèse", "lat": 45.63922, "lon": -73.82757, "country": "Canada", "toast": "Santé"}, {"name": "Salaberry-de-Valleyfield", "lat": 45.25008, "lon": -74.13253, "country": "Canada", "toast": "Santé"}, {"name": "Salluit", "lat": 62.20411, "lon": -75.64344, "country": "Canada", "toast": "Santé"}, {"name": "Senneterre", "lat": 48.39302, "lon": -77.23951, "country": "Canada", "toast": "Santé"}, {"name": "Sept-Îles", "lat": 50.20011, "lon": -66.38208, "country": "Canada", "toast": "Santé"}, {"name": "Shannon", "lat": 46.88026, "lon": -71.51464, "country": "Canada", "toast": "Santé"}, {"name": "Shawinigan", "lat": 46.56675, "lon": -72.74913, "country": "Canada", "toast": "Santé"}, {"name": "Shawville", "lat": 45.60011, "lon": -76.4827, "country": "Canada", "toast": "Santé"}, {"name": "Sherbrooke", "lat": 45.40008, "lon": -71.89908, "country": "Canada", "toast": "Santé"}, {"name": "Sorel-Tracy", "lat": 46.04178, "lon": -73.11358, "country": "Canada", "toast": "Santé"}, {"name": "St-Jean-Port-Joli", "lat": 47.21418, "lon": -70.26969, "country": "Canada", "toast": "Santé"}, {"name": "Sutton", "lat": 45.10008, "lon": -72.61582, "country": "Canada", "toast": "Santé"}, {"name": "Témiscaming", "lat": 46.72122, "lon": -79.09712, "country": "Canada", "toast": "Santé"}, {"name": "Terrasse-des-Pins", "lat": 45.86449, "lon": -74.06627, "country": "Canada", "toast": "Santé"}, {"name": "Terrebonne", "lat": 45.70004, "lon": -73.64732, "country": "Canada", "toast": "Santé"}, {"name": "Thetford-Mines", "lat": 46.09371, "lon": -71.30539, "country": "Canada", "toast": "Santé"}, {"name": "Thurso", "lat": 45.6001, "lon": -75.24931, "country": "Canada", "toast": "Santé"}, {"name": "Trois-Rivières", "lat": 46.34515, "lon": -72.5477, "country": "Canada", "toast": "Santé"}, {"name": "Val-d'Or", "lat": 48.0974, "lon": -77.79737, "country": "Canada", "toast": "Santé"}, {"name": "Val-David", "lat": 46.03338, "lon": -74.21592, "country": "Canada", "toast": "Santé"}, {"name": "Val-des-Monts", "lat": 45.6501, "lon": -75.66604, "country": "Canada", "toast": "Santé"}, {"name": "Val-Morin", "lat": 46.00008, "lon": -74.18251, "country": "Canada", "toast": "Santé"}, {"name": "Valcourt", "lat": 45.50008, "lon": -72.31581, "country": "Canada", "toast": "Santé"}, {"name": "Vallée-Jonction", "lat": 46.37441, "lon": -70.91881, "country": "Canada", "toast": "Santé"}, {"name": "Varennes", "lat": 45.68338, "lon": -73.43246, "country": "Canada", "toast": "Santé"}, {"name": "Vaudreuil-Dorion", "lat": 45.40008, "lon": -74.03251, "country": "Canada", "toast": "Santé"}, {"name": "Venise-en-Québec", "lat": 45.08338, "lon": -73.13245, "country": "Canada", "toast": "Santé"}, {"name": "Verchères", "lat": 45.78338, "lon": -73.34916, "country": "Canada", "toast": "Santé"}, {"name": "Victoriaville", "lat": 46.05007, "lon": -71.96579, "country": "Canada", "toast": "Santé"}, {"name": "Ville-Marie", "lat": 47.33345, "lon": -79.43297, "country": "Canada", "toast": "Santé"}, {"name": "Wakefield", "lat": 45.6668, "lon": -75.83265, "country": "Canada", "toast": "Santé"}, {"name": "Warwick", "lat": 45.95007, "lon": -71.9824, "country": "Canada", "toast": "Santé"}, {"name": "Waskaganish", "lat": 51.48333, "lon": -78.75, "country": "Canada", "toast": "Santé"}, {"name": "Waswanipi", "lat": 49.73346, "lon": -76.16604, "country": "Canada", "toast": "Santé"}, {"name": "Waterloo", "lat": 45.35008, "lon": -72.51582, "country": "Canada", "toast": "Santé"}, {"name": "Weedon Centre", "lat": 45.70802, "lon": -71.45986, "country": "Canada", "toast": "Santé"}, {"name": "Westmount", "lat": 45.48341, "lon": -73.59918, "country": "Canada", "toast": "Santé"}, {"name": "Weymontachie", "lat": 47.8994, "lon": -73.7772, "country": "Canada", "toast": "Santé"}, {"name": "Windsor", "lat": 45.56678, "lon": -71.99909, "country": "Canada", "toast": "Santé"}, {"name": "Yamachiche", "lat": 46.26676, "lon": -72.83243, "country": "Canada", "toast": "Santé"}, {"name": "Biggar", "lat": 52.0668, "lon": -108.00135, "country": "Canada", "toast": "Cheers"}, {"name": "Dalmeny", "lat": 52.33339, "lon": -106.76792, "country": "Canada", "toast": "Cheers"}, {"name": "Langham", "lat": 52.3668, "lon": -106.96793, "country": "Canada", "toast": "Cheers"}, {"name": "Maple Creek", "lat": 49.91678, "lon": -109.48481, "country": "Canada", "toast": "Cheers"}, {"name": "Outlook", "lat": 51.50008, "lon": -107.05128, "country": "Canada", "toast": "Cheers"}, {"name": "Regina Beach", "lat": 50.78338, "lon": -105.00112, "country": "Canada", "toast": "Cheers"}, {"name": "Cayman Brac", "lat": 19.719997, "lon": -79.8907266, "country": "Cayman Islands", "toast": "Cheers"}, {"name": "Bodden Town", "lat": 19.2796693, "lon": -81.2777999, "country": "Cayman Islands", "toast": "Cheers"}, {"name": "East End", "lat": 19.2995898, "lon": -81.1196138, "country": "Cayman Islands", "toast": "Cheers"}, {"name": "George Town", "lat": 19.2902326, "lon": -81.4433372, "country": "Cayman Islands", "toast": "Cheers"}, {"name": "North Side", "lat": 19.3362047, "lon": -81.5139813, "country": "Cayman Islands", "toast": "Cheers"}, {"name": "West Bay", "lat": 19.3665153, "lon": -81.4317026, "country": "Cayman Islands", "toast": "Cheers"}, {"name": "Little Cayman", "lat": 19.6856739, "lon": -80.1183019, "country": "Cayman Islands", "toast": "Cheers"}, {"name": "Isla de Pascua", "lat": -27.11048, "lon": -109.29749, "country": "Chile", "toast": "Salud"}, {"name": "El Encanto", "lat": -1.56261, "lon": -73.25684, "country": "Colombia", "toast": "Salud"}, {"name": "La Chorrera", "lat": -1.48894, "lon": -72.72935, "country": "Colombia", "toast": "Salud"}, {"name": "La Pedrera", "lat": -1.65596, "lon": -70.22186, "country": "Colombia", "toast": "Salud"}, {"name": "La Victoria", "lat": -0.18311, "lon": -71.0376, "country": "Colombia", "toast": "Salud"}, {"name": "Leticia", "lat": -4.21528, "lon": -69.94056, "country": "Colombia", "toast": "Salud"}, {"name": "Miriti - Paraná", "lat": -0.81858, "lon": -70.78925, "country": "Colombia", "toast": "Salud"}, {"name": "Puerto Alegría", "lat": -0.96886, "lon": -73.74962, "country": "Colombia", "toast": "Salud"}, {"name": "Puerto Arica", "lat": -1.90677, "lon": -71.14653, "country": "Colombia", "toast": "Salud"}, {"name": "Puerto Nariño", "lat": -3.78889, "lon": -70.35584, "country": "Colombia", "toast": "Salud"}, {"name": "Puerto Santander", "lat": -1.0987, "lon": -71.93911, "country": "Colombia", "toast": "Salud"}, {"name": "Tarapacá", "lat": -2.88544, "lon": -69.77692, "country": "Colombia", "toast": "Salud"}, {"name": "Abejorral", "lat": 5.78928, "lon": -75.42725, "country": "Colombia", "toast": "Salud"}, {"name": "Abriaquí", "lat": 6.63148, "lon": -76.06444, "country": "Colombia", "toast": "Salud"}, {"name": "Alejandría", "lat": 6.36667, "lon": -75.08333, "country": "Colombia", "toast": "Salud"}, {"name": "Amagá", "lat": 6.04001, "lon": -75.70315, "country": "Colombia", "toast": "Salud"}, {"name": "Amalfi", "lat": 6.91016, "lon": -75.07764, "country": "Colombia", "toast": "Salud"}, {"name": "Andes", "lat": 5.66974, "lon": -75.89905, "country": "Colombia", "toast": "Salud"}, {"name": "Angelópolis", "lat": 6.12228, "lon": -75.71432, "country": "Colombia", "toast": "Salud"}, {"name": "Angostura", "lat": 6.8712, "lon": -75.35947, "country": "Colombia", "toast": "Salud"}, {"name": "Anorí", "lat": 7.07361111, "lon": -75.14694444, "country": "Colombia", "toast": "Salud"}, {"name": "Anza", "lat": 6.33333, "lon": -75.91667, "country": "Colombia", "toast": "Salud"}, {"name": "Apartadó", "lat": 7.88299, "lon": -76.62587, "country": "Colombia", "toast": "Salud"}, {"name": "Arboletes", "lat": 8.85051, "lon": -76.42694, "country": "Colombia", "toast": "Salud"}, {"name": "Argelia", "lat": 5.73127, "lon": -75.14257, "country": "Colombia", "toast": "Salud"}, {"name": "Armenia", "lat": 6.17554, "lon": -75.8123, "country": "Colombia", "toast": "Salud"}, {"name": "Barbosa", "lat": 6.43809, "lon": -75.33136, "country": "Colombia", "toast": "Salud"}, {"name": "Bello", "lat": 6.3616, "lon": -75.58728, "country": "Colombia", "toast": "Salud"}, {"name": "Belmira", "lat": 6.60508, "lon": -75.66619, "country": "Colombia", "toast": "Salud"}, {"name": "Betania", "lat": 5.73571, "lon": -75.98964, "country": "Colombia", "toast": "Salud"}, {"name": "Betulia", "lat": 6.11284, "lon": -75.98378, "country": "Colombia", "toast": "Salud"}, {"name": "Briceño", "lat": 7.05001, "lon": -75.50903, "country": "Colombia", "toast": "Salud"}, {"name": "Buriticá", "lat": 6.80549, "lon": -75.92093, "country": "Colombia", "toast": "Salud"}, {"name": "Cáceres", "lat": 7.68252, "lon": -75.22481, "country": "Colombia", "toast": "Salud"}, {"name": "Caicedo", "lat": 6.42805, "lon": -75.99715, "country": "Colombia", "toast": "Salud"}, {"name": "Caldas", "lat": 6.09106, "lon": -75.63569, "country": "Colombia", "toast": "Salud"}, {"name": "Campamento", "lat": 7.0391, "lon": -75.28938, "country": "Colombia", "toast": "Salud"}, {"name": "Cañasgordas", "lat": 6.80951, "lon": -76.03954, "country": "Colombia", "toast": "Salud"}, {"name": "Caracolí", "lat": 6.4092, "lon": -74.75715, "country": "Colombia", "toast": "Salud"}, {"name": "Caramanta", "lat": 5.54144, "lon": -75.66961, "country": "Colombia", "toast": "Salud"}, {"name": "Carepa", "lat": 7.75849, "lon": -76.65255, "country": "Colombia", "toast": "Salud"}, {"name": "Carolina", "lat": 6.74807, "lon": -75.32131, "country": "Colombia", "toast": "Salud"}, {"name": "Caucasia", "lat": 7.98654, "lon": -75.19349, "country": "Colombia", "toast": "Salud"}, {"name": "Chigorodó", "lat": 7.66638, "lon": -76.68106, "country": "Colombia", "toast": "Salud"}, {"name": "Cisneros", "lat": 6.54507, "lon": -75.09415, "country": "Colombia", "toast": "Salud"}, {"name": "Ciudad Bolívar", "lat": 5.85389, "lon": -76.02528, "country": "Colombia", "toast": "Salud"}, {"name": "Cocorná", "lat": 6.00579, "lon": -75.16984, "country": "Colombia", "toast": "Salud"}, {"name": "Concepción", "lat": 6.39408, "lon": -75.2583, "country": "Colombia", "toast": "Salud"}, {"name": "Concordia", "lat": 6.04639, "lon": -75.90705, "country": "Colombia", "toast": "Salud"}, {"name": "Copacabana", "lat": 6.3623, "lon": -75.49922, "country": "Colombia", "toast": "Salud"}, {"name": "Dabeiba", "lat": 7.03367, "lon": -76.34161, "country": "Colombia", "toast": "Salud"}, {"name": "Donmatías", "lat": 6.48569, "lon": -75.39496, "country": "Colombia", "toast": "Salud"}, {"name": "Ebéjico", "lat": 6.32598, "lon": -75.76835, "country": "Colombia", "toast": "Salud"}, {"name": "El Bagre", "lat": 7.60347, "lon": -74.80951, "country": "Colombia", "toast": "Salud"}, {"name": "El Carmen de Viboral", "lat": 6.08236, "lon": -75.33509, "country": "Colombia", "toast": "Salud"}, {"name": "El Santuario", "lat": 6.13833, "lon": -75.26417, "country": "Colombia", "toast": "Salud"}, {"name": "Entrerrios", "lat": 6.58333, "lon": -75.58333, "country": "Colombia", "toast": "Salud"}, {"name": "Envigado", "lat": 6.17591, "lon": -75.59174, "country": "Colombia", "toast": "Salud"}, {"name": "Fredonia", "lat": 5.89239, "lon": -75.68546, "country": "Colombia", "toast": "Salud"}, {"name": "Frontino", "lat": 6.77133, "lon": -76.13324, "country": "Colombia", "toast": "Salud"}, {"name": "Giraldo", "lat": 6.66667, "lon": -75.95346, "country": "Colombia", "toast": "Salud"}, {"name": "Girardota", "lat": 6.36789, "lon": -75.46231, "country": "Colombia", "toast": "Salud"}, {"name": "Gómez Plata", "lat": 6.68178, "lon": -75.21907, "country": "Colombia", "toast": "Salud"}, {"name": "Granada", "lat": 6.14353, "lon": -75.18532, "country": "Colombia", "toast": "Salud"}, {"name": "Guadalupe", "lat": 6.81449, "lon": -75.24063, "country": "Colombia", "toast": "Salud"}, {"name": "Guarne", "lat": 6.28345, "lon": -75.44363, "country": "Colombia", "toast": "Salud"}, {"name": "Guatapé", "lat": 6.25548, "lon": -75.16432, "country": "Colombia", "toast": "Salud"}, {"name": "Heliconia", "lat": 6.20831, "lon": -75.73565, "country": "Colombia", "toast": "Salud"}, {"name": "Hispania", "lat": 5.79925, "lon": -75.90718, "country": "Colombia", "toast": "Salud"}, {"name": "Itagui", "lat": 6.17874, "lon": -75.63117, "country": "Colombia", "toast": "Salud"}, {"name": "Ituango", "lat": 7.17117, "lon": -75.76404, "country": "Colombia", "toast": "Salud"}, {"name": "Jardín", "lat": 5.59038, "lon": -75.81846, "country": "Colombia", "toast": "Salud"}, {"name": "Jericó", "lat": 5.79211, "lon": -75.78601, "country": "Colombia", "toast": "Salud"}, {"name": "La Ceja", "lat": 6.0, "lon": -75.43311, "country": "Colombia", "toast": "Salud"}, {"name": "La Estrella", "lat": 6.14239, "lon": -75.65257, "country": "Colombia", "toast": "Salud"}, {"name": "La Pintada", "lat": 5.74867, "lon": -75.60626, "country": "Colombia", "toast": "Salud"}, {"name": "La Unión", "lat": 5.94642, "lon": -75.35917, "country": "Colombia", "toast": "Salud"}, {"name": "Liborina", "lat": 6.6779, "lon": -75.81218, "country": "Colombia", "toast": "Salud"}, {"name": "Maceo", "lat": 6.55196, "lon": -74.78741, "country": "Colombia", "toast": "Salud"}, {"name": "Marinilla", "lat": 6.19609, "lon": -75.30313, "country": "Colombia", "toast": "Salud"}, {"name": "Medellín", "lat": 6.25184, "lon": -75.56359, "country": "Colombia", "toast": "Salud"}, {"name": "Montebello", "lat": 5.93703, "lon": -75.52741, "country": "Colombia", "toast": "Salud"}, {"name": "Murindó", "lat": 6.84698, "lon": -76.71544, "country": "Colombia", "toast": "Salud"}, {"name": "Mutatá", "lat": 7.24407, "lon": -76.43564, "country": "Colombia", "toast": "Salud"}, {"name": "Nariño", "lat": 5.60893, "lon": -75.17656, "country": "Colombia", "toast": "Salud"}, {"name": "Nechí", "lat": 8.09419, "lon": -74.77573, "country": "Colombia", "toast": "Salud"}, {"name": "Necoclí", "lat": 8.42627, "lon": -76.78926, "country": "Colombia", "toast": "Salud"}, {"name": "Olaya", "lat": 6.62773, "lon": -75.8127, "country": "Colombia", "toast": "Salud"}, {"name": "Peñol", "lat": 6.23434, "lon": -75.22573, "country": "Colombia", "toast": "Salud"}, {"name": "Peque", "lat": 7.02123, "lon": -75.90926, "country": "Colombia", "toast": "Salud"}, {"name": "Pueblorrico", "lat": 5.8, "lon": -75.85, "country": "Colombia", "toast": "Salud"}, {"name": "Puerto Berrío", "lat": 6.50749, "lon": -74.52271, "country": "Colombia", "toast": "Salud"}, {"name": "Puerto Nare", "lat": 6.19167, "lon": -74.5867, "country": "Colombia", "toast": "Salud"}, {"name": "Puerto Triunfo", "lat": 5.87259, "lon": -74.6405, "country": "Colombia", "toast": "Salud"}, {"name": "Remedios", "lat": 7.02835, "lon": -74.69379, "country": "Colombia", "toast": "Salud"}, {"name": "Retiro", "lat": 6.05906, "lon": -75.51488, "country": "Colombia", "toast": "Salud"}, {"name": "Rionegro", "lat": 6.16667, "lon": -75.41667, "country": "Colombia", "toast": "Salud"}, {"name": "Sabanalarga", "lat": 6.84893, "lon": -75.81711, "country": "Colombia", "toast": "Salud"}, {"name": "Sabaneta", "lat": 6.15153, "lon": -75.61657, "country": "Colombia", "toast": "Salud"}, {"name": "Salgar", "lat": 5.96711, "lon": -75.98747, "country": "Colombia", "toast": "Salud"}, {"name": "San Andrés de Cuerquía", "lat": 6.90333, "lon": -75.6825, "country": "Colombia", "toast": "Salud"}, {"name": "San Carlos", "lat": 7.79177, "lon": -74.77316, "country": "Colombia", "toast": "Salud"}, {"name": "San Francisco", "lat": 6.11667, "lon": -75.98333, "country": "Colombia", "toast": "Salud"}, {"name": "San Jerónimo", "lat": 6.44139, "lon": -75.70783, "country": "Colombia", "toast": "Salud"}, {"name": "San José de la Montaña", "lat": 6.82205, "lon": -75.69757, "country": "Colombia", "toast": "Salud"}, {"name": "San Juan de Urabá", "lat": 8.75924, "lon": -76.52969, "country": "Colombia", "toast": "Salud"}, {"name": "San Luis", "lat": 6.04222222, "lon": -74.99333333, "country": "Colombia", "toast": "Salud"}, {"name": "San Pedro de los Milagros", "lat": 6.45944444, "lon": -75.55777888, "country": "Colombia", "toast": "Salud"}, {"name": "San Pedro de Uraba", "lat": 8.42291, "lon": -76.31747, "country": "Colombia", "toast": "Salud"}, {"name": "San Rafael", "lat": 6.31234, "lon": -75.02426, "country": "Colombia", "toast": "Salud"}, {"name": "San Roque", "lat": 6.48511, "lon": -75.0196, "country": "Colombia", "toast": "Salud"}, {"name": "San Vicente Ferrer", "lat": 6.32237, "lon": -75.3302, "country": "Colombia", "toast": "Salud"}, {"name": "Santa Bárbara", "lat": 5.88937, "lon": -75.58255, "country": "Colombia", "toast": "Salud"}, {"name": "Santa Fe de Antioquia", "lat": 6.55687, "lon": -75.82806, "country": "Colombia", "toast": "Salud"}, {"name": "Santa Rosa de Osos", "lat": 6.64738, "lon": -75.46031, "country": "Colombia", "toast": "Salud"}, {"name": "Santo Domingo", "lat": 6.47282, "lon": -75.16547, "country": "Colombia", "toast": "Salud"}, {"name": "Segovia", "lat": 7.28132, "lon": -74.64273, "country": "Colombia", "toast": "Salud"}, {"name": "Sonson", "lat": 5.75, "lon": -75.0, "country": "Colombia", "toast": "Salud"}, {"name": "Sopetrán", "lat": 6.52271, "lon": -75.74608, "country": "Colombia", "toast": "Salud"}, {"name": "Támesis", "lat": 5.66462, "lon": -75.71339, "country": "Colombia", "toast": "Salud"}, {"name": "Tarazá", "lat": 7.58358, "lon": -75.40068, "country": "Colombia", "toast": "Salud"}, {"name": "Tarso", "lat": 5.86467, "lon": -75.82192, "country": "Colombia", "toast": "Salud"}, {"name": "Titiribí", "lat": 6.06276, "lon": -75.7937, "country": "Colombia", "toast": "Salud"}, {"name": "Toledo", "lat": 7.01306, "lon": -75.69528, "country": "Colombia", "toast": "Salud"}, {"name": "Turbo", "lat": 8.09263, "lon": -76.72822, "country": "Colombia", "toast": "Salud"}, {"name": "Uramita", "lat": 6.89944, "lon": -76.17417, "country": "Colombia", "toast": "Salud"}, {"name": "Urrao", "lat": 6.31696, "lon": -76.1342, "country": "Colombia", "toast": "Salud"}, {"name": "Valdivia", "lat": 7.29382, "lon": -75.3919, "country": "Colombia", "toast": "Salud"}, {"name": "Valparaíso", "lat": 5.615, "lon": -75.62422, "country": "Colombia", "toast": "Salud"}, {"name": "Vegachí", "lat": 6.76141, "lon": -74.79473, "country": "Colombia", "toast": "Salud"}, {"name": "Venecia", "lat": 5.95417, "lon": -75.79904, "country": "Colombia", "toast": "Salud"}, {"name": "Vigía del Fuerte", "lat": 6.58933, "lon": -76.89599, "country": "Colombia", "toast": "Salud"}, {"name": "Yalí", "lat": 6.70257, "lon": -74.79018, "country": "Colombia", "toast": "Salud"}, {"name": "Yarumal", "lat": 6.98532, "lon": -75.45402, "country": "Colombia", "toast": "Salud"}, {"name": "Yolombó", "lat": 6.66569, "lon": -74.9912, "country": "Colombia", "toast": "Salud"}, {"name": "Yondó", "lat": 6.90738, "lon": -74.17686, "country": "Colombia", "toast": "Salud"}, {"name": "Zaragoza", "lat": 7.48971, "lon": -74.86919, "country": "Colombia", "toast": "Salud"}, {"name": "Arauca", "lat": 7.08471, "lon": -70.75908, "country": "Colombia", "toast": "Salud"}, {"name": "Arauquita", "lat": 7.02917, "lon": -71.42806, "country": "Colombia", "toast": "Salud"}, {"name": "Cravo Norte", "lat": 6.30173, "lon": -70.20415, "country": "Colombia", "toast": "Salud"}, {"name": "Fortul", "lat": 6.74611, "lon": -71.85667, "country": "Colombia", "toast": "Salud"}, {"name": "Puerto Rondón", "lat": 6.28048, "lon": -71.1, "country": "Colombia", "toast": "Salud"}, {"name": "Saravena", "lat": 6.96319, "lon": -71.8823, "country": "Colombia", "toast": "Salud"}, {"name": "Tame", "lat": 6.46065, "lon": -71.73618, "country": "Colombia", "toast": "Salud"}, {"name": "Baranoa", "lat": 10.79497, "lon": -74.92073, "country": "Colombia", "toast": "Salud"}, {"name": "Barranquilla", "lat": 10.96854, "lon": -74.78132, "country": "Colombia", "toast": "Salud"}, {"name": "Campo de la Cruz", "lat": 10.37844, "lon": -74.90258, "country": "Colombia", "toast": "Salud"}, {"name": "Candelaria", "lat": 10.47387, "lon": -74.88581, "country": "Colombia", "toast": "Salud"}, {"name": "Galapa", "lat": 10.8979, "lon": -74.887, "country": "Colombia", "toast": "Salud"}, {"name": "Juan de Acosta", "lat": 10.8293, "lon": -75.03346, "country": "Colombia", "toast": "Salud"}, {"name": "Luruaco", "lat": 10.61712, "lon": -75.15146, "country": "Colombia", "toast": "Salud"}, {"name": "Malambo", "lat": 10.85953, "lon": -74.77386, "country": "Colombia", "toast": "Salud"}, {"name": "Manatí", "lat": 10.46402, "lon": -74.9822, "country": "Colombia", "toast": "Salud"}, {"name": "Palmar de Varela", "lat": 10.74055, "lon": -74.75443, "country": "Colombia", "toast": "Salud"}, {"name": "Piojó", "lat": 10.74846, "lon": -75.10776, "country": "Colombia", "toast": "Salud"}, {"name": "Polonuevo", "lat": 10.77697, "lon": -74.85344, "country": "Colombia", "toast": "Salud"}, {"name": "Ponedera", "lat": 10.64297, "lon": -74.75393, "country": "Colombia", "toast": "Salud"}, {"name": "Puerto Colombia", "lat": 11.00854, "lon": -74.90887, "country": "Colombia", "toast": "Salud"}, {"name": "Repelón", "lat": 10.50937, "lon": -75.1283, "country": "Colombia", "toast": "Salud"}, {"name": "Sabanagrande", "lat": 10.80077, "lon": -74.77051, "country": "Colombia", "toast": "Salud"}, {"name": "Sabanalarga", "lat": 10.61636, "lon": -74.95717, "country": "Colombia", "toast": "Salud"}, {"name": "Santa Lucía", "lat": 10.3242, "lon": -74.96017, "country": "Colombia", "toast": "Salud"}, {"name": "Santo Tomás", "lat": 10.75773, "lon": -74.75451, "country": "Colombia", "toast": "Salud"}, {"name": "Soledad", "lat": 10.89986, "lon": -74.78787, "country": "Colombia", "toast": "Salud"}, {"name": "Suan", "lat": 10.30214, "lon": -74.91934, "country": "Colombia", "toast": "Salud"}, {"name": "Tubará", "lat": 10.87562, "lon": -74.97873, "country": "Colombia", "toast": "Salud"}, {"name": "Usiacurí", "lat": 10.74313, "lon": -74.97604, "country": "Colombia", "toast": "Salud"}, {"name": "Bogotá D.C.", "lat": 4.61263889, "lon": -74.0705, "country": "Colombia", "toast": "Salud"}, {"name": "Achí", "lat": 8.5695, "lon": -74.55715, "country": "Colombia", "toast": "Salud"}, {"name": "Altos del Rosario", "lat": 8.79162, "lon": -74.16556, "country": "Colombia", "toast": "Salud"}, {"name": "Arenal", "lat": 8.45928, "lon": -73.94331, "country": "Colombia", "toast": "Salud"}, {"name": "Arjona", "lat": 10.17594, "lon": -75.35884, "country": "Colombia", "toast": "Salud"}, {"name": "Arroyohondo", "lat": 10.2522, "lon": -75.0198, "country": "Colombia", "toast": "Salud"}, {"name": "Barranco de Loba", "lat": 8.94597, "lon": -74.10647, "country": "Colombia", "toast": "Salud"}, {"name": "Calamar", "lat": 10.23377, "lon": -74.9424, "country": "Colombia", "toast": "Salud"}, {"name": "Cantagallo", "lat": 7.37926, "lon": -73.9155, "country": "Colombia", "toast": "Salud"}, {"name": "Cartagena de Indias", "lat": 10.39972, "lon": -75.51444, "country": "Colombia", "toast": "Salud"}, {"name": "Cicuco", "lat": 9.27756, "lon": -74.64312, "country": "Colombia", "toast": "Salud"}, {"name": "Clemencia", "lat": 10.56645, "lon": -75.32499, "country": "Colombia", "toast": "Salud"}, {"name": "Córdoba", "lat": 9.55149, "lon": -74.898, "country": "Colombia", "toast": "Salud"}, {"name": "El Carmen de Bolívar", "lat": 9.7174, "lon": -75.12023, "country": "Colombia", "toast": "Salud"}, {"name": "El Guamo", "lat": 10.01753, "lon": -74.93483, "country": "Colombia", "toast": "Salud"}, {"name": "El Peñón", "lat": 8.98691, "lon": -73.94697, "country": "Colombia", "toast": "Salud"}, {"name": "Hatillo de Loba", "lat": 8.95635, "lon": -74.07819, "country": "Colombia", "toast": "Salud"}, {"name": "Magangué", "lat": 9.24202, "lon": -74.75467, "country": "Colombia", "toast": "Salud"}, {"name": "Mahates", "lat": 10.23293, "lon": -75.18985, "country": "Colombia", "toast": "Salud"}, {"name": "Margarita", "lat": 9.06325, "lon": -74.28134, "country": "Colombia", "toast": "Salud"}, {"name": "María la Baja", "lat": 9.99228, "lon": -75.34364, "country": "Colombia", "toast": "Salud"}, {"name": "Mompós", "lat": 9.1399, "lon": -74.54513, "country": "Colombia", "toast": "Salud"}, {"name": "Montecristo", "lat": 8.2971, "lon": -74.4733, "country": "Colombia", "toast": "Salud"}, {"name": "Morales", "lat": 8.2752, "lon": -73.86884, "country": "Colombia", "toast": "Salud"}, {"name": "Norosí", "lat": 8.52692, "lon": -74.03736, "country": "Colombia", "toast": "Salud"}, {"name": "Pinillos", "lat": 8.91925, "lon": -74.46771, "country": "Colombia", "toast": "Salud"}, {"name": "Regidor", "lat": 8.72229, "lon": -73.84891, "country": "Colombia", "toast": "Salud"}, {"name": "Río Viejo", "lat": 8.5874, "lon": -73.83901, "country": "Colombia", "toast": "Salud"}, {"name": "San Cristóbal", "lat": 9.87809, "lon": -75.25248, "country": "Colombia", "toast": "Salud"}, {"name": "San Estanislao", "lat": 10.39833, "lon": -75.15111, "country": "Colombia", "toast": "Salud"}, {"name": "San Fernando", "lat": 9.27972, "lon": -74.53389, "country": "Colombia", "toast": "Salud"}, {"name": "San Jacinto", "lat": 9.83906, "lon": -75.11043, "country": "Colombia", "toast": "Salud"}, {"name": "San Jacinto del Cauca", "lat": 8.23729, "lon": -74.66782, "country": "Colombia", "toast": "Salud"}, {"name": "San Juan Nepomuceno", "lat": 9.94976, "lon": -75.07426, "country": "Colombia", "toast": "Salud"}, {"name": "San Martín de Loba", "lat": 8.88214, "lon": -74.00353, "country": "Colombia", "toast": "Salud"}, {"name": "San Pablo", "lat": 10.05154, "lon": -75.26775, "country": "Colombia", "toast": "Salud"}, {"name": "Santa Catalina", "lat": 10.60448, "lon": -75.29555, "country": "Colombia", "toast": "Salud"}, {"name": "Santa Rosa", "lat": 10.47312, "lon": -75.3616, "country": "Colombia", "toast": "Salud"}, {"name": "Santa Rosa del Sur", "lat": 7.96444, "lon": -74.05444, "country": "Colombia", "toast": "Salud"}, {"name": "Simití", "lat": 7.81632, "lon": -73.97922, "country": "Colombia", "toast": "Salud"}, {"name": "Soplaviento", "lat": 10.33176, "lon": -75.11853, "country": "Colombia", "toast": "Salud"}, {"name": "Talaigua Nuevo", "lat": 9.30347, "lon": -74.56477, "country": "Colombia", "toast": "Salud"}, {"name": "Tiquisio", "lat": 8.55666, "lon": -74.26355, "country": "Colombia", "toast": "Salud"}, {"name": "Turbaco", "lat": 10.35707, "lon": -75.38044, "country": "Colombia", "toast": "Salud"}, {"name": "Turbaná", "lat": 10.27169, "lon": -75.44222, "country": "Colombia", "toast": "Salud"}, {"name": "Villanueva", "lat": 10.44759, "lon": -75.26574, "country": "Colombia", "toast": "Salud"}, {"name": "Zambrano", "lat": 9.74823, "lon": -74.88487, "country": "Colombia", "toast": "Salud"}, {"name": "Almeida", "lat": 4.97083, "lon": -73.37972, "country": "Colombia", "toast": "Salud"}, {"name": "Aquitania", "lat": 5.40341, "lon": -72.90192, "country": "Colombia", "toast": "Salud"}, {"name": "Arcabuco", "lat": 5.75463, "lon": -73.43669, "country": "Colombia", "toast": "Salud"}, {"name": "Belén", "lat": 5.98892, "lon": -72.91254, "country": "Colombia", "toast": "Salud"}, {"name": "Berbeo", "lat": 5.2276, "lon": -73.12527, "country": "Colombia", "toast": "Salud"}, {"name": "Betéitiva", "lat": 5.91102, "lon": -72.80926, "country": "Colombia", "toast": "Salud"}, {"name": "Boavita", "lat": 6.33031, "lon": -72.58505, "country": "Colombia", "toast": "Salud"}, {"name": "Boyacá", "lat": 5.45371, "lon": -73.3625, "country": "Colombia", "toast": "Salud"}, {"name": "Briceño", "lat": 5.68822, "lon": -73.91784, "country": "Colombia", "toast": "Salud"}, {"name": "Buenavista", "lat": 5.5, "lon": -73.96667, "country": "Colombia", "toast": "Salud"}, {"name": "Busbanzá", "lat": 5.83047, "lon": -72.88419, "country": "Colombia", "toast": "Salud"}, {"name": "Caldas", "lat": 5.5783, "lon": -73.88066, "country": "Colombia", "toast": "Salud"}, {"name": "Campohermoso", "lat": 4.97733, "lon": -73.16714, "country": "Colombia", "toast": "Salud"}, {"name": "Cerinza", "lat": 5.93649, "lon": -72.99127, "country": "Colombia", "toast": "Salud"}, {"name": "Chinavita", "lat": 5.17915, "lon": -73.37147, "country": "Colombia", "toast": "Salud"}, {"name": "Chiquinquirá", "lat": 5.61363, "lon": -73.83848, "country": "Colombia", "toast": "Salud"}, {"name": "Chíquiza", "lat": 5.60412, "lon": -73.48518, "country": "Colombia", "toast": "Salud"}, {"name": "Chiscas", "lat": 6.55642, "lon": -72.50378, "country": "Colombia", "toast": "Salud"}, {"name": "Chita", "lat": 6.07788, "lon": -72.46774, "country": "Colombia", "toast": "Salud"}, {"name": "Chitaraque", "lat": 5.96167, "lon": -73.45761, "country": "Colombia", "toast": "Salud"}, {"name": "Chivatá", "lat": 5.55823, "lon": -73.28198, "country": "Colombia", "toast": "Salud"}, {"name": "Chivor", "lat": 4.88556, "lon": -73.36889, "country": "Colombia", "toast": "Salud"}, {"name": "Ciénega", "lat": 5.40867, "lon": -73.29572, "country": "Colombia", "toast": "Salud"}, {"name": "Combita", "lat": 5.63333, "lon": -73.31667, "country": "Colombia", "toast": "Salud"}, {"name": "Coper", "lat": 5.47681, "lon": -74.04416, "country": "Colombia", "toast": "Salud"}, {"name": "Corrales", "lat": 5.82497, "lon": -72.84539, "country": "Colombia", "toast": "Salud"}, {"name": "Covarachía", "lat": 6.50563, "lon": -72.7331, "country": "Colombia", "toast": "Salud"}, {"name": "Cubará", "lat": 7.00578, "lon": -72.10568, "country": "Colombia", "toast": "Salud"}, {"name": "Cucaita", "lat": 5.54373, "lon": -73.45433, "country": "Colombia", "toast": "Salud"}, {"name": "Cuítiva", "lat": 5.58007, "lon": -72.96687, "country": "Colombia", "toast": "Salud"}, {"name": "Duitama", "lat": 5.8245, "lon": -73.03408, "country": "Colombia", "toast": "Salud"}, {"name": "El Cocuy", "lat": 6.32839, "lon": -72.43577, "country": "Colombia", "toast": "Salud"}, {"name": "El Espino", "lat": 6.50812, "lon": -72.48036, "country": "Colombia", "toast": "Salud"}, {"name": "Firavitoba", "lat": 5.66885, "lon": -72.99289, "country": "Colombia", "toast": "Salud"}, {"name": "Floresta", "lat": 5.85903, "lon": -72.92511, "country": "Colombia", "toast": "Salud"}, {"name": "Gachantivá", "lat": 5.74417, "lon": -73.54253, "country": "Colombia", "toast": "Salud"}, {"name": "Gameza", "lat": 5.80313, "lon": -72.73721, "country": "Colombia", "toast": "Salud"}, {"name": "Garagoa", "lat": 5.08236, "lon": -73.36334, "country": "Colombia", "toast": "Salud"}, {"name": "Guacamayas", "lat": 6.44599, "lon": -72.51676, "country": "Colombia", "toast": "Salud"}, {"name": "Guateque", "lat": 5.00619, "lon": -73.47274, "country": "Colombia", "toast": "Salud"}, {"name": "Guayatá", "lat": 4.96417, "lon": -73.4875, "country": "Colombia", "toast": "Salud"}, {"name": "Güicán", "lat": 6.46554, "lon": -72.41539, "country": "Colombia", "toast": "Salud"}, {"name": "Iza", "lat": 5.61203, "lon": -72.9793, "country": "Colombia", "toast": "Salud"}, {"name": "Jenesano", "lat": 5.38541, "lon": -73.36364, "country": "Colombia", "toast": "Salud"}, {"name": "Jericó", "lat": 6.14577, "lon": -72.58598, "country": "Colombia", "toast": "Salud"}, {"name": "La Capilla", "lat": 5.08076, "lon": -73.48076, "country": "Colombia", "toast": "Salud"}, {"name": "La Uvita", "lat": 6.24262, "lon": -72.56448, "country": "Colombia", "toast": "Salud"}, {"name": "La Victoria", "lat": 5.52278, "lon": -74.2328, "country": "Colombia", "toast": "Salud"}, {"name": "Labranzagrande", "lat": 5.56223, "lon": -72.57499, "country": "Colombia", "toast": "Salud"}, {"name": "Macanal", "lat": 4.9505, "lon": -73.32029, "country": "Colombia", "toast": "Salud"}, {"name": "Maripí", "lat": 5.55194, "lon": -74.00861, "country": "Colombia", "toast": "Salud"}, {"name": "Miraflores", "lat": 5.12216, "lon": -73.21212, "country": "Colombia", "toast": "Salud"}, {"name": "Mongua", "lat": 5.75084, "lon": -72.80339, "country": "Colombia", "toast": "Salud"}, {"name": "Monguí", "lat": 5.69752, "lon": -72.83359, "country": "Colombia", "toast": "Salud"}, {"name": "Moniquirá", "lat": 5.84315, "lon": -73.57775, "country": "Colombia", "toast": "Salud"}, {"name": "Motavita", "lat": 5.57655, "lon": -73.36696, "country": "Colombia", "toast": "Salud"}, {"name": "Muzo", "lat": 5.53528, "lon": -74.10778, "country": "Colombia", "toast": "Salud"}, {"name": "Nobsa", "lat": 5.76978, "lon": -72.94099, "country": "Colombia", "toast": "Salud"}, {"name": "Nuevo Colón", "lat": 5.35368, "lon": -73.4566, "country": "Colombia", "toast": "Salud"}, {"name": "Oicatá", "lat": 5.59548, "lon": -73.3082, "country": "Colombia", "toast": "Salud"}, {"name": "Otanche", "lat": 5.77534, "lon": -74.20315, "country": "Colombia", "toast": "Salud"}, {"name": "Pachavita", "lat": 5.13969, "lon": -73.39739, "country": "Colombia", "toast": "Salud"}, {"name": "Páez", "lat": 5.10112, "lon": -73.05123, "country": "Colombia", "toast": "Salud"}, {"name": "Paipa", "lat": 5.78013, "lon": -73.11708, "country": "Colombia", "toast": "Salud"}, {"name": "Pajarito", "lat": 5.34751, "lon": -72.72075, "country": "Colombia", "toast": "Salud"}, {"name": "Panqueba", "lat": 6.44533, "lon": -72.46268, "country": "Colombia", "toast": "Salud"}, {"name": "Pauna", "lat": 5.65861, "lon": -73.9825, "country": "Colombia", "toast": "Salud"}, {"name": "Paya", "lat": 5.62492, "lon": -72.42345, "country": "Colombia", "toast": "Salud"}, {"name": "Paz de Río", "lat": 6.00219, "lon": -72.78857, "country": "Colombia", "toast": "Salud"}, {"name": "Pesca", "lat": 5.50213, "lon": -73.08794, "country": "Colombia", "toast": "Salud"}, {"name": "Pisba", "lat": 5.72396, "lon": -72.48646, "country": "Colombia", "toast": "Salud"}, {"name": "Puerto Boyacá", "lat": 5.97214, "lon": -74.46349, "country": "Colombia", "toast": "Salud"}, {"name": "Quípama", "lat": 5.5194, "lon": -74.17765, "country": "Colombia", "toast": "Salud"}, {"name": "Ramiriquí", "lat": 5.4002, "lon": -73.33544, "country": "Colombia", "toast": "Salud"}, {"name": "Ráquira", "lat": 5.53793, "lon": -73.63201, "country": "Colombia", "toast": "Salud"}, {"name": "Rondón", "lat": 5.38173, "lon": -73.19683, "country": "Colombia", "toast": "Salud"}, {"name": "Saboyá", "lat": 5.69636, "lon": -73.76932, "country": "Colombia", "toast": "Salud"}, {"name": "Sáchica", "lat": 5.58453, "lon": -73.54184, "country": "Colombia", "toast": "Salud"}, {"name": "Samacá", "lat": 5.49273, "lon": -73.48537, "country": "Colombia", "toast": "Salud"}, {"name": "San Eduardo", "lat": 5.22396, "lon": -73.07696, "country": "Colombia", "toast": "Salud"}, {"name": "San José de Pare", "lat": 6.01746, "lon": -73.54703, "country": "Colombia", "toast": "Salud"}, {"name": "San Luis de Gaceno", "lat": 4.82052, "lon": -73.16851, "country": "Colombia", "toast": "Salud"}, {"name": "San Mateo", "lat": 6.37704, "lon": -72.57797, "country": "Colombia", "toast": "Salud"}, {"name": "San Miguel de Sema", "lat": 5.51847, "lon": -73.72238, "country": "Colombia", "toast": "Salud"}, {"name": "San Pablo de Borbur", "lat": 5.66638, "lon": -74.13723, "country": "Colombia", "toast": "Salud"}, {"name": "Santa María", "lat": 4.82282, "lon": -73.25373, "country": "Colombia", "toast": "Salud"}, {"name": "Santa Rosa de Viterbo", "lat": 5.87401, "lon": -72.98217, "country": "Colombia", "toast": "Salud"}, {"name": "Santa Sofía", "lat": 5.70213, "lon": -73.62976, "country": "Colombia", "toast": "Salud"}, {"name": "Santana", "lat": 6.04464, "lon": -73.51107, "country": "Colombia", "toast": "Salud"}, {"name": "Sativanorte", "lat": 6.13156, "lon": -72.70895, "country": "Colombia", "toast": "Salud"}, {"name": "Sativasur", "lat": 6.08959, "lon": -72.72432, "country": "Colombia", "toast": "Salud"}, {"name": "Siachoque", "lat": 5.51238, "lon": -73.24436, "country": "Colombia", "toast": "Salud"}, {"name": "Soatá", "lat": 6.29966, "lon": -72.72422, "country": "Colombia", "toast": "Salud"}, {"name": "Socha", "lat": 5.92926, "lon": -72.70072, "country": "Colombia", "toast": "Salud"}, {"name": "Socotá", "lat": 6.04028, "lon": -72.63509, "country": "Colombia", "toast": "Salud"}, {"name": "Sogamoso", "lat": 5.71434, "lon": -72.93391, "country": "Colombia", "toast": "Salud"}, {"name": "Somondoco", "lat": 4.98495, "lon": -73.43238, "country": "Colombia", "toast": "Salud"}, {"name": "Sora", "lat": 5.56514, "lon": -73.45017, "country": "Colombia", "toast": "Salud"}, {"name": "Soracá", "lat": 5.50055, "lon": -73.33299, "country": "Colombia", "toast": "Salud"}, {"name": "Sotaquirá", "lat": 5.76483, "lon": -73.24758, "country": "Colombia", "toast": "Salud"}, {"name": "Susacón", "lat": 6.22978, "lon": -72.6901, "country": "Colombia", "toast": "Salud"}, {"name": "Sutamarchán", "lat": 5.61538, "lon": -73.61701, "country": "Colombia", "toast": "Salud"}, {"name": "Sutatenza", "lat": 5.02311, "lon": -73.4523, "country": "Colombia", "toast": "Salud"}, {"name": "Tasco", "lat": 5.91044, "lon": -72.78001, "country": "Colombia", "toast": "Salud"}, {"name": "Tenza", "lat": 5.07664, "lon": -73.42077, "country": "Colombia", "toast": "Salud"}, {"name": "Tibaná", "lat": 5.31728, "lon": -73.39655, "country": "Colombia", "toast": "Salud"}, {"name": "Tibasosa", "lat": 5.74722, "lon": -73.01091, "country": "Colombia", "toast": "Salud"}, {"name": "Tinjacá", "lat": 5.57916, "lon": -73.64486, "country": "Colombia", "toast": "Salud"}, {"name": "Tipacoque", "lat": 6.42031, "lon": -72.69184, "country": "Colombia", "toast": "Salud"}, {"name": "Toca", "lat": 5.56393, "lon": -73.18398, "country": "Colombia", "toast": "Salud"}, {"name": "Togüí", "lat": 5.93462, "lon": -73.51297, "country": "Colombia", "toast": "Salud"}, {"name": "Tópaga", "lat": 5.75979, "lon": -72.82583, "country": "Colombia", "toast": "Salud"}, {"name": "Tota", "lat": 5.55833, "lon": -72.98757, "country": "Colombia", "toast": "Salud"}, {"name": "Tunja", "lat": 5.53528, "lon": -73.36778, "country": "Colombia", "toast": "Salud"}, {"name": "Tununguá", "lat": 5.72967, "lon": -73.94137, "country": "Colombia", "toast": "Salud"}, {"name": "Turmequé", "lat": 5.3236, "lon": -73.49067, "country": "Colombia", "toast": "Salud"}, {"name": "Tuta", "lat": 5.68966, "lon": -73.22779, "country": "Colombia", "toast": "Salud"}, {"name": "Tutazá", "lat": 6.03228, "lon": -72.85639, "country": "Colombia", "toast": "Salud"}, {"name": "Umbita", "lat": 5.18411, "lon": -73.48341, "country": "Colombia", "toast": "Salud"}, {"name": "Ventaquemada", "lat": 5.35987, "lon": -73.55032, "country": "Colombia", "toast": "Salud"}, {"name": "Villa de Leyva", "lat": 5.67061, "lon": -73.51554, "country": "Colombia", "toast": "Salud"}, {"name": "Viracachá", "lat": 5.43637, "lon": -73.29606, "country": "Colombia", "toast": "Salud"}, {"name": "Zetaquira", "lat": 5.25824, "lon": -73.18275, "country": "Colombia", "toast": "Salud"}, {"name": "Aguadas", "lat": 5.61161, "lon": -75.45624, "country": "Colombia", "toast": "Salud"}, {"name": "Anserma", "lat": 5.20427, "lon": -75.79167, "country": "Colombia", "toast": "Salud"}, {"name": "Aranzazu", "lat": 5.25519, "lon": -75.50984, "country": "Colombia", "toast": "Salud"}, {"name": "Belalcázar", "lat": 4.99528, "lon": -75.81278, "country": "Colombia", "toast": "Salud"}, {"name": "Chinchiná", "lat": 4.97522, "lon": -75.70416, "country": "Colombia", "toast": "Salud"}, {"name": "Filadelfia", "lat": 5.29606, "lon": -75.5612, "country": "Colombia", "toast": "Salud"}, {"name": "La Dorada", "lat": 5.53333, "lon": -74.7, "country": "Colombia", "toast": "Salud"}, {"name": "La Merced", "lat": 5.3806, "lon": -75.58842, "country": "Colombia", "toast": "Salud"}, {"name": "Manizales", "lat": 5.06889, "lon": -75.51738, "country": "Colombia", "toast": "Salud"}, {"name": "Manzanares", "lat": 5.23305, "lon": -75.15168, "country": "Colombia", "toast": "Salud"}, {"name": "Marmato", "lat": 5.47554, "lon": -75.5971, "country": "Colombia", "toast": "Salud"}, {"name": "Marquetalia", "lat": 5.29069, "lon": -75.08028, "country": "Colombia", "toast": "Salud"}, {"name": "Marulanda", "lat": 5.28393, "lon": -75.26016, "country": "Colombia", "toast": "Salud"}, {"name": "Neira", "lat": 5.17534, "lon": -75.52405, "country": "Colombia", "toast": "Salud"}, {"name": "Norcasia", "lat": 5.57535, "lon": -74.88831, "country": "Colombia", "toast": "Salud"}, {"name": "Pácora", "lat": 5.50631, "lon": -75.49054, "country": "Colombia", "toast": "Salud"}, {"name": "Palestina", "lat": 5.04571, "lon": -75.69552, "country": "Colombia", "toast": "Salud"}, {"name": "Pensilvania", "lat": 5.3884, "lon": -75.2042, "country": "Colombia", "toast": "Salud"}, {"name": "Riosucio", "lat": 5.42164, "lon": -75.70318, "country": "Colombia", "toast": "Salud"}, {"name": "Risaralda", "lat": 5.11237, "lon": -75.75861, "country": "Colombia", "toast": "Salud"}, {"name": "Salamina", "lat": 5.37014, "lon": -75.41548, "country": "Colombia", "toast": "Salud"}, {"name": "Samaná", "lat": 5.54061, "lon": -74.99346, "country": "Colombia", "toast": "Salud"}, {"name": "San José", "lat": 5.08221, "lon": -75.79107, "country": "Colombia", "toast": "Salud"}, {"name": "Supía", "lat": 5.45303, "lon": -75.65072, "country": "Colombia", "toast": "Salud"}, {"name": "Victoria", "lat": 5.45666, "lon": -74.84061, "country": "Colombia", "toast": "Salud"}, {"name": "Villamaría", "lat": 4.95078, "lon": -75.4368, "country": "Colombia", "toast": "Salud"}, {"name": "Viterbo", "lat": 5.06242, "lon": -75.87159, "country": "Colombia", "toast": "Salud"}, {"name": "Albania", "lat": 1.26325, "lon": -75.95366, "country": "Colombia", "toast": "Salud"}, {"name": "Belén de Los Andaquies", "lat": 1.41667, "lon": -75.91667, "country": "Colombia", "toast": "Salud"}, {"name": "Cartagena del Chairá", "lat": 1.33488, "lon": -74.84289, "country": "Colombia", "toast": "Salud"},